施設_名称,施設_市区町村コード,住所_都道府県,住所_市区町村（郡）,住所_緯度,住所_経度,連絡先_電話番号,連絡先_FAX番号,連絡先_郵便番号,連絡先_住所,施設_開局時間,時間外_対応の有無,時間外_電話番号,エラー
そうごう薬局東京サンケイビル店,131016,東京都,千代田区,35.687069,139.765045,03-3527-9781,03-3527-9782,100-0004,千代田区大手町1-7-2,月:9:00~18:00/火:9:00~18:00/水:9:00~18:00/木:9:00~18:00/金:9:00~18:00/,有,03-3527-9781,
アイン薬局大手町店,131016,東京都,千代田区,35.688286,139.765411,	03-	3510-	6318,	03-	3510-	6319,100-0004,千代田区大手町1-9-7大手町フィナンシャルシティサウスタワ-1階,月曜日-金曜日 9時-18時半土曜日 9時-15時日祝 店休,無,,
そうごう薬局OtemachiOne店,131016,東京都,千代田区,35.687737,139.76265,03-6268-0471,03-6268-0472,100-0004,千代田区大手町1-2-1Otemachi one地下1階,月~金:9:00~20:30 土:9:00~11:00,無,,
アイン薬局グランスタ丸の内店,131016,東京都,千代田区,35.681252,139.767242,03-6259-1561,03-6259-1562,100-0005,千代田区丸の内1丁目9-1JR東日本東京駅構内地下1階,月9:00~21:00/火9:00~21:00/水9:00~21:00/木9:00~21:00/金9:00~21:00/土9:00~21:00/日9:00~21:00,無,,
アイン薬局八重洲口店,131016,東京都,千代田区,35.682667,139.769562,03-6256-0278,03-6256-0279,100-0005,千代田区丸の内1-8-2鉄鋼ビルディングB1F,月9:00~21:00/火9:00~21:00/水9:00~21:00/木9:00~21:00/金9:00~21:00/土9:00~21:00/日9:00~21:00,無,,
エ-ル薬局日比谷店,131016,東京都,千代田区,35.674358,139.761444,03-3283-7078,03-3283-7350,100-0006,千代田区有楽町1丁目7-1 有楽町電気ビル北館507,月9:00~19:00/火9:00~19:00/水9:00~19:00/木9:00~19:00/金9:00~19:00/土10:00~12:00/備考:第2第4土曜日は10:00?13:30 祝日休み,有,03-3283-7078,
そうごう薬局 有楽町店,131016,東京都,千代田区,35.674953,139.764359,03-3218-3020,03-3218-3021,100-0006,千代田区有楽町2-10-1,月:9:00-18:30/火:9:00-18:30/水:9:00-18:30/木:9:00-17:30/金:9:00-18:30/土:9:00-13:00/,有,03-3218-3020,
調剤薬局霞が関ファ-マシ-,131016,東京都,千代田区,35.670742,139.750793,03-3519-7711,03-3519-9051,100-0013,千代田区霞が関1-4-1-105,月~金9:00~18:00土9:00~13:00,無,,
稲垣薬局霞が関店,,,,35.672791,139.748825,03-3581-7776,03-3581-7764,100-5003,千代田区霞が関3-1-5,月:9:00-18:30/火:9:00-18:30/水:9:00-18:30/木:9:00-18:30/金:9:00-18:30/,無,,郵便番号
桜木薬局,,,,35.721291,139.771729,03-3822-1027,03-3822-0573,101-0002,台東区上野桜木1-11-13,月:9:00-18:30/火:9:00-19:00/水:9:00-18:30/木:9:00-18:30/金:9:00-18:30/土:9:00-18:30/,有,03-3822-1027,郵便番号
ウエルシア薬局千代田御茶ノ水店,131016,東京都,千代田区,35.699322,139.767883,03-5256-7636,03-5256-7637,101-0021,千代田区外神田2-2-15,月~土9:00~14:00、15:00~19:00日・祝休み,無,,
ユニスマイル薬局 アキバ店,131016,東京都,千代田区,35.699543,139.774841,03-3526-5922,03-3526-5923,101-0023,千代田区神田松永町11番地,月:9:30~21:00/火:9:30~21:00/水:9:30~21:00/木:9:30~21:00/金:9:30~21:00/土:9:30~17:30/,有,03-3526-5922,
二六堂調剤薬局,131016,東京都,千代田区,35.699192,139.77597,03-3864-8269,03-3861-2625,101-0024,千代田区神田和泉町1-11,月:9:00-18:00/火:9:00-18:00/水:9:00-18:00/木:9:00-18:00/金:9:00-18:00/土:9:00-13:00/,有,070-3103-8269,
レモン薬局秋葉原店,131016,東京都,千代田区,35.698345,139.777634,03-5687-8451,03-5687-8452,101-0025,千代田区神田佐久間町3-37-59,月:10:00~19:00/火:10:00~19:00/水:10:00~19:00/木:10:00~19:00/金:10:00~19:00/土:10:00~15:00/,有,080-8304-1081,
日本調剤 秋葉原薬局,131016,東京都,千代田区,35.698647,139.776443,03-5839-2111,03-5839-2113,101-0025,千代田区神田佐久間町2-18,月:9:00~19:00/火:9:00~19:00/水:9:00~19:00/木:9:00~19:00/金:9:00~19:00/土:9:00~18:00/,無,,
神田いちご薬局,131016,東京都,千代田区,35.691666,139.773849,03-5256-1562,03-5256-1564,101-0035,千代田区神田紺屋町5 T・Mビル1階,月~金8:00~19:00土9:00~12:00,無,,
竹内薬局神田須田町店,131016,東京都,千代田区,35.695324,139.770599,03-6260-8301,03-6060-8302,101-0041,千代田区神田須田町1-16-8,月:9:00-18:00/火:9:00-18:00/水:9:00-18:00/木:9:00-18:00/金:9:00-18:00/土:9:00-13:00/,無,,
セルフケア薬局神田店,131016,東京都,千代田区,35.693783,139.772995,03-6206-4002,03-6206-4007,101-0043,千代田区神田富山町1-2 TKKビル1階,月~土11:00~20:00,無,,
ナチュラルロ-ソンクオ-ル薬局神田鍛冶町二丁目店,131016,東京都,千代田区,35.691235,139.772064,03-5209-0289,03-5209-0290,101-0044,千代田区鍛冶町2-3-2 神田センタ-ビル1階,月~金9:00~20:00土9:00~13:00,有,080-8754-5680,
みらくる薬局神田店,131016,東京都,千代田区,35.690914,139.772415,03-3526-2495,03-3526-2496,101-0044,千代田区鍛冶町1-8-3神田91ビルディング1F,月火水金:9:00~19:00、木:9:00~18:30、土:10:00~14:00,無,,
神田登栄薬局,131016,東京都,千代田区,35.691643,139.771591,03-3254-0848,03-3254-0848,101-0044,千代田区鍛冶町2-2-9,月:9:00~18:15/火:9:00~18:15/水:9:00~18:15/木:9:00~18:15/金:9:00~18:15/土:9:00~13:00/,無,,
ニシザワ薬局,131016,東京都,千代田区,35.691696,139.770111,03-3252-2438,03-3252-2440,101-0047,千代田区内神田3-14-8,月~金9:00~20:00土9:00~19:00日・祝休み,無,,
いちご薬局神保町,131016,東京都,千代田区,35.694981,139.759338,03-3296-7415,03-3296-7415,101-0051,千代田区神田神保町1-29 市瀬ビル1階,月~金9:00~18:00,無,,
ココカラファイン薬局神保町店,131016,東京都,千代田区,35.695366,139.755905,03-3556-0574,03-3556-0574,101-0051,千代田区神田神保町2-9,月:9:00~19:30/火:9:00~19:30/水9:00~19:30/木:9:00~19:30/金:9:00~19:30/土:10:00~14:00/,有,070-3138-8747,
小川町薬局,131016,東京都,千代田区,35.694798,139.762939,03-3291-1065,03-3291-1077,101-0052,千代田区神田小川町3-2-1,月・火・木・金9:30~20:00 水9:30~19:00土10:00~18:00,無,,
神田薬局,131016,東京都,千代田区,35.692947,139.764648,03-3233-1132,03-3233-1148 ,101-0054,神田錦町1-6 鈴木ビル1階,月・火・水・金9:00~18:00木10:00~18:00土9:00~13:00,有,090-4008-8953,
田辺薬局神田錦町店,131016,東京都,千代田区,35.691891,139.763672,03-5283-7351,03-5283-7352,101-0054,千代田区神田錦町1-5 カワベビル1階,月~金9:00~18:00,無,,
水道橋薬局,131016,東京都,千代田区,35.701344,139.753082,03-5226-2388,03-5226-2388,101-0061,千代田区神田三崎町2-17-5,月~金9:00~20:00土9:00~18:00,無,,
アイン薬局三崎店,131016,東京都,千代田区,35.69894,139.763489,0332961210,0332961238,101-0062,千代田区神田駿河台2-2 御茶ノ水杏雲ビル1F,月9:00~18:00/火9:00~18:00/水9:00~18:00/木9:00~18:00/金9:00~18:00/土9:00~13:00,有,03-3296-1210,
キク調剤薬局,131016,東京都,千代田区,35.69894,139.763489,03-3293-2397,03-3293-2398,101-0062,千代田区神田駿河台2-2-29,月:9:00~18:00/火:9:00~18:00/水:9:00~18:00/木:9:00~18:00/金:9:00~18:00/土:9:00~13:00/,無,,
コトブキ調剤薬局,131016,東京都,千代田区,35.698906,139.764282,03-3291-0380,03-3291-0390,101-0062,千代田区神田駿河台2-10-1,月:9:00-18:30/火:9:00-18:30/水:9:00-18:30/木:9:00-18:30/金:9:00-18:30/土:9:00-15:00/,有,090-3709-3706,
コトブキ調剤薬局 日大前店,131016,東京都,千代田区,35.698021,139.763245,03-3518-9886,03-3518-9887,101-0062,千代田区神田駿河台1-8-1,月:9:00-18:00/火:9:00-18:00/水:9:00-18:00/木:9:00-18:00/金:9:00-18:00/土:9:00-15:00/,無,,
南山堂薬局御茶ノ水店,131016,東京都,千代田区,35.698055,139.765045,03-5577-7651,03-5577-7652,101-0062,千代田区神田駿河台4-1-2ステラお茶の水ビル1F,月~土9:00~18:00日・祝:お休み,nan,,
日本調剤 お茶の水中央薬局,131016,東京都,千代田区,35.699497,139.762421,03-5217-0871,03-5217-0873,101-0062,千代田区神田駿河台2-1-15,月:9:00~18:00/火:9:00~18:00/水:9:00~18:00/木:9:00~18:00/金:9:00~18:00/土:9:00~13:00/,有,080-1070-0819,
日本調剤御茶ノ水橋口薬局,131016,東京都,千代田区,35.699821,139.76416,03-5283-7470,03-5283-7471,101-0062,千代田区神田駿河台2-6-1,月:9:00~18:00/火:9:00~18:00/水:9:00~18:00/木:9:00~18:00/金:9:00~18:00/土:9:00~13:00/,有,080-1014-7798,
日本調剤駿河台薬局,131016,東京都,千代田区,35.700001,139.760956,03-5577-3918,03-5577-3919,101-0062,千代田区神田駿河台2-5,月:9:00~18:00/火:9:00~18:00/水:9:00~18:00/木:9:00~18:00/金:9:00~18:00/土:9:00~13:00/,有,080-1338-0388,
和同会薬局,131016,東京都,千代田区,35.700954,139.761108,03-3296-1023,03-3296-0166,101-0062,千代田区神田駿河台2-3-10,月~金8:30~18:00土8:30~13:00日・祝休み,無,,
ロイヤル薬局神田淡路町店健康サポ-ト薬局,131016,東京都,千代田区,35.696877,139.768066,03-5295-3531,03-5295-3533,101-0063,千代田区神田淡路町2-6,月~金9:00~19:00土9:00~13:00,有,080-8118-9157,
日本調剤 飯田橋駅前薬局,131016,東京都,千代田区,35.697666,139.741531,03-5357-1997,03-5357-1998,102-0071,千代田区富士見2-9-10,月:9:00~18:00/火:9:00~18:00/水:9:00~18:00/木:9:00~18:00/金:9:00~18:00/土:9:00~13:00/,有,070-2814-5848,
日本調剤東京逓信病院前薬局,131016,東京都,千代田区,35.696861,139.742081,03-3221-7217,03-3221-7219,102-0071,千代田区富士見2-16-1,月:8:45~19:00/火:8:45~19:00/水:8:45~19:00/木:8:45~19:00/金:8:45~19:00/土:9:00~13:00/,有,080-1270-8145,
タンシ薬局,,,,35.700706,139.746445,03-5215-1502,03-5215-1909,102-0072,千代田区飯田橋4-4-6,月~金9:00~19:00土9:00~17:30,有,090-6168-2206,郵便番号
雄飛堂薬局飯田橋店,131016,東京都,千代田区,35.699413,139.74733,03-5216-3099,03-5216-3199,102-0072,千代田区飯田橋4-3-2,月:9:00-18:00/火:9:00-18:00/水:9:00-18:00/木:9:00-18:00/金:9:00-18:00/土:9;00-13:00/,有,090-4377-6997,
日本調剤 九段下薬局,131016,東京都,千代田区,35.695698,139.751511,03-5211-7971,03-5211-7973,102-0073,千代田区九段北1-3-2,月:9:00~20:30/火:9:00~20:30/水:9:00~20:30/木:9:00~20:30/金:9:00~20:30/土:9:00~18:00/,無,,
池田薬局,131016,東京都,千代田区,35.691887,139.740097,03-3265-0051,03-3265-0052,102-0074,千代田区九段南4-6-1-103,月~金9:00~19:00土9:00~17:00,無,,
東優企業組合オギムラ薬局営業所,131016,東京都,千代田区,35.693398,139.744202,03-3261-0278,03-3261-0278,102-0074,千代田区九段南2-4-11,月:9:00~19:00/火:9:00~19:00/水:9:00~19:00/木:9:00~19:00/金:9:00~19:00/土:9:00~15:00/,有,070-1583-0083,
いけだ薬局,131016,東京都,千代田区,35.687504,139.742767,03-5275-8989,03-5275-8995,102-0082,千代田区一番町7-1 1F,月~金8:30~18:30土9:00~13:30,無,,
アピス薬局 麴町店,131016,東京都,千代田区,35.683769,139.738632,03-3230-4881,03-3230-4882,102-0083,千代田区麹町3-3 麴町スクエアビル2F,月~金 9:30~19:00土 9:00~13:00,無,,
イオックス薬局 麹町店,131016,東京都,千代田区,35.68425,139.736771,03-5357-1630,03-6272-3986,102-0083,千代田区麹町4-8-19,月:9:00-19:00/火:9:00-19:00/水:9:00-17:00/木:9:00-19:00/金:9:00-19:00/土:9:00-13:00/,有,050-5375-2557,
アップル薬局六番町店,131016,東京都,千代田区,35.687035,139.733841,03-5211-2460,03-5211-5125,102-0085,千代田区六番町7番地 金澤ビル1階,月~土9:00~18:00日・祝休み,有,080-5862-3249,
テトラ薬局小伝馬町店,131024,東京都,中央区,35.691517,139.780075,03-3664-8211,03-3664-8212,103-0001,中央区日本橋小伝馬町14-5 メロ-ナ日本橋101,月~金 9:00~18:00土 9:00~13:00,有,03-3664-8211,
日本調剤馬喰町駅前薬局,131024,東京都,中央区,35.692711,139.782288,03-5962-3522,03-5962-3523,103-0002,中央区日本橋馬喰町1-6-1,月:9:00~19:00/火:9:00~19:00/水:9:00~19:00/木:9:00~19:00/金:9:00~19:00/土:9:00~18:00/,有,070-4362-4372,
日本調剤馬喰町薬局,131024,東京都,中央区,35.695293,139.782959,03-5643-0128,03-5643-0129,103-0002,中央区日本橋馬喰町2-2-5,月:8:30~18:00/火:8:30~18:00/水:8:30~18:00/木:8:30~18:00/金:8:30~18:00/土:9:00~13:00/,有,090-1420-5405,
日本調剤 東日本橋薬局,131024,東京都,中央区,35.692322,139.784729,03-5962-3920,03-5962-3921,103-0004,中央区東日本橋3-11-8,月:9:00~19:00/火:9:00~19:00/水:9:00~19:00/木:9:00~19:00/金:9:00~19:00/土:9:00~13:00/,有,080-8317-7158,
アイファ薬局日本橋久松町店,131024,東京都,中央区,35.689404,139.78476,03-6661-0635,03-6661-0427,103-0005,中央区日本橋久松町10-4 ソフィア日本橋1階,月~金9:30~18:30土9:30~13:30,有,080-1251-5906,
薬局トモズ トルナ-レ浜町店,131024,東京都,中央区,35.684128,139.787857,03-5614-6021,03-5614-6022,103-0007,中央区日本橋浜町3-3-1,月:9:00-18:00/火:9:00-18:00/水:9:00-18:00/木:9:00-18:00/金:9:00-18:00/土:9:00-18:00/,有,080-1025-9397,
メトロファ-マシ-日本橋小伝馬町,131024,東京都,中央区,35.691093,139.781021,03-6810-9725,03-6810-9726,103-0011,中央区日本橋大伝馬町13-8メディカルプライム日本橋小伝馬町1階,月・水・金9:00~20:00火・木9:00~19:00土9:00~17:00日9:00~13:30,有,03-6810-9725,
みらくる薬局日本橋店,131024,東京都,中央区,35.689457,139.780914,03-6383-0089,03-6383-0221,103-0012,中央区日本橋堀留町2-6-6ライフサイエンスビル1階,月・金9:00~20:00、火-木9:00~19:30、土日9:00~18:00,有,03-6383-0089,
テトラ薬局人形町2丁目店,131024,東京都,中央区,35.686146,139.784058,03-5651-7277,03-5651-7278,103-0013,中央区日本橋人形町2丁目9-7 未来堂ビル1階,月・火・木・金 9:30~19:00水 9:30~18:30土 9:30~13:00,無,,
テトラ薬局中央店,131024,東京都,中央区,35.68676,139.783524,03-5651-7743,03-5651-7744,103-0013,中央区日本橋人形町2-7-10 エル人形町ビル1階,月~金9:00~18:00土9:00~16:30,無,,
健ナビ薬樹薬局人形町,131024,東京都,中央区,35.684616,139.782425,03-5643-5287,03-5643-5284,103-0013,中央区日本橋人形町1-6-9 人形町大内ビル1階,月~金9:00~19:00土9:00~17:30,有,03-5643-5287,
薬局トモズ水天宮前店,131024,東京都,中央区,35.683655,139.783737,03-6231-0025,03-5643-3123,103-0013,中央区日本橋人形町1-13-9,月:9:00-19:00/火:9:00-19:00/水:9:00-19:00/木:9:00-19:00/金:9:00-19:00/土:9:00-14:00/,有,080-6854-3688,
セイムス調剤薬局人形町店,131024,東京都,中央区,35.684711,139.783905,	03-	5623-	4325,nan,103-0013,中央区日本橋人形町2-2-3アライヴ人形町1階,月火木金 9:00-19:00水 9:00-18:00土 9:00-15:00日祝休み,有,,
テトラ薬局,131024,東京都,中央区,35.68544,139.781586,	03-	3663-	1311,	03-	3663-	1312,103-0013,中央区日本橋人形町1-4-14,月・火・木・金 9:00-19:00水 9:00-18:00土 9:00-13:00日・祝 休み,無,,
チトセ薬局,131024,東京都,中央区,35.681801,139.783386,03-5623-7186,03-5623-7192,103-0014,中央区日本橋蛎殻町1-19-9 ル-ト蛎殻町ビル1F,月~金9:30~18:30土10:00~13:00,無,,
日本調剤日本橋室町薬局,131024,東京都,中央区,35.686001,139.772644,03-3517-2255,03-3517-2256,103-0022,中央区日本橋室町2-1-1,月:9:30-18:30/火:9:30-18:30/水:9:30-18:30/木:9:30-18:30/金:9:30-18:30/土:9:00-18:00/,有,080-1016-2636,
ウイング薬局茅場町店,131024,東京都,中央区,35.67979,139.780792,03-3527-3850,03-3668-1560,103-0025,中央区日本橋茅場町1-13-15,月:9:00-20:00/火:9:00-20:00/水:9:00-20:00/木:9:00-20:00/金:9:00-20:00/土:9:00-17:00/,無,,
ウイング薬局日本橋店,131024,東京都,中央区,35.68018,139.772858,03-6265-1711,03-6265-1712,103-0027,中央区日本橋3-8-16,月:10:00~18:00/火:10:00~19:30/水:10:00~19:30/木:10:00~19:30/金:10:00~19:30/土:10:30~16:30/,有,080-2845-7013,
ウエルシア薬局日本橋1号店,131024,東京都,中央区,35.68224,139.773346,03-3516-3232,03-3516-3233,103-0027,中央区日本橋2-1-10 柳屋ビル1階,月~土8:30~22:30日・祝日10:00~19:00,無,,
ウエルシア薬局日本橋駅前店,131024,東京都,中央区,35.68224,139.773346,03-3271-2286,03-3271-2287,103-0027,中央区日本橋2-1-10 柳屋ビル地下2階,月~金9:00~18:30土9:30~14:00日・祝休み,無,,
さくら薬局八重洲店,131024,東京都,中央区,35.682121,139.771912,03-3271-2221,03-6262-1557,103-0027,中央区日本橋2-2-20 日本橋リムビル1F,月~金9:00~18:30土10:00~14:00日・祝休み,有,03-3271-2221,
日本調剤八重洲薬局,131024,東京都,中央区,35.681023,139.771866,03-6281-9948,03-6281-9958,103-0027,中央区日本橋3-1-4 1階,月:9:00-20:00/火:9:00-20:00/水:9:00-20:00/木:9:00-20:00/金:9:00-20:00/土:9:00-18:00/,有,070-4454-7409,
ウエルシア薬局東京スクエアガ-デン店,131024,東京都,中央区,35.676559,139.768524,03-3242-0291,03-3242-0292,104-0031,中央区京橋3-1-1,月~土9:00~19:00日・祝休み,有,03-3242-0291,
クオ-ル薬局京橋店,131024,東京都,中央区,35.676441,139.770065,03-6271-0989,03-6271-0990,104-0031,中央区京橋2-5-21 京橋NSビル1階,月~金9:30~18:30,無,,
テトラ薬局八丁堀店,131024,東京都,中央区,35.675488,139.776932,03-5543-0141,03-5543-0142,104-0032,中央区八丁堀3-20-1 共伸ビル1F,月~金9:00~18:30,無,,
越前堀薬局,131024,東京都,中央区,35.674953,139.781769,03-3551-9933,03-3551-6862,104-0033,中央区新川2-17-12 Eビル1F,月~金8:00~19:30土8:30~14:00,有,090-5810-3728,
越前堀薬局プッシュ,131024,東京都,中央区,35.673939,139.782455,03-3555-1835,03-3555-1835,104-0033,中央区新川2-22-6,月~金10:00~18:00土9:30~14:30,有,090-5810-3728,
テトラ薬局 新富町店,131024,東京都,中央区,35.672646,139.773239,03-5541-7733,03-5541-7727,104-0041,中央区新富1-6-15サニ-ビル101,月~金 9:00~18:00土 9:00~13:00,有,080-6063-0065,
桜川薬局,131024,東京都,中央区,35.672768,139.776962,03-3551-5872,03-3553-6155,104-0042,中央区入船1-5-11,月:9:00~18:00/火:9:00~18:00/水:9:00~17:00/木:9:00~18:00/金:9:00~18:00/土:9:00~13:00/,無,,
日本調剤 明石町薬局,131024,東京都,中央区,35.667068,139.775467,03-5565-1493,03-5565-1494,104-0044,中央区明石町11-5,月:9:00-22:00/火:9:00-18:00/水:9:00-18:00/木:9:00-18:00/金:9:00-18:00/土:10:00-14:00/,有,070-6475-1338,
望星築地薬局,131024,東京都,中央区,35.667046,139.774551,03-3541-1193,03-3541-1997,104-0044,中央区明石町11-15,月:8:30~18:00/火:8:30~18:00/水:8:30~18:00/木:8:30~19:00/金:8:30~18:00/土:9:00~17:00/日:9:00~17:00/祝:9:00~17:00/,無,,
薬局エスエルファ-マシ-,131024,東京都,中央区,35.667507,139.778473,03-3542-6001,03-3542-6002,104-0044,中央区明石町8-1,月:9:00-18:00/火:9:00-18:00/水:9:00-18:00/木:9:00-18:00/金:9:00-21:00/土:10:00-14:00/,有,080-9580-5141,
トラヤ薬局,131024,東京都,中央区,35.669006,139.772598,03-3541-6648,03-3541-6083,104-0045,中央区築地2-9-6,月:9:00-17:00/火:9:00-18:00/水:9:00-18:00/木:9:00-18:00/金:9:00-18:00/土:9:00-13:00/,有,080-1036-6943,
田辺薬局築地市場店,131024,東京都,中央区,35.666458,139.768692,03-5148-3717,03-5148-3718,104-0045,中央区築地4-4-12,月:9:00-19:00/火:9:00-19:00/水:9:00-19:00/木:9:00-19:00/金:9:00-19:00/土:9:30-13:30/,有,080-9363-9818,
日本調剤築地薬局,131024,東京都,中央区,35.665997,139.769669,03-6226-4025,03-6226-4026,104-0045,中央区築地4-6-6,月:9:00~18:30/火:9:00~18:30/水:9:00~18:30/木:9:00~18:30/金:9:00~18:30/土:14:00~18:00/,無,,
薬局マツモトキヨシmatsukiyoLAB 佃二丁目店,131024,東京都,中央区,35.670841,139.786301,03-5547-7556,03-5547-7556,104-0051,中央区佃2-1-6,月:10:00-22:00/火:10:00-22:00/水:10:00-22:00/木:10:00-22:00/金:10:00-22:00/土:10:00-22:00/日:10:00-22:00/祝:10:00-22:00/,有,080-7749-2532,
アイン薬局月島店,131024,東京都,中央区,35.665268,139.782761,03-6204-9693,03-6204-9694,104-0052,中央区月島1-13-6 ウェルネス月島1階,月~土9:00~18:00,無,,
アポロ薬局,131024,東京都,中央区,35.661983,139.783768,03-3531-7724,03-3531-7724,104-0052,中央区月島二丁目17-9 1階,月:9:00~19:30/火:9:00~19:30/水:9:00~19:30/木:9:00~19:30/金:9:00~19:30/土:9:00~15:00/,有,03-3531-7724,
きらり月島薬局,131024,東京都,中央区,35.664883,139.783493,03-3533-0908,03-3533-0908,104-0052,中央区月島1-8-1,月:9:00~19:00/火:9:00~19:00/水:9:00~20:00/木:10:00~18:00/金:9:00~19:00/土:9:00~18:00/,無,,
クオ-ル薬局月島店,131024,東京都,中央区,35.660717,139.782959,03-3534-5972,03-3534-5973,104-0052,中央区月島4-5-12,月・水・木・金9:00~18:00火9:00~17:00,有,080-8754-5637,
フレンド薬局,131024,東京都,中央区,35.664993,139.781784,03-5548-5548,03-5548-5547,104-0052,中央区月島1-11-9,月9:00~18:30土9:00~13:30日・祝休み,無,,
みのり薬局,131024,東京都,中央区,35.66201,139.781189,03-3532-6771,03-6532-6772,104-0052,中央区月島3-13-4 善利ビル1階,月9:00~19:00土9:00~13:00日・祝休み,有,050-5893-0459,
恵愛堂薬局,131024,東京都,中央区,35.661427,139.783676,03-3533-3903,03-3536-5920,104-0052,中央区月島4-3-3ウィンド月島II 1階,月、木:9:00~18:00、火、水、金:9:00~19:00、土:9:00~13:00,有,03-3533-3903,
日本調剤晴海薬局,131024,東京都,中央区,35.650803,139.774704,03-5534-8197,03-5534-8198,104-0053,中央区晴海五丁目2-31,月:9:00~19:00/火:9:00~19:00/水:9:00~19:00/木:9:00~19:00/金:9:00~19:00/土:9:00~19:00/日:9:00~19:00/祝:9:00~19:00/,有,080-8013-9463,
薬局トモズ晴海トリトン店,131024,東京都,中央区,35.655556,139.78183,03-5144-8215,03-5144-8192,104-0053,中央区晴海1丁目8-16,月:8:30-19:00/火:8:30-19:00/水:8:30-19:00/木:8:30-19:00/金:8:30-19:00/土:8:30-19:00/日:8:30-19:00/祝:8:30-19:00/,有,080-1023-9163,
アイセイ薬局勝どき店,131024,東京都,中央区,35.658539,139.776215,03-3533-0225,03-3536-0226,104-0054,中央区勝どき3-5-5,月:9:00-20:45/火:9:00-20:45/水:9:00-20:45/木:9:00-20:45/金:9:00-20:45/土:9:00-17:00/日:9:00|-13:00/,有,03-3533-0225,
アピス勝どき店,131024,東京都,中央区,35.658607,139.776932,03-3531-8441,03-6225-0079,104-0054,中央区勝どき2-11-10,月~金 9:00~18:30土 9:00~14:00,有,03-3531-8441,
日本調剤パ-クタワ-勝どき薬局,131024,東京都,中央区,35.657032,139.778091,03-6910-1930,03-6910-1931,104-0054,中央区勝どき4-6-2,月:9:00~19:00/火:9:00~19:00/水:9:00~19:00/木:9:00~19:00/金:9:00~19:00/土:9:00~15:00/,有,080-1383-4359,
日本調剤勝どき薬局,131024,東京都,中央区,35.658077,139.776169,03-6219-0201,03-6219-0202,104-0054,中央区勝どき4-2-14,月:9:00-19:00/火:9:00-19:00/水:9:00-19:00/木:9:00-19:00/金:9:00-19:00/土:9:00-18:00/,有,080-2004-0015,
クオ-ル薬局銀座店,131024,東京都,中央区,35.673195,139.769318,03-3562-8636,03-3562-8638,104-0061,中央区銀座1-13-9 テラス銀座1階,月~金9:00~19:00土9:30~14:30,有,080-8754-5667,
阪神調剤薬局銀座店,131024,東京都,中央区,35.671013,139.760742,03-6255-5011,03-6255-5012,104-0061,中央区銀座7-2-4 ムサシ7ビル1階,月~金9:00~20:00土9:00~16:00,有,090-3868-5820,
日本調剤 歌舞伎座タワ-薬局,131024,東京都,中央区,35.669304,139.767654,03-3524-3081,03-3524-3082,104-0061,中央区銀座4-12-15,月:9:00~19:30/火:9:00~18:30/水:9:00~18:30/木:9:00~18:30/金:9:00~18:30/土:10:00~14:00/,有,090-3407-2054,
日本調剤 銀座泰明薬局,131024,東京都,中央区,35.672089,139.760788,03-5537-7025,03-5537-7026,104-0061,中央区銀座5-1-15,月:10:00-21:00/火:10:00-21:00/水:10:00-21:00/木:10:00-21:00/金:10:00-21:00/土:9:00-18:00/,無,,
薬局アポック銀座レンガ通り店,131024,東京都,中央区,35.674885,139.767502,03-5250-1080,03-5250-5002,104-0061,中央区銀座1-5-5 明興ビル1F,月~金10:00~19:00土10:00~18:00日・祝休み,有,090-9013-7446,
薬局くすりの福太郎銀座店,131024,東京都,中央区,35.668781,139.76416,03-5537-3329,03-5537-3329,104-0061,中央区銀座6-12-10,月~金10:00~20:00 土10:00~18:00日・祝休み,無,,
あおい調剤薬局,131032,東京都,港区,35.669678,139.748383,03-3591-0356,03-3591-0357,105-0001,港区虎ノ門1-2-16 浜崎ビル1階,月~金9:00~18:00土9:00~11:00日・祝休み,有,090-7849-4548,
ココカラファイン薬局虎ノ門店,131032,東京都,港区,35.668297,139.74733,03-5510-3727,03-6273-3461,105-0001,港区虎ノ門2-4-4,月:9:00~18:00/火:9:00~18:00/水:9:00~18:00/木:9:00~18:00/金:9:00~18:00/土:10:00~17:00/,有,070-3140-7094,
日生薬局虎ノ門店,131032,東京都,港区,35.669678,139.748383,03-3539-1721,03-3539-1722,105-0001,港区虎ノ門1-2-18 虎ノ門興業ビルディング地下1階,10:00~19:00,有,03-3539-1721,
日本調剤 虎ノ門薬局,131032,東京都,港区,35.669678,139.748383,03-3539-4712,03-3539-4717,105-0001,港区虎ノ門1-2-18,月:9:00-18:00/火:9:00-18:00/水:9:00-18:00/木:9:00-18:00/金:9:00-18:00/土:9:00-13:00/,有,080-1248-0011,
幸城薬局虎ノ門新橋店,131032,東京都,港区,35.667049,139.753433,03-6205-7011,03-6205-7012,105-0003,港区西新橋2-6-3染谷ビル1F,月~金8:00~18:00,有,03-6205-7011,
日本調剤 西新橋薬局,131032,東京都,港区,35.663643,139.752396,03-6430-4131,03-6430-4132,105-0003,港区西新橋3-20-1,月:9:00~17:00/火:9:00~17:00/水:9:00~17:00/木:9:00~17:00/金:9:00~17:00/土:9:00~14:00/,有,080-1305-8695,
日本調剤すぎの木薬局,131032,東京都,港区,35.661716,139.751343,03-5776-1371,03-5776-1372,105-0003,港区西新橋3-23-6,月:9:00~18:00/火:9:00~18:00/水:9:00~18:00/木:9:00~18:00/金:9:00~18:00/土:9:00~17:00/,有,070-4361-3467,
日本調剤御成門薬局,131032,東京都,港区,35.662666,139.751801,03-3433-8781,03-3433-8778,105-0003,港区西新橋3-22-8 ,月~金 9:00~18:30 土 9:00~17:00,有,080-1054-6499,
たんぽぽ薬局新橋店,131032,東京都,港区,35.666412,139.754608,03-6268-8748,03-6268-8749,105-0004,港区新橋3-2-4,月:10:00-20:00/火:10:00-20:00/水:10:00-20:00/木:10:00-20:00/金:10:00-20:00/土:9:00-20:00/,無,,
新橋内幸町薬局,131032,東京都,港区,35.667259,139.754761,03-6811-2384,03-6811-2394,105-0004,港区新橋2-12-16 明和ビル5F-5東,10:00~14:00、15:30~20:00日・祝休み,無,,
有限会社芝口薬局,131032,東京都,港区,35.6679,139.759171,03-3571-6809,03-3575-4719,105-0004,港区新橋1-4-3,月~金8:00~22:30土9:00~19:00日・祝休み,有,090-3134-6728 090-4072-7668,
ドラッグセイムス新橋日比谷口薬局,131032,東京都,港区,35.66769,139.756927,03-6811-2091,03-6811-2092,105-0004,港区新橋2-6-2新橋アイマ-クビル1階,月-金:9:00-20:00、土:9:00-18:00,有,070-3033-2463,
アイン薬局 芝大門店,131032,東京都,港区,35.659733,139.753326,03-6452-8952,03-6452-8953,105-0012,港区芝大門1-1-33三洋ビル1階,月8:00~18:00/火8:00~18:00/水8:00~18:00/木8:00~18:00/金8:00~18:00/土8:30~12:30,有,03-6452-8952,
清水薬局,131032,東京都,港区,35.656261,139.753845,03-3431-0877,03-3431-0874,105-0012,港区芝大門2-3-15,月・火・木・金9:00~20:00水9:00~19:00土9:30~15:00日・祝休み,有,080-3602-8789,
薬局トモズ浜松町店,131032,東京都,港区,35.65683,139.755798,03-5402-8684,03-5402-8685,105-0013,港区浜松町1-29-10,月:10:00-19:00/火:10:00-19:00/水:10:00-19:00/木:10:00-19:00/金:10:00-19:00/土:10:00-17:00/,無,,
ライオン薬局,131032,東京都,港区,35.651611,139.750839,03-3451-6278,03-3451-3438,105-0014,港区芝2-18-3,月9:30~19:30土9:30~18:00日・祝休み,有,03-3455-3638,
ナチュラルロ-ソンクオ-ル薬局城山トラストタワ-店,131032,東京都,港区,35.668579,139.749512,03-5776-1789,03-5776-1756,105-6001,港区虎ノ門城山4-3-1 トラストタワ-1階,月~土8:30~19:00,有,080-8754-5671,
薬局トモズ汐留シティセンタ-店,131032,東京都,港区,35.665634,139.761398,03-6215-9933,03-6215-9934,105-7190,港区東新橋1-5-2,月:9:00~19:30/火:9:00~19:30/水:9:00~19:30/木:9:00~19:30/金:9:00~19:30/土:9:00~18:00/日:10:00~17:00/祝:10:00~17:00/,無,,
慶應義塾大学薬学部附属薬局,131032,東京都,港区,35.658531,139.751541,03-5400-2636,03-5400-2637,105-8512,港区芝公園1-5-30,月9:00~19:00土9:00~13:00日・祝休み,有,03-5400-2636,
シミズファ-マシ-,131032,東京都,港区,35.658016,139.719681,03-3407-0794,03-3407-0793,106-0031,港区西麻布4-18-16-102,月~金9:30~18:00土10:00~14:00日・祝休み,有,090-1795-3543,
霞町薬局,131032,東京都,港区,35.660313,139.726562,03-5411-9311,03-5411-7541,106-0031,港区西麻布3-1-19 小山ビル1階,月~金9:00~18:00土9:00~13:00日・祝休み,有,03-5411-9311,
メトロシティ六本木薬局,131032,東京都,港区,35.663563,139.731369,03-6434-0693,03-6434-0693,106-0032,港区六本木7-14-11 メトロシティ六本木5階,月・水・金9:30~19:00,無,,
子安薬局,131032,東京都,港区,35.663563,139.731369,03-3401-8667,03-3479-5577,106-0032,港区六本木7-14-7,月~土10:00~19:00,無,,
日本調剤 六本木薬局,131032,東京都,港区,35.662449,139.731354,03-5772-3940,03-5772-3941,106-0032,港区六本木 6-1-20,月:9:30~19:00/火:9:30~19:00/水:9:30~18:00/木:9:30~19:00/金:9:30~19:00/土:9:30~17:00/,有,080-1152-2600,
薬局トモズ六本木ヒルズ店,131032,東京都,港区,35.660206,139.729202,03-5786-7717,03-5786-7718,106-0032,港区六本木6-10-3,月:10:30-19:00/火:10:30-19:00/水:10:30-19:00/木:10:30-19:00/金:10:30-19:00/土:11:00-13:30/,有,070-2195-1558,
薬樹薬局六本木泉ガ-デン,131032,東京都,港区,35.664543,139.739487,03-3568-3370,03-3568-3371,106-0032,港区六本木1-6-1 泉ガ-デンタワ-4階,月~土9:00~19:00土9:30~14:00、15:00~17:00,有,03-3568-3370,
そうごう薬局麻布台ヒルズ店,131032,東京都,港区,35.661549,139.740921,03-5544-9351,03-5544-9352,106-0041,港区麻布台1-3-1,月:9:00~18:30/火:9:00~18:30/水:9:00~18:30/木:9:00~18:30/金:9:00~18:30/土:9:00~17:30/,有,03-5544-9351,
ナルト薬局,131032,東京都,港区,35.65583,139.742508,03-3582-8982,03-3583-4018,106-0044,港区東麻布1-18-11,月~水・金9:00~19:30木・土9:00~17:30日・祝休み,無,,
そうごう薬局 麻布十番店,131032,東京都,港区,35.656441,139.734726,03-3401-8717,03-5474-5441,106-0045,港区麻布十番1-7-11,月:9:00~19:00/火:9:00~19:00/水:9:00~19:00/木:9:00~19:00/金:9:00~19:00/土:9:00~19:00/日:9:00~18:00/祝:9:00~13:00/,有,03-3401-8717,
麻布十番調剤薬局,131032,東京都,港区,35.656441,139.734726,03-6434-9867,03-6434-9868,106-0045,港区麻布十番1-7-1 ヨ-ロッパハウス1F,月:8:15~20:00/火:8:15~20:00/水:9:30~20:00/木:8:15~20:00/金:8:15~20:00/土:8:15~20:00/日:9:00~18:00/祝:10:00~18:00/,有,070-3303-6434,
薬樹薬局麻布十番,131032,東京都,港区,35.654423,139.736038,03-3457-0054,03-3457-0056,106-0045,港区麻布十番2-18-1,月:9:00-19:00/火:9:00-19:00/水:9:00-19:00/木:9:00-19:00/金:9:00-19:00/土:9:00-18:00/,有,03-3457-0054,
ゆりの木薬局南麻布店,131032,東京都,港区,35.647697,139.726913,03-5422-9935,03-5422-9936,106-0047,港区南麻布4-11-30,月:9:00~18:00/火:9:00~18:00/水:9:00~18:00/木:9:00~18:00/金:9:00~18:00/土:9:00~13:00/,有,090-2474-3731,
子安薬局広尾ガ-デン店,131032,東京都,港区,35.650242,139.72316,03-3446-4701,03-3446-2184,106-0047,港区南麻布4-1-29広尾ガ-デン1階,月~土:9:00~19:00,無,,
日本調剤麻布十番薬局,131032,東京都,港区,35.651875,139.73613,03-5730-0563,03-3454-5172,106-0047,港区南麻布1-6-36,月:9:00~19:00/火:9:00~19:00/水:9:00~19:00/木:9:00~19:00/金:9:00~19:00/土:9:00~17:00/,有,090-5504-6416,
日本調剤ケイリバ-薬局,131032,東京都,港区,35.660206,139.729202,03-5413-5551,03-5413-5570,106-6106,港区六本木6-10-1,月:10:00~18:30/火:10:00~18:30/水:10:00~18:30/木:10:00~18:30/金:10:00~18:30/土:10:00~13:30/,有,090-6942-5614,
アイン薬局赤坂溜池店,131032,東京都,港区,35.668858,139.741394,03-3568-7030,03-3583-7288,107-0052,港区赤坂1-11-15 M.Y赤坂ビル1階,月:9:00~19:00/火:9:00~19:00/水:9:00~19:00/木:9:00~19:00/金:9:00~19:00/土:9:00~13:00/,無,,
そうごう薬局 赤坂インタ-シティAIR店,131032,東京都,港区,35.669594,139.742661,03-6441-0971,03-6441-0970,107-0052,港区赤坂1-8-1,月:8:30~18:00/火:8:30~18:00/水:8:30~18:00/木:8:30~18:00/金:8:30~18:00/土:10:00~18:00/日:10:00~18:00/,有,03-6441-0971,
みらい薬局,131032,東京都,港区,35.669262,139.741714,03-5114-5101,03-5114-5102,107-0052,港区赤坂1-7-1,月:9:30-18:00/火:9:30-18:00/水:9:30-18:00/木:9:30-18:00/金:9:30-18:00/土:9:30-18:00/祝:9:30-18:00/,無,,
日本調剤 赤坂中央薬局,131032,東京都,港区,35.673473,139.73735,03-6230-9372,03-6230-9373,107-0052,港区赤坂3-13-11,月:9:30~19:00/火:9:30~19:00/水:9:30~19:00/木:9:30~19:00/金:9:30~19:00/土:9:00~13:00/,有,070-4301-5240,
ことぶき薬局 青山店,131032,東京都,港区,35.663441,139.710175,03-3499-5165,03-3499-5166,107-0061,港区北青山3-12-2 武村ビル1-A,月9:00~19:00/火9:00~19:00/水9:00~19:00/木9:00~19:00/金9:00~19:00/土10:00~15:00,有,080-6866-1741,
フレンド薬局表参道店,131032,東京都,港区,35.664246,139.710617,03-6805-0962,03-6805-0963,107-0061,港区北青山3-10-6,月~金9:00~20:00土9:00~19:00,無,,
広尾中央薬局,131032,東京都,港区,35.656841,139.717621,03-5774-0630,03-5774-0670,107-0062,港区南青山7-14-6,月9:00~18:00/火9:00~18:00/水9:00~18:00/木9:00~18:00/金9:00~18:00/土10:00~13:00,無,,
広尾調剤薬局,131032,東京都,港区,35.656841,139.717621,03-5468-8931,03-5468-8933,107-0062,港区南青山7-14-7 小寺ビル1F,月~金9:00~18:00 土9:00~13:00,無,,
青山薬局,131032,東京都,港区,35.671047,139.721481,03-3402-9313,03-3402-9329,107-0062,港区南青山2-10-9,月、火、金:9:00-20:00 水、木:9:00-19:00 土:9:00-18:00,有,090-4748-0135,
日生薬局広尾店,131032,東京都,港区,35.656841,139.717621,03-5469-8851,03-5469-8852,107-0062,港区南青山7-14-7 西川1階,月~金9:00~18:00土9:00~13:00,有,03-5469-8851,
日本調剤 南青山薬局,131032,東京都,港区,35.672642,139.724991,03-3796-5371,03-3796-5377,107-0062,港区南青山一丁目1番1号,月:9:00-18:30/火:9:00-18:30/水:9:00-18:30/木:9:00-18:30/金:9:00-18:30/土:10:00-17:00/,無,,
北村薬局,131032,東京都,港区,35.664352,139.712662,03-3400-2091,03-5485-9393,107-0062,港区南青山5-1-25,"月9:00~20:00,火9:00~20:00,水9:00~20:00,木9:00~20:00,金9:00~20:00,土9:00~20:00,日11:00~19:00,祝11:00~19:00",有,090-3402-7504,
QOLサポ-トクオ-ル薬局田町店,131032,東京都,港区,35.647045,139.74617,03-6435-3089,03-6459-4590,108-0014,港区芝5-27-6 泉田町ビル1F,月:10:00~20:00/火:10:00~20:00/水:10:00~20:00/木:10:00~20:00/金:10:00~20:00/土:10:00~14:00/,有,080-8066-6432,
アイン薬局三田店,131032,東京都,港区,35.648712,139.750885,03-6722-0971,03-6722-0972,108-0014,港区芝4-5-8池藤ビル1階,月8:45~18:00/火8:45~18:00/水8:45~18:00/木10:00~18:00/金8:45~18:00/土8:30~13:00,有,03-6722-0971,
いるか田町薬局,131032,東京都,港区,35.647045,139.74617,0364538207,0364538208,108-0014,港区芝5-27-5,月9:00~19:00/火9:00~19:00/水9:00~19:00/木9:00~19:00/金9:00~19:00/土10:00~19:00,無,,
三田調剤薬局,131032,東京都,港区,35.648643,139.746155,03-3451-0454,03-3451-0493,108-0014,港区芝5-16-1-1F,月~金9:00~19:00、(土)9:00~14:00日祝休,時間外電話に連絡の上FAX送信,070-5404-0504,
薬局ユニファ-,131032,東京都,港区,35.648663,139.745392,03-6809-6591,03-6809-6592,108-0014,港区芝5-15-1 1階,月:9:00~19:00/火:9:00~19:00/水:9:00~19:00/木:9:00~19:00/金:9:00~19:00/土:9:00~13:30/,有,03-6809-6591,
セイムス三田慶應義塾前薬局,131032,東京都,港区,35.649288,139.745026,	03-	6453-	9590,	03-	6453-	9591,108-0014,港区芝5-13-14MAビル芝III 1F,"平日9:00-13:30,14:30-19:00土曜日9:00-13:00日・祝 休み",有,	080-	8455-	0636,
田町芝浦ファミリ-薬局,131032,東京都,港区,35.644482,139.750092,03-6436-7903,03-6436-7904,108-0023,港区芝浦3-2-9 神田ビル1F,月:9:00~21:00/火:9:00~21:00/水:9:00~21:00/木:9:00~21:00/金:9:00~21:00/土:9:00~17:00/日:9:00~17:00/祝:9:00~17:00/,無,,
日本調剤芝浦アイランド薬局,131032,東京都,港区,35.639462,139.751404,03-5730-2230,03-5730-2231,108-0023,港区芝浦4-20-4,月:9:00-18:30/火:9:00-18:30/水:9:00-18:30/木:9:00-18:30/金:9:00-18:30/土:9:00-13:00/,有,070-3540-1733,
セイムス田町薬局,131032,東京都,港区,35.642521,139.749115,	03-	6435-	3310,	03-	6435-	3320,108-0023,港区芝浦3-12-2 1階,月-金曜日 9:00-19:00土曜日 9:00-13:00日曜日・祝日 休業,有,	03-	6435-	3310,
ドラッグセイムス田町薬局,131032,東京都,港区,35.642521,139.749115,03-6435-3310,03-6435-3320,108-0023,港区芝浦3-12-2田中ビル,月-金 9:00-19:00、土9:00-13:00,有,03-6435-3310,
ドラッグセイムス芝浦3丁目薬局,131032,東京都,港区,35.644482,139.750092,03-6809-3144,03-6809-3156,108-0023,港区芝浦3-2-22,月-金:9:00-21:00、土日祝:9:00-18:00,有,03-6809-3144,
ドラッグセイムス芝浦海岸通薬局,131032,東京都,港区,35.640358,139.748352,03-6435-3181,03-6435-3182,108-0023,港区芝浦4-13-23MS芝浦ビル1階,月-金:9:00-21:00、土日祝:10:00-20:00,有,080-3730-1916,
調剤薬局ツルハドラッグ白金台店,131032,東京都,港区,35.63657,139.724304,03-5789-9175,03-5789-9175,108-0071,港区白金台3-15-6,月~金9:00~19:00土9:00~18:00日・祝10:00~18:00,無,,
白金台鈴薬局,131032,東京都,港区,35.636162,139.723221,03-3442-3493,03-3442-4674,108-0071,港区白金台3丁目16番13号,月:9:00~18:00/火:9:00~18:00/水:9:00~18:00/木:9:00~18:00/金:9:00~18:00/土:9:00~13:00/,無,,
白金ヴェルデ薬局,131032,東京都,港区,35.644016,139.733353,03-6450-2645,03-6450-2690,108-0072,港区白金1-26-3-101,"月9:00~18:00,火9:00~18:00,水9:00~18:00,木9:00~18:00,金9:00~18:00,土9:00~17:00,日定休日,祝定休日",無,,
白金台南薬局,131032,東京都,港区,35.644264,139.725739,03-5421-0880,03-5421-0881,108-0072,港区白金6-6-1,月:9:00-18:00/火:9:00-18:00/水:9:00-18:00/木:9:00-18:00/金:9:00-18:00/土:9:00-13:00/,有,03-5421-0880,
白金調剤薬局,131032,東京都,港区,35.645294,139.733582,03-6277-3242,03-6277-3243,108-0072,港区白金一丁目14-11,月~金8:30~18:00 土9:00~13:30・14:30~17:30 日11:00~17:00,有,070-9100-4646,
三田ハウス調剤薬局,131032,東京都,港区,35.647598,139.737732,03-6435-4347,0364-6435-4347,108-0073,港区三田5-2-18-103,月:9:00-18:00/火:9:00-18:00/木:9:00-17:00/金:9:00-18:00/土:9:00-13:00/,無,,
中川薬局,131032,東京都,港区,35.651531,139.744034,03-5427-6728,03-5427-6729,108-0073,港区三田2-7-9,月:8:00~18:30/火:8:00~18:30/水:8:00~18:30/木:8:00~18:30/金:8:00~18:30/土:9:00~14:30/,有,090-5531-1145,
日本調剤三田薬局,131032,東京都,港区,35.653156,139.742737,03-5419-3557,03-5419-3558,108-0073,港区三田1-4-28,月:9:00~18:00/火:9:00~18:00/水:9:00~18:00/木:9:00~18:00/金:9:00~18:00/土:9:00~18:00/,有,080-1054-6470,
あさひ薬局高輪店,131032,東京都,港区,35.632256,139.731857,03-3440-1100,03-3440-1101,108-0074,港区高輪3-9-11,"月8:30~19:00,火8:30~18:00,水8:30~19:00,木8:30~19:00,金8:30~19:00,土8:30~16:00,日定休日,祝定休日",有,090-7188-1072,
調剤薬局ツルハドラッグ高輪台店,131032,東京都,港区,35.631798,139.731277,03-5739-1266,03-5739-1266,108-0074,港区高輪3-10-1 藤ビル1階,月~水・金9:00~19:00木9:00~18:00土9:00~15:00日・祝休み,有,080-6067-1512,
日本調剤白金高輪薬局,131032,東京都,港区,35.642868,139.735107,070-2814-5840,03-6721-7072,108-0074,港区高輪1-4-13,月:9:00~19:00/火:9:00~19:00/水:9:00~19:00/木:9:00~19:00/金:9:00~19:00/土:9:00~15:00/,有,070-2814-5840,
薬局マツモトキヨシ白金高輪店,131032,東京都,港区,35.643368,139.734619,03-5420-8696,03-5420-8696,108-0074,港区高輪1丁目3番13号,月:10:00-20:00/火:10:00-20:00/水:10:00-20:00/木:10:00-20:00/金:10:00-20:00/土:10:00-18:00/,無,,
薬局トモズ品川インタ-シティ店,131032,東京都,港区,35.626335,139.742004,03-5782-8889,03-5479-0889,108-0075,港区港南2-15-2,月:9:30-19:00/火:9:30-19:00/水:9:30-19:00/木:9:30-19:00/金:9:30-19:00/土:9:30-17:00/,無,,
オ-ラム薬局,131067,東京都,台東区,35.720215,139.769623,03-5842-1454,03-5842-1454,110-0002,台東区上野桜木1-10-11,月:9:00~17:30/火:9:00~17:30/水:9:00~17:30/金:9:00~17:30/土:9:00~13:00/,有,080-4359-6281,
いちご薬局,131067,東京都,台東区,35.726116,139.785049,03-3874-1519,03-3874-1578,110-0003,台東区根岸4-16-20,月:9:00~18:30/火:9:00~18:30/水:9:00~18:30/木:9:00~18:30/金:9:00~18:30/土:9:00~14:00/,有,03-3874-1519,
アイン薬局エキュ-ト上野店,131067,東京都,台東区,35.713696,139.776917,03-5830-3325,03-5830-3326,110-0005,台東区上野7丁目1-1JR上野駅3F,月9:00~18:00/火9:00~18:00/水9:00~18:00/木9:00~18:00/金9:00~18:00/土9:00~18:00/日9:00~18:00/備考:年中無休,有,080-2683-4652,
あおぞら薬局,131067,東京都,台東区,35.707119,139.771622,03-3835-9083,03-3835-9083,110-0005,台東区上野1-17-6第一扇園ビル2階,"月・火・木・金9:00~15:00, 17:00~19:00 土9:00~17:00",無,,
山村薬局,131067,東京都,台東区,35.706898,139.775208,03-3831-9312,03-3831-9313,110-0005,台東区上野5-26-16,"月9:00~20:00,火9:00~20:00,水9:00~20:00,木9:00~20:00,金9:00~20:00,土9:00~18:00,日祝定休日",有,03-3831-9312,
のぞみ薬局,131067,東京都,台東区,35.724289,139.790726,03-3874-1193,03-3874-1173,110-0012,台東区竜泉1-21-14-1F,月・火・水・金9:00~18:00木9:00~17:00,有,090-6941-7661,
アイセイ薬局三ノ輪店,131067,東京都,台東区,35.726887,139.790634,	03-	5808-	1210,nan,110-0012,台東区竜泉2-19-18 中川ビル1階,月火水金 0800-1800木 0800-1600土 0900-1300定休日 日祝,有,,
めぐみ薬局,131067,東京都,台東区,35.721344,139.787277,03-5603-1193,03-5603-1193,110-0013,台東区入谷2-25-3,"月9:00~18:00,火9:00~18:00,水9:00~18:00,木9:00~18:00,金9:00~18:00,土9:00~13:00,日定休日,祝定休日",有,090-6941-7661,
入谷薬局,131067,東京都,台東区,35.721169,139.785141,03-5824-1940,03-5824-1941,110-0013,台東区入谷1-18-5,月:9:00-19:00/火:9:00-19:00/水:9:00-19:00/木:9:00-19:00/金:9:00-19:00/土:9:00-13:00/,有,090-9142-4552,
竹内薬局 上野店,131067,東京都,台東区,35.7164,139.7827,03-6231-7680,03-6231-7687,110-0014,台東区北上野1-1-11,月:9:00~18:00/火:9:00~18:00/水:9:00~18:00/木:9:00~17:00/金:9:00~18:00/土:9:00~12:30/,有,090-3240-7354,
アイン薬局上野店,131067,東京都,台東区,35.710056,139.779633,03-5812-5781,03-5812-5782,110-0015,台東区東上野3-11-2,月9:00~18:00/火9:00~18:00/水9:00~18:00/木9:00~18:00/金9:00~18:00/土9:00~13:00/備考:祝日閉局,有,03-5812-5781,
ナチュラルロ-ソンクオ-ル薬局東上野五丁目店,131067,東京都,台東区,35.71172,139.781219,03-5827-3689,03-5827-3690,110-0015,台東区東上野5-2-2,月:9:00~21:00/火:9:00~21:00/水:9:00~21:00/木:9:00~21:00/金:9:00~21:00/土:9:00~21:00/,有,080-8754-5678,
上野鈴薬局,131067,東京都,台東区,35.712643,139.780991,03-5827-0407,03-5827-0408,110-0015,台東区東上野5-6-4,月:9:00~18:30/火:9:00~18:30/水:9:00~18:30/木:9:00~17:00/金:9:00~18:30/土:9:00~13:00/,有,090-4916-5485,
ファ-マライズ薬局上野店,131067,東京都,台東区,35.710094,139.779434,03-5807-8775,03-5807-8776,110-0015,台東区東上野3-11-3,月~金:8:30~17:30、土:8:30~12:30,有,090-6925-0813,
アイン薬局秋葉原駅東口,131067,東京都,台東区,35.700428,139.778793,03-5816-5759,03-5817-4189,110-0016,台東区台東1-4-2 柿澤ビル1F・2F,月9:00~18:30/火9:00~18:30/水9:00~18:30/木9:00~18:30/金9:00~18:00/土9:00~18:30/備考:第2土曜日は10:00~18:30,有,03-5816-5759,
阪神調剤薬局神田店,131067,東京都,台東区,35.700474,139.779037,03-5807-1385,03-5807-1386,110-0016,台東区台東1-4-12,月:9:00-18:00/火:9:00-18:00/水:9:00-18:00/木:9:00-18:00/金:9:00-18:00/土:9:00-13:00/,有,080-6121-4901,
日本調剤 台東薬局,131067,東京都,台東区,35.700371,139.779221,03-3832-3209,03-3832-3470,110-0016,台東区台東1-3-2,月:9:00~18:00/火:9:00~18:00/水:9:00~18:00/木:9:00~18:00/金:9:00~18:00/土:9:00~13:00/,有,080-1054-6466,
武井薬局,131067,東京都,台東区,35.703827,139.780884,03-3832-2925,03-3832-2965,110-0016,台東区台東二丁目19番6号,月:9:00~19:00/火:9:00~19:00/水:9:00~19:00/木:9:00~19:00/金:9:00~19:00/土:9:00~19:00/祝:9:00~17:30/,有,03-3832-2925,
つくし薬局,131067,東京都,台東区,35.726032,139.806702,03-3876-5007,03-3876-5017,111-0023,台東区橋場2-2-8-1F,月9:00~17:00/火9:00~20:30/水9:00~17:00/木9:00~17:00/金9:00~20:30/土9:00~13:00,有,03-3876-5007,
アイン薬局 千束店,131067,東京都,台東区,35.722553,139.793365,03-3875-8281,03-3875-8282,111-0031,台東区千束3-23-9,月9:00~17:30/火9:00~17:30/水9:00~17:30/木9:00~17:30/金9:00~17:30/土9:00~13:00/備考:日曜、祝日 閉局,有,080-1971-0995,
アイン薬局浅草店,131067,東京都,台東区,35.716133,139.796066,03-5827-1237,03-5827-1285,111-0032,台東区浅草2-29-14,月9:00~18:00/火9:00~18:00/水9:00~18:00/木9:00~18:00/金9:00~18:00/土9:00~18:00/備考:祝日、日曜日は休み,無,,
ケイ薬局,131067,東京都,台東区,35.71624,139.797287,03-3876-1506,03-3876-7356,111-0032,台東区浅草3-4-1,月~金9:00~17:30土9:00~16:00日・祝休み,有,03-3876-1506,
たから薬局浅草店,131067,東京都,台東区,35.714928,139.797989,03-5827-0365,03-5827-0375,111-0032,台東区浅草2-34-7 グレイプス1階,月~金9:00~18:30 土9:00~17:00,無,,
たけの薬局浅草店,131067,東京都,台東区,35.718822,139.796555,03-5808-9301,03-5808-9302,111-0032,台東区浅草4-42-9,月:9:00~18:30/火:9:00~18:30/水:9:00~18:30/木:9:00~17:00/金:9:00~18:30/土:9:00~13:00/,無,,
浅草わかば薬局,131067,東京都,台東区,35.713154,139.799744,03-6231-7066,03-6231-7077,111-0033,台東区花川戸1-13-16 濱松ビル1階,"月9:00~19:00,火9:00~19:00,水9:00~19:00,木9:00~19:00,金9:00~19:00,土9:00~13:00,日9:00~13:00,祝定休日",有,090-2842-7066,
ブレズ薬局,131067,東京都,台東区,35.712204,139.791931,03-6284-7160,03-6284-7161,111-0035,台東区西浅草2-13-11,月:10:00-19:00/火:10:00-19:00/木:10:00-19:00/金:10:00-19:00/土:10:00-19:00/,無,,
ミドリ調剤薬局,131067,東京都,台東区,35.715912,139.787338,03-3843-0898,03-3843-3477,111-0036,台東区松が谷3-13-3,"月9:00~18:00,火9:00~18:00,水9:00~18:00,木9:00~18:00,金9:00~18:00,土9:00~14:00,日定休日,祝定休日",有,03-3843-0898,
大塚雲鶴堂薬局,131067,東京都,台東区,35.709152,139.785095,03-3841-6800,03-3841-6800,111-0041,台東区元浅草4-6-4,月~金9:00~18:00、土9:00~13:00,有,03-3861-6800,
武井薬局元浅草店,131067,東京都,台東区,35.708603,139.782318,03-5830-1480,03-5830-1481,111-0041,台東区元浅草1-19-2,月:9:00~18:00/火:9:00~18:00/水:9:00~18:00/木:9:00~18:00/金:9:00~18:00/土:9:00~18:00/,有,03-3832-2925,
伊東薬局,131067,東京都,台東区,35.706127,139.789658,03-3851-9618,03-3865-0533,111-0051,台東区蔵前4-34-9,月:9:00~19:00/火:9:00~19:00/水:9:00~19:00/木:9:00~19:00/金:9:00~19:00/土:9:00~17:00/,有,03-3851-9618,
薬局日本メディカル蔵前店,131067,東京都,台東区,35.703461,139.791,03-5829-8941,03-5829-8942,111-0051,台東区蔵前3-4-9蔵ビル1F,月9:00~19:00/火9:00~19:00/水9:00~19:00/木9:00~19:00/金9:00~19:00/土9:00~19:00/備考:祝日休み,有,070-5550-0553,
ドラッグセイムス蔵前3丁目薬局,131067,東京都,台東区,35.703201,139.790665,	03-	5835-	2621,nan,111-0051,台東区蔵前3-1-10セントラルビル1F,月-金:9時-19時土:9時-18時,無,,
コ-セイ浅草橋薬局,131067,東京都,台東区,35.698387,139.783524,03-3865-5322,03-3865-5326,111-0053,台東区浅草橋1-25-10,月:9:00~18:30/火: 9:00~18:30/水: 9:00~18:30/木: 9:00~18:30/金: 9:00~18:30/土:9:00~13:00/,有,090-8034-6658,
ゆうま薬局,131067,東京都,台東区,35.700188,139.780991,03-5809-1505,03-5809-1560,111-0053,台東区浅草橋5-10-12-1F,月:9:00~18:00/火:9:00~18:00/水:9:00~18:00/木:9:00~18:00/金:9:00~18:00/土:14:00~16:00/,有,03-5809-1505,
みすじ薬局,131067,東京都,台東区,35.705677,139.786316,03-5825-0970,03-5825-0775,111-0055,台東区三筋2-18-12,月:9:00~17:00/火:9:00~19:30/水:9:00~17:00/木:9:00~17:00/金:9:00~17:00/土:9:00~13:00/,無,,
しんわ薬局上野店,131067,東京都,台東区,35.706673,139.784409,03-5821-7998,03-5821-7648,111-0056,台東区小島2-18-16 日刃ビル1F,月火水金8:30~18:30,無,,
みどり薬局,,,,35.704861,139.790253,03-3851-0054,03-3861-0518,111-1151,台東区蔵前4-21-9,"月9:00~18:00,火9:00~18:00,水9:00~18:00,木9:00~18:00,金9:00~18:00,土9:00~13:00,日定休日,祝定休日",有,090-8893-1261,郵便番号
スドウ薬局前町店,131059,東京都,文京区,35.721722,139.75209,03-5805-6162,03-5805-6163,112-0001,文京区白山5-35-9,月・火・金9:30~13:00、15:00~18:30 水・木・土9:30~13:00,無,,
スミレ薬局茗荷谷店,131059,東京都,文京区,35.719059,139.742279,03-5840-7567,03-5840-7578,112-0001,文京区白山3-3-4 田中ビル1階,月火木金9:00~13:00 15:00~19:00 水9:00~17:00 土9:00~14:00,有,03-5840-7567 転送電話対応,
白山駅前薬局,131059,東京都,文京区,35.720646,139.751846,03-5805-1886,03-5805-1887,112-0001,文京区白山5-36-9 興和ビル1階,"月9:00~19:00,火9:00~19:00,水9:00~19:00,木9:00~19:00,金9:00~19:00,土9:00~17:00,日定休日,祝定休日",有,03-5805-1886,
アイセイ薬局 後楽園店,131059,東京都,文京区,35.708931,139.751709,03-5805-2823,03-5805-2824,112-0002,文京区小石川2-1-13,月:9:00~18:30/火:9:00~18:30/水:9:00~18:30/木:9:00~18:00/金:9:00~18:30/土:9:00~18:00/,有,03-5805-2823,
そうごう薬局 文京小石川店,131059,東京都,文京区,35.71035,139.752686,03-6801-6961,03-6801-6972,112-0002,文京区小石川1-5-1,月:9:00~19:00/火:9:00~19:00/水:9:00~18:00/木:9:00~19:00/金:9:00~19:00/土:9:00~18:00/,有,03-6801-6961,
はりま坂サンテ薬局,131059,東京都,文京区,35.714771,139.740509,03-3814-0768,03-3811-0149,112-0002,文京区小石川4-21-1 小石川4丁目ビル102,月:9:30~19:00/火:9:30~19:00/水:9:30~18:00/木:9:30~19:00/金:9:30~19:00/土:9:30~15:00/,有,070-8418-3994,
アル薬局東京本店,131059,東京都,文京区,35.707623,139.743683,03-5615-8905,03-5615-8906,112-0004,文京区後楽2-23-7 宮田ビル1F,月9:00~18:00/火9:00~18:00/水9:00~18:00/木9:00~18:00/金9:00~18:00/土9:00~13:00,有,03-5615-8905,
鈴薬局茗荷谷店,131059,東京都,文京区,35.716766,139.737717,03-6304-1423,03-6304-1473,112-0006,文京区小日向4-7-20 コパ-ズ茗荷谷202,月:9:00~18:30/火:9:00~19:30/水:9:00~18:30/木:9:00~19:30/金:9:00~19:30/土:9:00~19:30/日:10:00~14:00/,有,070-4087-9045,
ひかわ調剤薬局,131059,東京都,文京区,35.724972,139.735992,03-3944-1327,03-3944-4590,112-0011,文京区千石3-4-3,月:9:00-17:15/火:9:00-17:15/水:9:00-17:15/木:9:00-17:15/金:9:00-17:15/土:9:00-13:00/,有,080-6762-2436,
みよの台薬局丸山町店,131059,東京都,文京区,35.727257,139.73999,03-5978-9333,03-5978-9334,112-0011,文京区千石3-37-14,月:9:00~19:00/火:9:00~19:00/水:9:00~19:00/木:9:00~19:00/金:9:00~19:00/土:9:00~13:30/,無,,
あかね薬局,131059,東京都,文京区,35.721622,139.732224,03-3945-4308,03-3945-4309,112-0012,文京区大塚4-45-10,"月9:00~19:30,火9:00~19:30,水9:00~19:30,木9:00~19:30,金9:00~19:30,土9:00~13:30,日定休日,祝定休日",有,03-3945-4308,
ソユ-ズ株式会社フロ-ラ薬局大塚店,131059,東京都,文京区,35.721359,139.738556,03-5319-1626,03-5319-1627,112-0012,文京区大塚3-36-9,月:9:00-18:00/火:9:00-18:00/水:9:00-18:00/木:9:00-17:00/金:9:00-18:00/土:08:30-17:30/,有,070-1254-9961,
恵愛堂薬局,131059,東京都,文京区,35.719852,139.725235,03-5319-4193,03-5319-4675,112-0012,文京区大塚5-40-18-3F,"月9:00~18:30,火9:00~18:30,水9:00~18:30,木9:00~17;00,金9:00~18:30,土9:00~13:00,日定休日,祝定休日",有,080-4193-5594,
紫山堂薬局,131059,東京都,文京区,35.717823,139.736572,03-3941-2171,03-3941-0634,112-0012,文京区大塚1-4-8,月~金 9:00~20:00土9:00~19:00日土9:00~18:00,無,,
御代の台薬局音羽店,131059,東京都,文京区,35.713345,139.730453,03-6902-9228,03-6902-9230,112-0013,文京区音羽1-5-18,月~水・金9:00~19:00 土9:00~13:00,有,03-6902-9228,
紫山堂薬局音羽店,131059,東京都,文京区,35.715561,139.729034,03-3947-4310,03-3947-4316,112-0013,文京区音羽1-20-14,月:9:00-19:00/火:9:00-19:00/水:9:00-19:00/木:9:00-18:00/金:9:00-19:00/土:9:00-14:00/,有,03-3947-4310,
ウエルシア薬局文京グリ-ンコ-ト店,131059,東京都,文京区,35.73064,139.746964,03-5976-4197,03-5976-4198,113-0021,文京区本駒込2-28-10 イ-ストウイングB1F,月~土9:00~20:00日・祝10:00~19:00,有,03-5976-4197,
なぎさ薬局千石駅前店,131059,東京都,文京区,35.727467,139.745865,03-6902-2477,03-6902-2478,113-0021,文京区本駒込2-10-4 四季ビル千石1階,月~金9:00~19:00土9:00~13:30,有,03-6902-2477,
パイン薬局,131059,東京都,文京区,35.731586,139.758026,03-3823-8487,03-3823-8488,113-0021,文京区本駒込4-20-11 エクセレント文京動坂1F,月8:30~18:00/火8:30~18:00/水9:00~17:00/木8:30~18:00/金8:30~18:00/土9:00~13:00,有,090-8807-2699,
駒込あおい薬局,131059,東京都,文京区,35.735294,139.747284,03-5981-8536,03-5981-8589,113-0021,文京区本駒込6-24-6,月:9:00-19:00/火:9:00-19:00/水:9:00-19:00/木:9:00-19:00/金:9:00-19:00/土:9:00-14:00/,有,080-8473-8927,
中川薬局本駒込店,131059,東京都,文京区,35.731026,139.750336,03-5319-0871,03-5319-0872,113-0021,文京区本駒込2-28-38,月:9:00-19:00/火:9:00-19:00/水:9:00-19:00/木:9:00-17:00/金:9:00-19:00/土:9:00-13:00/,有,03-5319-0871,
アイセイハ-ト薬局 千駄木店,131059,東京都,文京区,35.729961,139.762726,03-3827-4112,03-3824-2566,113-0022,文京区千駄木3-48-5,月9:00~18:30/火9:00~18:30/水9:00~18:00/木9:00~18:30/金9:00~18:30/土9:00~17:00/日9:00~12:00/備考:第2、4、5日曜日は閉局,有,03-3827-4112,
アイン薬局動坂店,131059,東京都,文京区,35.731625,139.759735,03-5814-0006,03-5814-0012,113-0022,文京区千駄木4-16-2,月9:00~19:00/火9:00~19:00/水9:00~19:00/木9:00~19:00/金9:00~19:00/土9:00~14:00,無,,
なぎさ薬局せんだぎ店,131059,東京都,文京区,35.723042,139.7621,03-5834-1280,03-5834-1282,113-0022,文京区千駄木二丁目13番1号 ルネ千駄木プラザ1階,月・火・木・金9:00~18:30水9:00~17:00 土9:00~14:00,有,03-5834-1280,
なの花薬局さつき店,131059,東京都,文京区,35.721016,139.760941,03-5834-8170,03-5834-8171,113-0022,文京区千駄木2-2-16,月~金8:30~17:30土8:30~16:30日・祝休み,有,03-5834-8170,
日本調剤弥生薬局,131059,東京都,文京区,35.720982,139.760818,03-3821-8410,03-3821-8400,113-0022,文京区千駄木2-2-17,月:8:30~17:30/火:8:30~17:30/水:8:30~17:30/木:8:30~17:30/金:8:30~17:30/土:8:30~16:30/,有,080-2113-9851,
ユニスマイル薬局駒込病院前店,131059,東京都,文京区,35.73035,139.757645,	03-	3828-	8833,	03-	3828-	0086,113-0022,文京区千駄木5-50-1,月曜日 9:00-18:30火曜日-金曜日 9:00-17:30土日祝日休局ですが、緊急時対応,有,,
雄飛堂薬局千駄木店,131059,東京都,文京区,35.72097,139.758392,03-3823-8551,03-3827-0111,113-0023,文京区向丘2-14-6,月~水・金8:30~19:00 木8:30~17:30 土8:30~15:00,無,,
ごんげん坂薬局,131059,東京都,文京区,35.720985,139.761337,03-3822-6371,03-3822-6372,113-0031,文京区根津1-27-2,月:9:00~17:00/火:9:00~17:00/水:9:00~17:00/木:9:00~17:00/金:9:00~20:00/土:9:00~13:00/,有,080-4106-6736,
にしすが水野薬局,131059,東京都,文京区,35.720524,139.758972,03-5684-7755,03-5684-7757,113-0032,文京区弥生1-5-8-100,月:8:30-18:00/火:8:30-18:00/水:8:30-18:00/木:8:30-18:00/金:8:30-18:00/土:8:30-16:30/,有,03-5684-7765,
日本調剤根津薬局,131059,東京都,文京区,35.720486,139.759552,03-5805-9331,03-5805-9332,113-0032,文京区弥生1-2-16,月:8:30~18:00/火:8:30~18:00/水:8:30~18:00/木:8:30~18:00/金:8:30~18:00/土:8:30~16:30/日:8:30~22:00/,有,090-3407-3375,
アイン薬局東大店,131059,東京都,文京区,35.714146,139.763214,03-5844-6335,03-5844-6336,113-0033,文京区本郷7丁目3番1号 南研究棟1F B,月8:30~19:00/火8:30~19:00/水8:30~19:00/木8:30~19:00/金8:30~19:00/土9:00~12:00/備考:第2.第4土曜日は9:00?13:00,無,,
プライム薬局本郷店,131059,東京都,文京区,35.707291,139.759552,03-5615-8552,03-5615-8553,113-0033,文京区本郷2-38-19,"月9:00~19:00,火9:00~19:00,水9:00~19:00,木9:00~19:00,金9:00~19:00,土9:00~13:00,日定休日,祝定休日",無,,
竹内調剤薬局東大店,131059,東京都,文京区,35.714146,139.763214,03-5844-6361,03-5844-6399,113-0033,文京区本郷7-3-1 南研究棟1階A,"月8:30~19:00,火8:30~19:00,水8:30~19:00,木8:30~19:00,金8:30~19:00,土9:00~13:00(隔週),日定休日,祝定休日",有,090-2667-4783,
南山堂薬局本郷店,131059,東京都,文京区,35.70731,139.760132,03-5615-8916,03-5615-8917,113-0033,文京区本郷2-40-8 本郷三丁目THビル1階,月:9:00~19:00/火:9:00~19:00/水:9:00~19:00/木:9:00~19:00/金:9:00~19:00/土:9:00~13:00/,有,03-5615-8916,
日本調剤 本郷三丁目薬局,131059,東京都,文京区,35.706787,139.7603,03-5804-3051,03-5804-3052,113-0033,文京区本郷2-40-17,月:9:00~19:00/火:9:00~20:00/水:9:00~19:00/木:9:00~20:00/金:9:00~19:00/土:9:00~17:00/,有,080-1014-0186,
ケイワ薬局湯島店,131059,東京都,文京区,35.701992,139.766205,03-5805-7898,03-5805-7988,113-0034,文京区湯島1-9-14,月:9:00-20:00/火:9:00-18:00/水:9:00-20:00/木:9:00-18:00/金:9:00-20:00/土:9:00-13:00/,無,,
好仁会薬局,131059,東京都,文京区,35.708328,139.763824,03-3812-4085,03-5684-5450,113-0034,文京区湯島4-1-22 三和ビル1階・2階,"月9:00~18:00,火9:00~18:00,水9:00~18:00,木9:00~18:00,金9:00~18:00,土定休日,日定休日,祝定休日",無,,
水野薬局,131059,東京都,文京区,35.708611,139.763824,03-5684-7755,03-5684-7723,113-0034,文京区湯島4-1-24,月~金:9:00~18:30、土9:00~13:00、日祝定休日,無,,
竹内薬局天神下店 ,131059,東京都,文京区,35.708027,139.771469,03-5846-8511,03-5846-8512,113-0034,文京区湯島3-38-13,月:9:00~19:00/火:9:00~19:00/水:9:00~18:30/木:9:00~19:00/金:9:00~19:00/土:9:00~13:00/,無,,
鉄門前薬局,131059,東京都,文京区,35.710396,139.76535,03-3868-3130,03-3811-7880,113-0034,文京区湯島4-11-10,"月9:00~18:00,火9:00~18:00,水9:00~18:00,木9:00~18:00,金9:00~18:00,土定休日,日定休日,祝定休日",無,,
日本調剤湯島薬局,131059,東京都,文京区,35.704376,139.767502,03-3834-3327,03-3834-3328,113-0034,文京区湯島3-4-13,月:9:00~18:30/火:9:00~18:30/水:9:00~18:30/木:9:00~18:30/金:9:00~18:30/土:9:00~13:00/,有,090-4020-9328,
和同会薬局 湯島店,131059,東京都,文京区,35.702213,139.765152,03-5684-3939,03-5684-3938,113-0034,文京区湯島1-8-4,"月8:30~19:00,火8:30~19:00,水8:30~19:00,木8:30~19:00,金8:30~19:00,土9:00~13:00,日定休日,祝定休日",有,080-4154-0848,
薬局日本メディカルシステム葛西中央店,,,,35.66293,139.872803,03-6661-3640,03-6661-3641,113-0083,江戸川区中葛西5-42-8,月:9:00-19:00/火:9:00-19:00/水:9:00-19:00/木:9:00-19:00/金:9:00-19:00/土:9:00-16:00/,有,080-4074-3727,郵便番号
アイランド薬局東十条店,131172,東京都,北区,35.764687,139.728333,03-3927-8121,03-3927-8120,114-0001,北区東十条3-1-11,月:9:00-18:00/火:9:00-18:00/水:9:00-18:00/木:9:00-18:00/金:9:00-18:00/土:9:00-17:00/,有,080-5878-2184,
あおぞら薬局 東十条店,131172,東京都,北区,35.767017,139.729523,03-3919-3492,03-3919-3492,114-0001,北区東十条4-8-13,月:9:00-13:00 15:00-19:00/火:9:00-13:00 15:00-19:00/水:9:00-13:00 15:00-19:00/木:9:00-13:00 15:00-19:00/金:9:00-13:00 15:00-19:00/土:9:00-13:00 /,有,090-1908-8023,
なの花薬局東十条店,131172,東京都,北区,35.766697,139.728882,03-5944-6255,03-5944-6256,114-0001,北区東十条4-6-17,月:9:00~18:15/火:9:00~18:15/水:9:00~18:15/木:14:00~18:00/金:9:00~18:15/土:9:00~17:00/,無,,
ひまわり薬局,131172,東京都,北区,35.763599,139.730469,03-3912-0293,03-3927-5400,114-0001,北区東十条2-6-5,月:9:00-17:20/火:9:00-17:20/水:9:00-17:20/木:9:00-17:20/金:9:00-17:20/土:9:00-12:40/,有,090-7808-8154,
調剤薬局ツルハドラッグ東十条北口店,131172,東京都,北区,35.765648,139.727585,03-5959-1268,03-5959-1268,114-0001,北区東十条3-16-9,月~金9:00~19:00土9:00~18:00,有,03-5959-1268,
東十条調剤薬局,131172,東京都,北区,35.764812,139.728271,03-5390-0608,03-5390-2640,114-0001,北区東十条3-1-10 秦野ビル1階,月:9:00~18:00/火:9:00~18:00/水:9:00~18:00/木:9:00~18:00/金:9:00~18:00/土:9:00~17:00/,無,,
富士薬局東十条店,131172,東京都,北区,35.764004,139.729553,03-5959-5600,03-5959-5611,114-0001,北区東十条2-14-14,月~水金9:00~13:00、14:00~18:00土9:00~13:00,無,,
齋藤第一薬局東十條四丁目店,131172,東京都,北区,35.766636,139.727188,03-3927-3881,03-3927-3891,114-0001,北区東十条4-4-15,月火木金9:00~18:00水土9:00~13:00,有,090-8211-7538,
アイランド薬局王子店,131172,東京都,北区,35.756519,139.737091,03-5390-4061,03-5390-4060,114-0002,北区王子2-14-15,月:9:00-18:00/火:9:00-18:00/水:9:00-18:00/木:9:00-18:00/金:9:00-18:00/土:9:00-13:00/,有,080-6803-5550,
サン薬局 王子店,131172,東京都,北区,35.755138,139.738876,03-3913-8373,03-5944-6294,114-0002,北区王子1-22-5サンプレ-王子ビル1F,月~金:9:00~18:30、土:9:00~13:00,無,,
マエノ薬局,131172,東京都,北区,35.755146,139.73735,03-5902-4880,03-5902-4877,114-0002,北区王子1-16-7,"月9:00~20:00,火9:00~20:00,水9:00~20:00,木9:00~20:00,金9:00~20:00,土10:00~19:00,日10:00~19:00,祝10:00~19:00",有,090-6796-2016,
鈴薬局王子店,131172,東京都,北区,35.754375,139.737244,03-5944-6937,03-5944-6938,114-0002,北区王子1-10-17,月:9:00-18:30/火:9:00-18:30/水:9:00-18:30/木:9:00-18:30/金:9:00-18:30/土:9:00-18:30/祝:9:30-18:30/,有,070-4018-7482,
アイセイ薬局東十条店,131172,東京都,北区,35.765789,139.731628,	03-	5902-	3015,	03-	3927-	7212,114-0002,北区王子5-1-40 2階,月火木金:8:30-18:30水:9:00-18:30土:9:00-14:00日祝休み,有,	03-	5902-	3015,
セイムス王子薬局,131172,東京都,北区,35.757111,139.737854,	03-	3927-	6181,	03-	5902-	4951,114-0002,北区王子2-27-7サン・21 1F,月曜日-金曜日 9:00-19:00土曜日 9:00-17:30定休日 日曜日・祝日,有,,
あすか薬局,131172,東京都,北区,35.760284,139.744644,03-3912-7478,03-3911-9899,114-0003,北区豊島3-5-6,"月9:00~17:00,火9:00~20:00,水9:00~17:00,木9:00~17:00,金9:00~20:00,土9:00~13:00,日定休日,祝定休日",有,080-1215-0339,
なの花薬局豊島団地店,131172,東京都,北区,35.763527,139.754242,03-3914-1146,03-3914-8750,114-0003,北区豊島5-5-6-113,月・火・木・金9:00~18:00水・土9:00~17:00,有,03-3914-1146 (転送),
ユ-カリ薬局,131172,東京都,北区,35.765965,139.739014,03-5902-3506,03-5902-3526,114-0003,北区豊島8-11-9,月9:00-19:00/火9:00-19:00/水9:00-19:00/木9:00-17:00/金9:00-19:00/土9:00-13:00,有,090-1274-0185,
ことぶき薬局 梶原銀座店,131172,東京都,北区,35.751366,139.748825,03-6908-4590,03-6908-4591,114-0004,北区堀船3-32-2,月9:00~18:00/火9:00~18:00/水9:00~18:00/木9:00~18:00/金9:00~18:00/土9:00~14:00,有,070-3625-6451,
ことぶき薬局 梶原店,131172,東京都,北区,35.751762,139.748978,03-3919-0061,03-3919-0062,114-0004,北区堀船3-33-2,月9:00~19:00/火9:00~21:00/水9:00~19:00/木9:00~19:00/金9:00~19:00/土9:00~14:00,無,,
竹内薬局田端店,131172,東京都,北区,35.738277,139.768341,03-3810-5711,03-3810-5712,114-0012,北区田端新町1-20-14,月:9:00-19:30/火:9:00-17:00/水:900-17:00/木:9:00-19:30/金:9:00-17:00/土:9:00-16:00/,有,080-1108-3128,
薬局くすりの福太郎田端新町店,131172,東京都,北区,35.738941,139.769394,03-5855-1708,03-5855-1708,114-0012,北区田端新町1-31-2,"月9:00~18:00,火9:00~18:00,水9:00~18:00,木定休日,金9:00~18:00,土9:00~13:00,日定休日,祝定休日",無,,
田端あおい薬局,131172,東京都,北区,35.739494,139.76207,03-3810-4002,03-3810-4003,114-0013,北区東田端1-14-1 MED田端101,"月9:00~19:00,火9:00~19:00,水9:00~19:00,木9:00~19:00,金9:00~19:00,土9:00~13:30,日定休日,祝定休日",無,,
ウエルシア薬局田端2丁目店,131172,東京都,北区,35.734093,139.757111,03-3827-4107,03-3827-4108,114-0014,北区田端2-3-12 サントル動坂1F,"月9:00~13:30、14:30~19:00,火9:00~13:30、14:30~19:00,水9:00~13:30、14:30~19:00,木9:00~13:30、14:30~19:00,金9:00~13:30、14:30~19:00,土9:00~13:30、14:30~19:00,日定休日,祝定休日",無,,
スタ-薬局,131172,東京都,北区,35.738274,139.758469,03-3821-2219,03-5809-0828,114-0014,北区田端6-3-1,月:9:00-18:00/火:9:00-18:00/水:9:00-18:00/木:9:00-18:00/金:9:00-18:00/日:9:00-13:00/,有,080-2839-9600,
谷田橋薬局,131172,東京都,北区,35.733627,139.758881,03-3821-8669,03-3823-6730,114-0014,北区田端2-1-17,月・火・木9:00~13:30、14:30~18:00水・金9:00~13:30、14:30~19:30土9:00~14:00,有,050-5437-2740,
小川薬局 田端店,131172,東京都,北区,35.732735,139.760345,03-3823-4847,03-3822-6260,114-0014,北区田端1-7-18 佐藤ハイツ102,月・火・木・金 9:00~19:00土 9:00~13:00,無,,
中川薬局田端店,131172,東京都,北区,35.735985,139.752258,03-3827-7561,03-5809-0880,114-0014,北区田端4-3-2,月:9:00-18:00/火:9:00-18:00/水:9:00-18:00/木:9:00-18:00/金:9:00-18:00/土:9:00-13:00/,有,070-4512-5915,
みよの台薬局駒込店,131172,東京都,北区,35.739113,139.748306,03-3576-1941,03-3576-4383,114-0015,北区中里2-17-12,月:9:00~18:30/火:9:00~18:30/水:9:00~17:00/木:9;00~18:30/金:9:00~18:30/土:9:00~13:00/,有,080-3543-6965,
御代の台薬局中里店,131172,東京都,北区,35.741642,139.752365,03-5974-9666,03-5974-9671,114-0015,北区中里3-17-2,月:9:00-19:00/火:9:00-19:00/水:9:00-19:00/木:9:00-17:00/金:9:00-19:00/土:9:00-13:00/,有,03-5974-9666,
雄飛堂薬局梶原店,131172,東京都,北区,35.750397,139.748566,03-5959-3980,03-5959-3981,114-0016,北区上中里3-6-13エスポワ-ルコ-シン101,月~金:9:00~19:00、土:9:00~13:00,有,03-5959-3980,
雄飛堂薬局王子本町店,131172,東京都,北区,35.753925,139.733047,03-3905-1233,03-3905-1210,114-0022,北区王子本町1-19-12 第二大扇ビル1階,月~水・金9:00-19:00木 9:00-18:00土 9:00-16:00,有,080-1358-5373,
あけぼの薬局,131172,東京都,北区,35.744648,139.71965,03-5907-2751,03-5907-2752,114-0023,北区滝野川7-5-5,"月9:00~19:00,火9:00~19:00,水9:00~19:00,木9:00~19:00,金9:00~19:00,土9:00~13:30,日定休日,祝定休日",有,03-5907-2751,
ニニナ薬局,131172,東京都,北区,35.745922,139.7258,03-5980-0090,03-5980-0092,114-0023,北区滝野川6-44-17 ,月:9:00~19:00/火:9:00~19:00/水:9:00~19:00/木:9:00~19:00/金:9:00~19:00/土:9:00~13:00/,無,,
みよの台薬局板橋駅前店,131172,東京都,北区,35.74538,139.721252,03-3916-2280,03-3916-2256,114-0023,北区滝野川7-10-4,月:9:00-19:00/火:9:00-19:00/水:9:00-19:00/木:9:00-19:30/金:9:00-19:00/土:9:00-18:00/,有,080-3448-0840,
ヤハタ薬局,131172,東京都,北区,35.743977,139.722916,03-3916-2518,03-3916-2522,114-0023,北区滝野川7-25-12,"月9:00~19:30,火9:00~19:30,水9:00~19:30,木9:00~19:30,金9:00~19:30,土9:00~15:00,日定休日,祝定休日",無,,
御代の台薬局銀座通り店,131172,東京都,北区,35.745636,139.722046,03-3576-5613,03-3915-6453,114-0023,北区滝野川6-62-1,月:9:00~19:00/火:9:00~19:00/水:9:00~19:00/木:9:00~19:00/金:9:00~19:00/土:9:00~13:30/,無,,
御代の台薬局仲通り店,131172,東京都,北区,35.745762,139.724091,03-3916-2648,03-3916-0789,114-0023,北区滝野川6-39-12,月:9:00~19:00/火:9:00~19:00/水:9:00~19:00/木:9:00~19:00/金:9:00~19:00/土:9:00~13:00/,有,080-3584-3849,
御代の台薬局板橋店,131172,東京都,北区,35.743187,139.721802,03-3916-3721,03-3915-8250,114-0023,北区滝野川7-30-9,月:9:00-19:00/火:9:00-19:00/水:9:00-19:00/木:9:00-19:00/金:9:00-19:00/土:9:00-13:00/,有,090-9688-0289,
あさひ調剤薬局西ヶ原店,131172,東京都,北区,35.745171,139.743225,03-693-5793,03-6903-5796,114-0024,北区西ケ原2-3-2,月9:00~18:00/火9:00~18:00/水9:00~18:00/木9:00~18:00/金9:00~18:00/土9:00~13:00,有,03-693-5793転送対応,
小川薬局 西ヶ原店,131172,東京都,北区,35.743435,139.738846,03-3940-5478,03-3918-4631,114-0024,北区西ケ原3-59-11,月~金 9:00~13:00、15:00~18:30土 9:00~13:00,無,,
ひのき薬局,131172,東京都,北区,35.763905,139.719467,03-5948-8205,03-5948-8206,114-0031,北区十条仲原2-14-3,月~土9:00~17:00,有,050-5306-1692,
雄飛堂薬局十条本店,131172,東京都,北区,35.762039,139.721268,03-5948-8728,03-5948-8358,114-0031,北区十条仲原1-8-27,月~水・金 9:00~18:00土9:00~17:00,無,,
日生薬局上十条店,131172,東京都,北区,35.759903,139.72084,03-5948-6010,03-5948-6011,114-0034,北区上十条2-12-10,月~金9:00~19:00土8:30~17:30日・祝休み,無,,
雄飛堂薬局 上十条二丁目店,131172,東京都,北区,35.760479,139.72052,03-3906-1233,03-0306-1289,114-0034,北区上十条二丁目26番5号1階,月9:00~18:00/火9:00~18:00/水9:00~18:00/木9:00~18:00/金9:00~18:00/土9:00~13:00,有,090-7286-0114,
天心堂薬局,131172,東京都,北区,35.762165,139.715408,	03-	3907-	5911,	03-	3907-	5912,114-0034,北区上十条4-15-10シルバ-ピア天心館1階,月-金 9時-19時土   9時-16時日曜日、祝日休み,無,,
アイセイ薬局志茂店,131172,東京都,北区,35.778263,139.72908,	03-	5249-	7338,nan,115-0042,北区志茂2-12-6,休業日:日曜祝日水曜・土曜:09:00-17:00それ以外:09:00-18:30,有,,
つばめ薬局,131172,東京都,北区,35.76643,139.735138,03-5390-6303,03-5390-6304,115-0043,北区神谷1-15-1-A,月:9:00-18:00/火:9:00-18:00/水:9:00-18:00/木:9:00-18:00/金:9:00-18:00/土:9:00-13:00/,有,090-1110-3081,
赤羽調剤薬局,131172,東京都,北区,35.779377,139.724762,03-3901-5179,03-3903-6467,115-0045,北区赤羽2-4-14,月:9:00~19:30/火:9:00~19:30/水:9:00~19:30/木:9:00~19:30/金:9:00~19:30/土:9:00~13:30/,有,090-3009-2363,
赤羽調剤薬局LaLa店,131172,東京都,北区,35.779324,139.724106,03-3598-9171,03-3598-9172,115-0045,北区赤羽2-4-10,月:9:00~18:30/火:9:00~18:30/水:9:00~17:30/木:9:00~18:30/金:9:00~18:30/土:9:00~13:30/,有,090-8034-4187,
田辺薬局赤羽東口店,131172,東京都,北区,35.780666,139.720367,03-5939-4171,03-5939-4172,115-0045,北区赤羽1-38-6,月:9:00~19:00/火:9:00~19:00/水:9:00~19:00/木:9:00~19:00/金:9:00~19:00/土:9:00~17:00/日:9:00~17:00/祝:9:00~17:00/,有,080-9862-3496,
薬局ガレリア,131172,東京都,北区,35.780239,139.725189,03-6314-6486,03-6311-0109,115-0045,北区赤羽2-24-11,月:10:00~20:00/火:10:00~20:00/水:10:00~20:00/木:10:00~20:00/金:10:00~20:00/土:9:00~19:00/,無,,
薬局マツモトキヨシ赤羽東口駅前店,131172,東京都,北区,35.778858,139.721451,03-3598-1551,03-3598-1551,115-0045,北区赤羽一丁目9番3号,月:9:00-20:00/火:9:00-20:00/水:9:00-20:00/木:9:00-20:00/金:9:00-20:00/土:9:00-17:00/,有,070-3023-8237,
雄飛堂薬局 LaLa赤羽店,131172,東京都,北区,35.779396,139.722672,03-5939-9011,03-5939-9014,115-0045,北区赤羽2-16-3,月~土 9:00~19:00月1回のみ日 9:00~13:30,有,080-8875-2838,
雄飛堂薬局 赤羽南店,131172,東京都,北区,35.777969,139.721497,03-6454-4580,03-6454-4581,115-0045,北区赤羽1-2-2-1F,月・火・木・金 10:00~19:00水 9:00~17:00土 9:00~13:00,無,,
ひまわり薬局浮間店,131172,東京都,北区,35.788147,139.700989,03-3558-3081,03-3558-3353,115-0051,北区浮間3-22-5 二ノ宮ビル1階,月・水・木9:00~17:00火・金9:00~20:00土9:00~13:00日・祝休み,有,03-3558-3081,
阪神調剤薬局エスティ薬局店,131172,東京都,北区,35.787041,139.705078,080-6157-8021,03-3966-5597,115-0051,北区浮間3-1-52,月:9:00-19:00/火:9:00-19:00/水:9:00-19:00/木:9:00-19:00/金:9:00-19:00/土:9:00-17:00/,有,080-6157-8021,
デイジ-薬局 環八店,131172,東京都,北区,35.785847,139.706665,03-5948-4059,03-5948-4050,115-0052,北区赤羽北2-24-24 ,月:9:30~18:30/火:9:30~18:30/水:8:00~16:00/木:9:30~18:30/金:9:30~18:30/土:9:30~13:00/,有,080-4366-4198,
デイジ-薬局 北赤羽店,131172,東京都,北区,35.785671,139.707016,03-6914-3281,03-6914-3280,115-0052,北区赤羽北2-25-8 ,月:9:30~18:00/火:9:30~18:00/水:8:00~16:00/木:9:30~18:00/金:9:30~18:00/土:9:30~13:00/,有,090-6168-9714,
テン薬局北赤羽駅前店,131172,東京都,北区,35.786648,139.708481,03-3909-4010,03-3909-4045,115-0052,北区赤羽北2-31-16-101,月:9:00-19:00/火:9:00-19:00/水:9:00-17:00/木:9:00-19:00/金:9:00-19:00/土:9:00-13:30/,有,03-3909-4010,
ウエルシア薬局赤羽台店,131172,東京都,北区,35.777954,139.714355,03-5963-5062,03 -5963-5063,115-0053,北区赤羽台1-5-18,月~金9:00~20:00土9:00~19:00日10:00~13:00、14:00~19:00,有,080-9973-1550,
マリン薬局,131172,東京都,北区,35.784744,139.71106,03-5924-1701,03-5924-1700,115-0053,北区赤羽台4-18-13,月:9:00-17:30/火:9:00-17:30/水:9:00-17:30/木:9:00-20:00/金:9:00-17:30/土:9:00-14:00/,有,080-5036-5731,
ゆりの木薬局赤羽台店,131172,東京都,北区,35.783997,139.712814,03-5924-3050,03-5924-3052,115-0053,北区赤羽台4-5-1,月:9:00-18:00/火:9:00-18:00/水:9:00-18:00/木:9:00-18:00/金:9:00-20:00/土:9:00-13:00/,有,03-5924-3053,
赤羽中央薬局,131172,東京都,北区,35.783207,139.70993,03-5963-6761,03-5963-6762,115-0054,北区桐ケ丘2-11-26,月:9:00-18:00/火:9:00-20:00/水:9:00-18:00/木:9:00-18:00/金:9:00-18:00/土:9:00-18:00/,有,03-5963-6761,
そうごう薬局 赤羽店,131172,東京都,北区,35.778118,139.717758,03-5948-6281,03-5948-6282,115-0055,北区赤羽西一丁目36番11号,月:8:30~18:30/火:8:30~18:30/水:8:30~18:30/木:8:30~17:30/金:8:30~18:30/土:8:30~17:00/日:8:30~17:00/,有,03-5948-6281,
マエノ薬局,131172,東京都,北区,35.776833,139.720108,03-3900-6521,03-3907-1773,115-0055,北区赤羽西1-4-12,月:9:00~20:00/火:9:00~20:00/水:9:00~20:00/木:9:00~20:00/金:9:00~20:00/土:9:00~20:00/日:10:00~19:00/祝:10:00~19:00/,有,090-6796-2016,
マエノ薬局赤羽駅前店,131172,東京都,北区,35.777416,139.719742,03-5948-6822,03-5948-6823,115-0055,北区赤羽西1-6-1 パルロ-ド2 107号室,月~金9:00~19:30土9:00~18:00日・祝休み,無,,
マエノ薬局赤羽西口店,131172,東京都,北区,35.776775,139.719971,03-5963-5272,03-5963-5273,115-0055,北区赤羽西1-15-14 エル・ル-ジュ赤羽西101,月~土9:00~20:00日・祝休み,有,090-6796-2016,
漢方調剤保険調剤マエノ薬局桐ヶ丘店,131172,東京都,北区,35.775196,139.706253,03-3908-6003,03-3908-6004,115-0055,北区赤羽西6-17-1,月~金9:00~19:00土9:00~18:00日休み,有,090-6796-2016,
マエノ薬局西が丘店,131172,東京都,北区,35.770042,139.714157,03-3905-1122,03-3900-1050,115-0056,北区西が丘1-15-11,月~金 9:00~19:30土 9:00~18:00,無,,
アイセイ薬局 町屋店,131180,東京都,荒川区,35.747623,139.783249,03-3895-6900,03-3895-6903,116-0001,荒川区町屋3-9-12,月~金:9:00~18:30、土:9:00~13:00,有,03-3895-6900,
フジシロ薬局,131180,東京都,荒川区,35.744446,139.778702,03-3895-3675,03-3895-3672,116-0001,荒川区町屋2_8_2,月:9:00-20:00/火:9:00-20:00/水:9:00-20:00/木:9:00-20:00/金:9:00-20:00/土:9:00-15:00/,有,090-8891-5243,
フラワ-薬局町屋駅前店,131180,東京都,荒川区,35.743206,139.781097,03-5939-7215,03-5939-7216,116-0001,荒川区町屋1-1-8,月:9:00-20:00/火:9:00-20:00/水:9:00-20:00/木:9:00-20:00/金:9:00-20:00/土:9:00-14:00/日:9:00-13:00/,有,080-3728-9001,
よしむら薬局,131180,東京都,荒川区,35.743298,139.782089,03-3895-6537,03-3895-6538,116-0001,荒川区町屋1-2-1 佐藤ビル101,月~金9:00~19:00土9:00~15:00,有,080-8099-3536,
町屋はなぞの薬局,131180,東京都,荒川区,35.745502,139.78244,03-3819-4593,03-3819-4630,116-0001,荒川区町屋1-7-3 美富士ハイム1F,月9:00~19:00土9:00~13:00,無,,
田辺薬局荒川町屋店,131180,東京都,荒川区,35.747589,139.784973,03-5855-7440,03-5855-7441,116-0001,荒川区町屋8-2-17,月・火・木・金:8:30-19:00土:8:30-13:00,有,070-7603-4215,
日生薬局町屋店,131180,東京都,荒川区,35.743553,139.78093,03-5855-1301,03-5855-1302,116-0001,荒川区町屋2-2-21,月・火・木・金9:00~19:00土9:00~13:00,有,03-5855-1301,
OGP薬局荒川店,131180,東京都,荒川区,35.738689,139.777679,03-5604-9995,03-5604-9995,116-0002,荒川区荒川5-11-18,月~金9:00~18:30土9:00~13:00日9:00~12:30,有,03-5604-9995,
あさがお薬局,131180,東京都,荒川区,35.737312,139.775986,03-5810-6940,03-5810-6941,116-0002,荒川区荒川5-2-6,月~金9:00~18:00土9:00~13:00日・祝休み,有,070-1048-6739,
あらかわ虹薬局,131180,東京都,荒川区,35.739582,139.781509,03-3803-1005,03-3803-1004,116-0002,荒川区荒川4-54-1,月:9:00-17:00/火:9:00-17:00/水:9:00-17:00/木:9:00-17:00/金:9:00-19:00/土:9:00-13:00/,有,090-2671-9497,
イオックス薬局 三河島店,131180,東京都,荒川区,35.735928,139.777206,03-5615-2796,03-5615-2798,116-0002,荒川区荒川3-78-3-1F,月:9:00-18:30/火:9:00-18:30/水:9:00-17:00/木:9:00-18:30/金:9:00-18:30/土:9:00-13:00/,有,03-5615-2796,
ウカイ薬局,131180,東京都,荒川区,35.735573,139.782089,03-3891-6055,03-3806-4643,116-0002,荒川区荒川2-4-2,月~金9:00~19:00土9:00~14:00,有,080-4818-6055,
えくぼ薬局,131180,東京都,荒川区,35.736336,139.779648,03-3801-2184,03-3801-2185,116-0002,荒川区荒川4-3-3,月9:00~19:00/火9:00~19:00/水9:00~19:00/木9:00~19:00/金9:00~19:00/土9:00~19:00/日9:00~13:00/備考:祝日はお休みです,有,0120-812-184,
クロ-バ-薬局,131180,東京都,荒川区,35.734501,139.785019,03-3805-0384,03-3805-0484,116-0002,荒川区荒川1-49-2 ,月・火・木・金9:00~19:00、水9:00~17:00、土9:00~14:00,有,070-2357-1086,
マ-クスタワ-薬局,131180,東京都,荒川区,35.742023,139.78035,03-3895-1750,03-3895-1751,116-0002,荒川区荒川7-46-1-102,月~金9:00~19:00土9:00~13:00日・祝休み,有,080-6767-4606,
セイムス町屋薬局,131180,東京都,荒川区,35.743958,139.776215,	03-	5855-	3822,03-5855-3823,116-0002,荒川区荒川6-70-12ベルシティオ町屋101,月-金 9:00-18:00土 9:00-17:00日祝 休,有,03-5855-3822,
アイセイ薬局南千住店,131180,東京都,荒川区,35.737522,139.806534,03-5850-5599,03-5850-5590,116-0003,荒川区南千住8-4-5-106,月・火・水・金9:30~18:30 木9:30~19:30土9:30~13:30,無,,
アイン薬局汐入店,131180,東京都,荒川区,35.737522,139.806534,03-5604-7093,03-5604-7095,116-0003,荒川区南千住8-4-4,月9:00~18:00/火9:00~18:00/水9:00~18:00/木9:00~18:00/金9:00~18:00/土9:00~15:00,有,03-5604-7093,
スミダ薬局南千住店,131180,東京都,荒川区,35.729939,139.799942,03-3805-8989,03-3805-8990,116-0003,荒川区南千住3-4-5,月:9:00~18:30/火:9:00~18:30/水:9:00~18:30/木:9:00~18:30/金:9:00~18:30/土:9:00~12:30/,有,03-3805-8989,
そうごう薬局 南千住店,131180,東京都,荒川区,35.733662,139.788727,03-6806-8951,03-6806-8952,116-0003,荒川区南千住1-1-1,月:9:00~18:00/火:9:00~18:00/水:9:00~18:00/木:9:00~18:00/金:9:00~18:00/土:9:00~13:00/,有,03-6806-8951,
なの花薬局南千住店,131180,東京都,荒川区,35.733471,139.793686,03-5604-2211,03-5604-2220,116-0003,荒川区南千住5-9-6-103号,月~金9:00~17:30土9:00~14:00日・祝休み,有,080-5835-9708,
ぱぱす薬局三ノ輪橋店,131180,東京都,荒川区,35.732586,139.791138,03-5615-0588,03-5615-0589,116-0003,荒川区南千住1-17-10,月:9:00-19:00/火:9:00-19:00/木:9:00-19:00/金:9:00-19:00/土:9:00-17:00/,有,070-6444-3431,
調剤薬局日本メディカルシステム南千住駅前店,131180,東京都,荒川区,35.733074,139.798203,03-5838-6880,03-5838-6881,116-0003,荒川区南千住7-1-1,月:8:30~18:30/火:8:30~20:00/水:9:00~18:30/木:8:30~18:30/金:8:30~20:00/土:8:30~13:00/,有,080-3727-3350,
南千住調剤薬局,131180,東京都,荒川区,35.735828,139.801926,03-5615-5129,03-5615-5129,116-0003,荒川区南千住4-7-1 BiVi1階,月~水・金9:00~19:00土9:00~13:00木・日・祝休み,無,,
薬局くすりの福太郎BiVi店,131180,東京都,荒川区,35.735828,139.801926,03-5850-5091,03-5850-5091,116-0003,荒川区南千住4-7-1 BiVi3階,月~金9:00~19:00土9:00~17:00日・祝休み,無,,
きらら薬局,131180,東京都,荒川区,35.74987,139.765167,03-6240-8086,03-6240-8186,116-0011,荒川区西尾久2-4-18,月~木9:00~18:30金9:00~20:00土9:00~14:00日・祝休み,有,03-6240-8086,
ことぶき薬局 尾久店,131180,東京都,荒川区,35.750805,139.758163,03-3800-9563,03-3800-9564,116-0011,荒川区西尾久6-30-3,月9:00~19:00/火9:00~19:00/水9:00~19:00/木9:00~19:00/金9:00~19:00/土9:00~13:00,有,070-2167-3437,
せきぐち薬局,131180,東京都,荒川区,35.749844,139.761795,03-3810-7971,03-3810-7972,116-0011,荒川区西尾久2-38-5,月~金9:00~18:00土9:00~17:00日・祝休み,無,,
ユニスマイル薬局西尾久店,131180,東京都,荒川区,35.749584,139.761642,03-5855-7231,03-3893-3933,116-0011,荒川区西尾久2-34-11,月:9:00-18:00/火:9:00-18:00/水:9:00-18:00/木:9:00-18:00/金:9:00-18:00/土:9:00-18:00/,無,,
関口薬局,131180,東京都,荒川区,35.750481,139.761841,0338003570,0338003570,116-0011,荒川区西尾久5-8-25,月8:30~18:00/火8:30~18:00/水8:30~18:00/木8:30~18:00/金8:30~18:00/土8:30~14:00,有,03-3800-3570,
あさひ調剤薬局東尾久店,131180,東京都,荒川区,35.747467,139.767761,03-6807-9661,03-3810-6230,116-0012,荒川区東尾久5□46□2 ディ-ア1階,月9:00~18:00/火9:00~18:00/水9:00~18:00/木9:00~18:00/金9:00~18:00/土9:00~13:00,有,03-6807-9661,
くまのまえ薬局,131180,東京都,荒川区,35.749317,139.769455,03-3895-9630,03-3895-9631,116-0012,荒川区東尾久8-14-1 カスタリア1階,月~金8:30~18:00土8:30~13:00,有,03-3895-9630,
さぜ薬局,131180,東京都,荒川区,35.746017,139.774048,03-3892-6681,03-3892-6682,116-0012,荒川区東尾久6-9-20,月~金8:30~18:30土8:30~14:00日・祝休み,有,03-3892-6681,
入江薬局トダカコ-ポ店,131180,東京都,荒川区,35.746662,139.769745,03-3895-0152,03-3895-0162,116-0012,荒川区東尾久3-30-5,月~金:8:30~18:30、土:8:30~13:00,無,,
入江薬局本店,131180,東京都,荒川区,35.747627,139.769882,03-3895-0129,03-3895-0195,116-0012,荒川区東尾久3-31-9-101グラン・エスポワ-ル,月~金:9:00~18:30  土:9:00~17:00,無,,
あすか薬局西日暮里店,131180,東京都,荒川区,35.732471,139.768707,03-6806-5530,03-6806-5531,116-0013,荒川区西日暮里5-11-8,月:9:30-18:30/火:9:30-18:30/水:9:30-18:30/木:9:30-18:30/金:9:30-18:30/土:9:30-12:30/,有,090-3432-6968,
とまと薬局西日暮里店,131180,東京都,荒川区,35.735622,139.767914,03-6807-7275,03-6807-7278,116-0013,荒川区西日暮里6-54-11 第一三京ビル102号,月~金 9:15~18:45土 9:00~18:00,有,080-4476-7103,
ドラッグセイムス東日暮里薬局,131180,東京都,荒川区,35.729115,139.783508,03-5615-2953,03-5615-2954,116-0014,荒川区東日暮里2-47-6,月-金9:00-18:30、土9:00-18:00,無,,
どらっぐぱぱす薬局三ノ輪店,131180,東京都,荒川区,35.731224,139.7901,03-5850-5145,03-5850-5168,116-0014,荒川区東日暮里1-5-10,月:9:00-19:00/火:9:00-19:00/水:9:00-19:00/木:9:00-19:00/金:9:00-19:00/土:9:00-19:00/日:9:00-14:00/,有,080-7769-1781,
みどり調剤薬局,131180,東京都,荒川区,35.725895,139.780731,03-3891-6720,03-3891-6704,116-0014,荒川区東日暮里4-20-7,月~水・金9:00~19:00土9:00~13:30,無,,
荒川鈴薬局,131180,東京都,荒川区,35.730793,139.779037,03-5850-4155,03-5850-4156,116-0014,荒川区東日暮里3-43-6,月:9:00-18:30/火:9:00-18:30/水:9:00-17:00/木:9:00-18:30/金:9:00-18:30/土:9:00-13:00/,無,,
レモン薬局大谷田店,131210,東京都,足立区,35.783607,139.84201,03-3629-4977,03-3629-4966,120-0001,足立区大谷田5丁目18-12,月:9:00-18:30/火:9:00-18:30/水:9:00-17:00/木:9:00-18:30/金:9:00-18:30/土:9:00-12:30/,有,080-8304-1083,
永寿薬局 大谷田橋店,131210,東京都,足立区,35.774307,139.843018,03-5697-2101,03-5697-2127,120-0003,足立区東和4-20-15,月~金 9:00~18:00土 9:00~17:00日 9:30~12:30,無, ,
東あやせ薬局,131210,東京都,足立区,35.770164,139.836014,03-3605-9771,03-3605-5541,120-0003,足立区東和三丁目4番25号,月:8:50~17:10/火:8:50~17:10/水:8:50~17:10/木:8:50~17:10/金:8:50~17:10/土:8:50~13:00/,無,,
ドラッグセイムス東和中央薬局,131210,東京都,足立区,35.770008,139.839767,03-5697-9526,03-5697-9527,120-0003,足立区東和3-12-1,月-金:9:00-19:00、土:9:00-18:00,有,03-5697-9526,
ドラッグセイムス東綾瀬薬局,131210,東京都,足立区,35.764408,139.832932,	03-	5682-	1330,nan,120-0004,足立区東綾瀬1-10-6,月-日 9:00-20:00 定休日 祝日,無,,
あやせ薬局,131210,東京都,足立区,35.761585,139.823532,03-3690-4193,03-3604-5129,120-0005,足立区綾瀬1-39-12,月9:00~19:00土9:00~14:00日・祝休み,有,090-8851-9914,
かばさん薬局綾瀬店,131210,東京都,足立区,35.764275,139.823975,03-5849-3040,03-5849-3040,120-0005,足立区綾瀬3-17-25-102,月・火・木・金9:00~13:00、15:00~19:00水10:00~18:00土9:00~13:00、14:00~17:00,無,,
そうごう薬局 綾瀬店,131210,東京都,足立区,35.765888,139.823868,03-5616-8868,03-5616-8867,120-0005,足立区綾瀬4-18-9,月:9:00-19:00/火:9:00-19:00/水:9:00-19:00/木:9:00-19:00/金:9:00-19:00/土:9:00-14:00/,有,03-5616-8868,
綾瀬鈴薬局,131210,東京都,足立区,35.76564,139.829041,03-5856-3931,03-5856-3932,120-0005,足立区綾瀬3-28-7-103,月:9:00~19:00/火:9:00~19:00/水:9:00~19:00/木:9:00~17:00/金:9:00~19:00/土:9:00~12:00/,有,080-2247-1865,
アイセイ薬局東綾瀬店,131210,東京都,足立区,35.764294,139.826111,	03-	5613-	1191,	03-	5613-	1191,120-0005,足立区綾瀬3-15-9,月・火・水・金:9時-18時半木:9時-17時土:9時-12時半,有,,
アポスシロモト薬局,131210,東京都,足立区,35.776089,139.832306,03-5682-4193,03-5682-2525,120-0006,足立区谷中2-10-1小倉ビル1階,月水金:9:00-19:00、火木:9:00-17:00、土:9:00-14:00,有,03-5682-4193,
はなぞの薬局,131210,東京都,足立区,35.775608,139.833923,03-5682-9311,03-5682-6820,120-0006,足立区谷中2-20-16,月:9:00~18:00/火:9:00~18:00/水:9:00~18:00/木:9:00~18:00/金:9:00~18:00/土:9:00~14:00/,有,090-5308-1753,
ウエルシア薬局足立青井店,131210,東京都,足立区,35.772034,139.816391,03-5845-1725,03-5845-1850,120-0012,足立区青井2-20-14,月~土9:00~19:00日・祝閉局,無,,
ウエルシア薬局足立弘道店,131210,東京都,足立区,35.769756,139.817612,03-5845-3632,03-5845-3567,120-0013,足立区弘道2-18-7,月~土10:00~14:00・15:00~19:00,有,03-5845-3632,
アビック薬局綾瀬店,131210,東京都,足立区,35.763676,139.813675,03-5888-2285,03-5888-2286,120-0014,足立区西綾瀬2-7-6,月:9:00-18:00/火:9:00-18:00/木:9:00-18:00/金:9:00-18:00/土:9:00-17:15/,有,090-1603-1874,
シ-エス薬局五反野店,131210,東京都,足立区,35.765827,139.808563,03-6806-3727,03-6806-3727,120-0015,足立区足立4-41-5 レ-ベン五反野ルナタワ-201,月~水・金9:30~19:00土9:30~13:00木・日・祝休み,無,,
みなみ薬局,131210,東京都,足立区,35.746178,139.8125,03-3882-7301,03-3882-3768,120-0022,足立区柳原1-25-15,月:9:00~18:00/火:9:00~18:00/水:9:00~18:00/木:9:00~18:00/金:9:00~18:00/土:9:00~13:30/,有,070-6435-4628,
すず薬局柳原店,131210,東京都,足立区,35.744141,139.815598,03-3879-5522,03-3879-5521,120-0022,足立区柳原1-36-6,月~金9:00~17:30土9:00~13:00,有,090-8493-5522,
ちぐさ薬局,131210,東京都,足立区,35.741936,139.815918,03-5813-7251,03-5813-7252,120-0023,足立区千住曙町37-9,月:9:00-17:30/火:9:00-17:30/水:9:00-17:30/木:9:00-17:30/金:9:00-17:30/土:9:00-13:00/,有,070-6476-4925,
本木薬局曙店,131210,東京都,足立区,35.742092,139.812241,03-3888-9314,03-3888-9317,120-0023,足立区千住曙町41-2-108,月~水・金9:00~18:30 木9:00~17:00 土9:00~13:00,無,,
千住はなぞの薬局,131210,東京都,足立区,35.745174,139.80513,03-3882-1008,03-3882-1074,120-0025,足立区千住東1-24-6,月:9:00~19:00/火:9:00~19:00/水:9:00~19:00/木:9:00~19:00/金:9:00~19:00/土:9:00~15:00/,無,,
あおば調剤薬局,131210,東京都,足立区,35.751205,139.806702,03-6806-1993,03-6806-1993,120-0026,足立区千住旭町44-14,月~金9:00~19:00土9:00~13:30日・祝休み,有,070-4002-5080,
日本調剤北千住東口薬局,131210,東京都,足立区,35.749485,139.806656,03-5284-9886,03-5284-9887,120-0026,足立区千住旭町40-27,月:9:00~19:00/火:9:00~19:00/水:9:00~19:00/木:9:00~19:00/金:9:00~19:00/土:9:00~18:00/,有,070-4454-7418,
サカエ薬局,131210,東京都,足立区,35.746792,139.808685,	03-	3879-	1601,	03-	3879-	6212,120-0026,足立区千住旭町9-14北嶋ビル 1階,月曜日-金曜日:9時00分-19時15分土曜日:9時00分-13時15分日曜祝日 休み12/31-1/3まで休みその他に夏休みが3日程度あります。,有,	03-	3879-	1601,
サカエ薬局駅前店,131210,東京都,足立区,35.748116,139.805649,	03-	6812-	0631,nan,120-0026,足立区千住旭町1-14Clair de lune101,平日 9:00-18:45土曜 9:00-13:30日祝 休み,有,,
スマイル薬局 千住店,131210,東京都,足立区,35.753452,139.797089,03-3882-8621,03-5284-8991,120-0032,足立区千住柳町7-5,月~金:9:00~19:00、土:9:00~14:00,有,080-3528-9310,
柳町はなぞの薬局,131210,東京都,足立区,35.753311,139.797684,03-3882-9387,03-3882-9389,120-0032,足立区千住柳町6-11,月:9:00~19:00/火:9:00~19:00/水:9:00~19:00/木:9:00~19:00/金:9:00~19:00/土:9:00~14:00/,無,,
けやき薬局千住店,131210,東京都,足立区,35.749001,139.801331,03-5244-7831,03-5244-7833,120-0034,足立区千住2-37,月:9:00-19:00/火:9:00-19:00/水:9:00-19:00/木:9:00-19:00/金:9:00-19:00/土:9:00-18:00/,有,090-1111-4077,
千住調剤薬局,131210,東京都,足立区,35.749676,139.80101,03-3870-7664,03-3870-7665,120-0034,足立区千住2-18,月~土9:00~19:00,有,080-3214-0182,
仁生堂薬局千住二丁目店,131210,東京都,足立区,35.749813,139.803101,03-3881-5159,03-5284-7745,120-0034,足立区千住2-54 須川ビル1階A号,月~金9:00~19:00土9:00~17:00日・祝休み,無,,
日本調剤 北千住薬局,131210,東京都,足立区,35.749325,139.802902,03-5284-3831,03-5284-3832,120-0034,足立区千住2-46,月:9:00-20:00/火:9:00-20:00/水:9:00-20:00/木:9:00-20:00/金:9:00-20:00/土:9:00-18:00/,有,080-2074-1241,
日本調剤ミルディス薬局,131210,東京都,足立区,35.751938,139.804962,03-3879-6600,03-3879-0066,120-0034,足立区千住三丁目98番地,月:9:00~19:15/火:9:00~19:15/水:9:00~19:15/木:9:00~19:15/金:9:00~19:15/土:9:00~17:30/日:9:00~13:00/,有,070-2810-8833,
ドラッグセイムス北千住本町センタ-通り薬局,131210,東京都,足立区,35.748501,139.801971,	03-	6812-	0842,	03-	6812-	0843,120-0034,足立区千住1-18-9タワ-フロント北千住,月-土 9:00-20:00日・祝 9:00-13:00,無,,
みよの台薬局千住仲町店,131210,東京都,足立区,35.744892,139.800385,03-3879-0975,03-6683-2185,120-0036,足立区千住仲町24-1,月~水・金9:00~18:00 木9:00~17:00 土9:00~13:00,無,,
すず薬局千住大橋店,131210,東京都,足立区,35.742474,139.798065,03-6806-1079,03-6806-1080,120-0037,足立区千住河原町12-4大山ビル1F,月~土9:00~18:30,有,080-1662-8634,
ユニスマイル薬局千住桜木店,131210,東京都,足立区,35.754807,139.788864,03-3870-9871,03-3780-9873,120-0045,足立区千住桜木2-11-7,月:9:00-18:00/火:9:00-18:00/水:9:00-18:00/木:9:00-18:00/金:9:00-18:00/土:9:00-13:00/,無,,
ユニスマイル薬局足立みやぎ店,131210,東京都,足立区,35.760593,139.756836,03-5390-5071,03-5390-5072,120-0047,足立区宮城1-33-1,月:9:00-18:00/火:9:00-18:00/水:9:00-18:00/木:9:00-18:00/金:9:00-18:00/土:9:00-13:00/,有,03-5390-5071,
すず薬局 中央本町店,131210,東京都,足立区,35.775002,139.806992,03-5845-5646,03-5845-5647,121-0011,足立区中央本町4丁目9-9,月:9:00-18:00/火:9:00-18:00/水:9:00-17:00/木:9:00-18:00/金:9:00-18:00/土:9:00-13:00/,有,080-1001-5776,
阪神調剤薬局 六ツ木店,131210,東京都,足立区,35.789627,139.837738,03-5682-3638,03-5682-3648,121-0052,足立区六木1-4-16,月:8:45-20:15/火:8:45-20:15/水:8:45-20:15/木:8:45-17:30/金:8:45-20:15/土:8:45-13:45/日:8:45-12:45/,有,080-6117-7385,
ウエルシア薬局足立加平店,131210,東京都,足立区,35.778473,139.829041,03-5613-1843,03-5613-1843,121-0055,足立区加平3-4-16,月~金9:00~20:00土9:00~20:00日・祝9:00~13:00、14:00~17:00,無,,
花畑’Sフラワ-薬局,131210,東京都,足立区,35.80574,139.811569,03-3860-6801,03-3860-6802,121-0061,足立区花畑3-34-8-1階,月・水・木・金8:45~19:00火8:45~21:00土8:45~18:00,無,,
桜花薬局,131210,東京都,足立区,35.80735,139.811432,03-5851-9939,03-5851-9938,121-0061,足立区花畑5-13-2,月:9:00~18:30/火:9:00~18:30/水:9:00~18:30/木:9:00~18:00/金:9:00~18:30/土:9:00~13:00/,無,,
本木薬局花畑店,131210,東京都,足立区,35.79834,139.810684,03-3885-5183,03-3885-2980,121-0061,足立区花畑1-7-1,月~土9:00~19:00 日9:00~16:00,有,080-3722-3658,
はるかぜ薬局,131210,東京都,足立区,35.805199,139.805527,	03-	5856-	6946,	03-	5856-	6948,121-0061,足立区花畑4-35-20プル-メ花畑29,月水金 9:00-17:00火木  9:00-19:00土   9:00-13:00,有,,
入江薬局花畑店,131210,東京都,足立区,35.791542,139.826996,03-3885-9941,03-3885-9942,121-0062,足立区南花畑3-20-22 入江薬局花畑店,月~金9:00~18:00土9:00~13:00,有,03-3885-9941,
保木間つくし薬局,131210,東京都,足立区,35.794617,139.803055,03-3883-5400,03-3860-3371,121-0064,足立区保木間2-2-11 コ-ポミハル2,月~水・金9:00~18:00木9:00~17:00土9:00~13:00日・祝休み,有,090-2538-6330,
本木薬局保木間一丁目店,131210,東京都,足立区,35.790218,139.810394,03-5851-8981,03-5851-8643,121-0064,足立区保木間1-33-16,月~金9:00~18:30 土9:00~13:00,有,090-9805-4917,
ドラッグセイムス足立保木間薬局,131210,東京都,足立区,35.795105,139.808395,03-5831-5496,03-5831-5497,121-0064,足立区保木間3-20-10,月~土:10:00~14:00 15:00~19:00,有,03-5831-5496,
レモン薬局六町店,131210,東京都,足立区,35.784279,139.819183,03-5856-4661,03-5856-4662,121-0073,足立区六町2-6-24,月:9:00-19:00/火:9:00-19:00/水:9:00-19:00/木:9:00-17:00/金:9:00-19:00/土:9:00-12:00/,有,03-5856-4661,
ドラッグセイムス一ツ家薬局,131210,東京都,足立区,35.784691,139.813568,	03-	5851-	8403,nan,121-0075,足立区一ツ家2-16-9,"月-土:10:00-14:00,15:00-19:00日祝休み",無,,
なの花薬局東伊興店,131210,東京都,足立区,35.80331,139.791641,03-6803-1291,03-6803-1292,121-0801,足立区東伊興3-21-5,月:9:00~19:15/火:9:00~19:15/水:9:00~19:15/木:9:00~19:15/金:9:00~19:15/土:9:00~17:15/日:9:00~13:00/,有,03-6803-1291,
みよの台薬局西保木間店,131210,東京都,足立区,35.799889,139.797699,03-5242-4171,03-5242-4172,121-0812,足立区西保木間2-5-12,月~水・金・土8:30~17:30 ,無,,
薬樹薬局 西保木間,131210,東京都,足立区,35.805664,139.799561,03-5831-6801,03-5831-6802,121-0812,足立区西保木間3-22-12,月:9:00-18:00/火:9:00-18:00/水:9:00-18:00/木:9:00-18:00/金:9:00-18:00/土:9:00-18:00/,無,,
ウエルシア薬局足立竹の塚1丁目店,131210,東京都,足立区,35.79121,139.792358,03-5831-3911,03-5831-3912,121-0813,足立区竹の塚1-13-10,月10:00~20:00/火10:00~20:00/水10:00~20:00/木10:00~20:00/金10:00~20:00/土10:00~20:00/備考:祝日は閉局,無,,
ウエルシア薬局足立竹の塚店,131210,東京都,足立区,35.796585,139.794632,03-5831-2341,03-5831-2344,121-0813,足立区竹の塚5-24-11,月~土9:00~19:30日・祝休み,無,,
クオ-ル薬局竹の塚店,131210,東京都,足立区,35.794338,139.797241,03-5242-9389,03-5242-9388,121-0813,足立区竹の塚5-11-6,月~金9:00~18:30土9:00~17:30日・祝休み,無,,
ことぶき薬局 竹の塚店,131210,東京都,足立区,35.793991,139.79454,03-3860-5667,03-3860-5668,121-0813,足立区竹の塚5-6-9川本ビル1階,月9:00~18:30/火9:00~18:30/木9:00~18:30/金9:00~18:30/土9:00~14:00/備考:平日13:30~14:30はお休みです,無,,
サカエ薬局竹の塚店,131210,東京都,足立区,35.792374,139.792007,03-5242-2010,03-5242-2012,121-0813,足立区竹の塚1-30-20,月~金:9:00~19:00 土:9:00~17:00,有,03-5242-2010,
そうごう薬局竹の塚店,131210,東京都,足立区,35.793098,139.792023,03-3860-6767,03-3860-5233,121-0813,足立区竹の塚1-39-14-103,月:9:00-19:30/火:9:00-19:30/水:9:00-19:30/木:9:00-17:00/金:9:00-19:30/土:9:00-13:30/,有,03-3860-6767,
ティ-ビ-薬局,131210,東京都,足立区,35.793781,139.80217,03-5686-7311,03-5686-7312,121-0813,足立区竹の塚4-2-1,月:9:00-17:30/火:9:00-17:30/水:9:00-17:30/木:9:00-17:30/金:9:00-17:30/土:9:00-17:30/,有,03-5686-7311,
ティ-ビ-薬局2号店,131210,東京都,足立区,35.793846,139.801804,03-5851-8703,03-5851-8773,121-0813,足立区竹の塚四丁目2番3号,月:9:00~17:30/火:9:00~17:30/水:9:00~17:30/木:9:00~17:30/金:9:00~17:30/土:9:00~17:30/,有,03-5851-8703,
竹ノ塚スマイル薬局,131210,東京都,足立区,35.795017,139.794785,03-3860-0145,03-5856-5001,121-0813,足立区竹の塚5-7-10-201,月・火・木・金9:00~18:30土9:00~13:00日・水・祝休み,無,,
日本調剤 竹ノ塚薬局,131210,東京都,足立区,35.794369,139.79332,03-5851-1625,03-5851-1626,121-0813,足立区竹の塚六丁目9番4号,月:9:00~19:00/火:9:00~19:00/水:9:00~19:00/木:9:00~19:00/金:9:00~19:00/土:9:00~17:00/,有,080-1154-9085,
みよの台薬局島根店,131210,東京都,足立区,35.783127,139.797806,03-3850-3997,03-3850-5595,121-0815,足立区島根2-20-12,月~水・金9:00~18:30 木9:00~17:00 土9:00~13:00,有,080-4182-9110,
オゾン薬局,131210,東京都,足立区,35.772823,139.797623,03-3886-2200,03-5681-2600,121-0816,足立区梅島1-13-8,月~金:9:00~19:00、土:9:00~14:00,無,,
田辺薬局西新井東店,131210,東京都,足立区,35.777836,139.792145,03-5845-5891,03-5845-5892,121-0816,足立区梅島3-31-14,月・木9:00-18:00火9:00-12:30金9:00-17:00土:9:00-12:30,無,,
すばる薬局,131210,東京都,足立区,35.796753,139.7901,03-3855-1318,03-3855-1318,121-0822,足立区西竹の塚2-11-6,月:9:00~19:00/火:9:00~19:00/水:9:00~19:00/木:9:00~17:00/金:9:00~19:00/土:9:00~13:00/,無,,
ハ-トフル薬局,131210,東京都,足立区,35.800106,139.784958,03-5838-1858,03-5838-1857,121-0823,足立区伊興本町2-5-8,月~土9:00~17:30,有,03-5838-1857,
アイセイ薬局足立西伊興店,131210,東京都,足立区,35.790188,139.777649,03-5838-1301,03-5838-1302,121-0824,足立区西伊興1-4-5 ,月:8:30-18:30/火:8:30-17:00/水:8:300-18:30/木:9:00-17:00/金:8:30-18:30/土:8:30-18:30/,有,03-5838-1301,
アイセイ薬局,131210,東京都,足立区,35.808273,139.770569,03-5837-1777,03-3890-2111,121-0831,足立区舎人1-11-17,月9:00-18:30/火9:00-18:30/水9:00-18:30/木9:00-18:30/金9:00-18:30/土9:00-13:00,無,,
アイン薬局舎人店,131210,東京都,足立区,35.813805,139.771042,03-3853-5511,03-3853-5512,121-0831,足立区舎人2-20-16,月9:00~18:00/火9:00~18:00/水9:00~18:00/木9:00~18:00/金9:00~18:00/土9:00~13:00,無,,
わかくさ薬局,131210,東京都,足立区,35.808746,139.76239,03-3854-3054,03-3854-3055,121-0836,足立区入谷3-1-4,月:9:00~18:30/火:9:00~17:00/水:9:00~17:00/木:9:00~17:00/金:9:00~18:30/土:9:00~13:00/,有,090-4362-8959,
アイン薬局西新井店,131210,東京都,足立区,35.78215,139.774506,03-3855-7340,03-3855-7352,123-0841,足立区西新井6丁目31-13 宮崎ビル1F,月9:00~19:00/火9:00~19:00/水9:00~19:00/木9:00~19:00/金9:00~19:00/土9:00~15:00,無,,
アイン薬局西新井六丁目店,131210,東京都,足立区,35.782013,139.774475,03-5647-8073,03-5647-8076,123-0841,足立区西新井6-31-14,月9:00~18:00/火9:00~18:00/水9:00~18:00/木9:00~18:00/金9:00~18:00/土9:00~13:00,有,03-5647-8073,
なつめ薬局,131210,東京都,足立区,35.785255,139.778671,03-5647-9822,03-5647-9823,123-0841,足立区西新井5-42-7,月9:00~17:30/火9:00~17:30/水9:00~17:30/木9:00~17:30/金9:00~17:30/土9:00~14:30,有,03-5647-9822,
望星西新井薬局,131210,東京都,足立区,35.782413,139.774551,03-5691-1193,03-5691-1207,123-0841,足立区西新井6-46-16,月:9:00~18:30/火:9:00~18:30/水:9:00~18:30/木:9:00~18:30/金:9:00~18:30/土:9:00~15:00/,無,,
薬局くすりの福太郎西新井大師前駅店,131210,東京都,足立区,35.778584,139.781281,03-5691-7314,03-5691-7314,123-0841,足立区西新井1-3-1,月・火・水・金8:30~18:00土8:30~13:00木・日・祝休み,無,,
サン薬局西新井店,131210,東京都,足立区,35.782055,139.774567,	03-	5837-	4888,	03-	5837-	4889,123-0841,足立区西新井6-32-8,平日9時-18時30分土曜日9時-15時,有,	03-	5837-	4888,
田辺薬局足立栗原店,131210,東京都,足立区,35.784912,139.786713,03-5839-1320,03-5839-1321,123-0842,足立区栗原4-10-14,月:9:00~18:00/火:9:00~18:00/水:9:00~18:00/木:9:00~18:00/金:9:00~18:00/土:9:00~15:00/,有,080-9363-9819,
日本調剤 西新井薬局,131210,東京都,足立区,35.778198,139.783096,03-5845-5981,03-5845-5982,123-0842,足立区栗原3-10-19,月:9:00-19:00/火:9:00-19:00/水:9:00-19:00/木:9:00-19:00/金:9:00-19:00/土:9:00-18:00/,有,090-2327-7548,
アスカ薬局西新井店,131210,東京都,足立区,35.773991,139.788361,03-6914-1265,03-6914-1264,123-0843,足立区西新井栄町1-18-11,月9:00~18:00/火9:00~18:00/水9:00~18:00/木9:00~18:00/金9:00~18:00/土9:00~18:00,有,070-5371-0294,
グッドファ-マシ-西新井駅前店,131210,東京都,足立区,35.776237,139.789627,03-5888-5373,03-5888-5463,123-0843,足立区西新井栄町2-3-3 さくら参道ビル1F103,月~土9:00~19:00,無,,
田辺薬局西新井支店,131210,東京都,足立区,35.774784,139.789597,03-5845-5137,03-5845-5138,123-0843,足立区西新井栄町1-17-1,月:10:00-19:00/火:10:00-19:00/水:10:00-19:00/木:10:00-18:00/金:10:00-19:00/土:10:00-18:00/日:10:00-13:00/,有,070-4506-3667,
田辺薬局西新井本店,131210,東京都,足立区,35.774784,139.789597,03-5888-3570,03-5888-3571,123-0843,足立区西新井栄町1-17-1,月:9:00-18:00/火:9:00-18:00/水:9:00-18:00/木:9:00-18:00/金:9:00-18:00/土:9:00-18:00/,有,03-5888-3570,
コトブキ調剤薬局足立店,131210,東京都,足立区,35.7757,139.781723,03-5888-7805,03-5888-7806,123-0845,足立区西新井本町5-7-14,月:9:00-18:00/火:9:00-18:00/水:9:00-18:00/木:9:00-18:00/金:9:00-18:00/土:9:00-17:00/,無,,
サフラン薬局,131210,東京都,足立区,35.775074,139.773407,03-5838-7470,03-5838-7471,123-0845,足立区西新井本町2-22-6 ,月~土9:00~17:30,無,,
西新井薬局,131210,東京都,足立区,35.777637,139.777145,03-3856-4807,03-3856-4807,123-0845,足立区西新井本町2-2-29,月~金:9:00~18:00 土:9:00~13:00,有,03-3856-4807,
中川薬局 西新井店,131210,東京都,足立区,35.776608,139.781784,03-5647-6551,03-5647-6552,123-0845,足立区西新井本町1-13-22,月:9:00-17:30/火:9:00-17:30/水:9:00-17:30/木:9:00-17:30/金:9:00-17:30/土:9:00-17:30/,有,03-5647-6551,
きぼう堂薬局,131210,東京都,足立区,35.771557,139.794983,03-3840-6200,03-3840-6201,123-0851,足立区梅田5-26-9メゾン弥生1階,月~金:9:00~18:00、土:9:00~13:00,無,,
なの花薬局梅島店,131210,東京都,足立区,35.770153,139.79892,03-3889-7700,03-3889-6677,123-0851,足立区梅田7-18-13,月~金9:00~19:00土9:00~13:00日・祝休み,有,03-3889-7700,
ユニスマイル薬局せきばら店,131210,東京都,足立区,35.76421,139.790588,03-5888-2686,03-5888-2687,123-0852,足立区関原1-7-4,月:9:00-19:00/火:9:00-18:00/水:9:00-19:00/木:9:00-18:00/金:9:00-19:00/土:9:00-12:00/,有,090-5790-1265,
七條薬局,131210,東京都,足立区,35.764091,139.787949,03-3849-0101,03-3880-7210,123-0852,足立区関原1-20-9,月~金9:00~18:30,有,090-4246-3339,
すず薬局本木店,131210,東京都,足立区,35.761021,139.785919,03-5888-9070,03-5888-9071,123-0853,足立区本木1-3-9,月:9:00-18:00/火:9:00-18:00/水:9:00-18:00/木:9:00-18:00/金:9:00-18:00/土:9:00-18:00/,有,080-1840-1281,
みよの台薬局本木店,131210,東京都,足立区,35.765202,139.778595,03-5691-0783,03-5691-0878,123-0857,足立区本木北町14-10,月~水・金8:30~17:30 木8:30~16:30 土8:30~13:00,有,03-5691-0783,
ファ-マライズ薬局鹿浜店,131210,東京都,足立区,35.789391,139.759872,03-5647-1021,03-5647-1022,123-0861,足立区加賀1-18-18 エステ-ト野口103,月・火・木・金8:30~13:00、15:00~18:00 水・土8:30~12:30,有,03-5647-1021,
田辺薬局谷在家南店,131210,東京都,足立区,35.786285,139.769226,03-5647-3501,03-5647-3502,123-0863,足立区谷在家3-2-1,月:9:00-18:00/火:9:00-18:00/水:9:00-18:00/木:9:00-18:00/金:9:00-17:00/土:9:00-12:30/,有,090-3693-5422,
アイン薬局鹿浜2号店,131210,東京都,足立区,35.784645,139.750854,03-5856-9490,03-5856-9491,123-0864,足立区鹿浜5-12-4,月9:00~18:00/火9:00~18:00/水9:00~18:00/木9:00か ~18:00/金9:00~18:00/土9:00~18:00/備考:祝日は休み,有,03-5856-9490,
アイン薬局鹿浜店,131210,東京都,足立区,35.784744,139.750153,03-3853-1420,03-3899-3679,123-0864,足立区鹿浜5-12-8,月8:45 ~18:30/火8:45 ~18:30/水8:45 ~18:30/木8:45 ~18:30/金8:45 ~18:30/土8:45 ~18:30/備考:祝日は通常開局  8:45 ~18:30,有,03-3853-1420,
ココカラファイン薬局ハ-トアイランド店,131210,東京都,足立区,35.768234,139.746109,03-5902-3543,03-5902-3544,123-0865,足立区新田3-34-5,月:9:00-19:00/火:9:00-19:00/水:9:00-19:00/木:9:00-19:00/金:9:00-19:00/土:9:00-17:00/,有,070-3140-7063,
アイン薬局江北店,131210,東京都,足立区,35.772194,139.770233,03-5837-4415,03-5837-4416,123-0872,足立区江北1-33-23ロイヤルKJ1階,月曜日から土曜日09:00-18:00,無,,
ウエルシア薬局足立江北店,131210,東京都,足立区,35.768806,139.766617,03-5839-6396,03-5839-6396,123-0872,足立区江北1-7-15,月~日・祝10:00~24:00,無,,
かえで薬局,131210,東京都,足立区,35.769363,139.766891,03-3896-6620,03-3896-6621,123-0872,足立区江北1-26-8,月:9:00~17:00/火:9:00~18:00/水:9:00~17:00/木:9:00~17:00/金:9:00~18:00/土:9:00~13:00/,有,080-1150-6552,
そうごう薬局江北店,131210,東京都,足立区,35.775623,139.770111,03-5856-8931,03-5856-8932,123-0872,足立区江北5-1-1,月:8:30~18:00/火:8:30~18:00/水:8:30~16:30/木:8:30~18:00/金:8:30~18:00/土:8:30~13:00/,有,03-5856-8931,
ファ-マシィ薬局江北,131210,東京都,足立区,35.773228,139.768845,0358374560,0338548435,123-0872,足立区江北4-29-5,月9:00~18:30/火9:00~18:30/水9:00~18:30/木9:00~18:30/金9:00~18:30/土9:00~140:00,有,0358374560自動転送,
江北セントラル薬局,131210,東京都,足立区,35.77309,139.768402,03-5647-9075,03-5647-9076,123-0872,足立区江北4-28-3,月:9:00~18:00/火:9:00~18:00/水:9:00~18:00/木:9:00~18:00/金:9:00~18:00/土:9:00~15:00/,無,,
田辺薬局足立江北店,131210,東京都,足立区,35.783115,139.765503,03-3898-9722,03-3898-9710,123-0872,足立区江北6-24-11セレ-ナ江北1F,月~金9:00~18:00土9:00~15:00,有,070-8793-2210,
おおぞら薬局,131229,東京都,葛飾区,35.761909,139.824829,03-5629-5161,03-5629-5162,124-0001,葛飾区小菅4-10-5 橋本ビル1階,月~金9:00~20:00土9:00~17:00,無,,
お花茶屋すばる薬局,131229,東京都,葛飾区,35.747097,139.839661,03-5654-6810,03-5654-6810,124-0005,葛飾区宝町2-34-13 お花茶屋スカイマンション115号,月・火・木・金9:00~19:00水9:00~17:00土9:00~13:00,無,,
南山堂薬局お花茶屋店,131229,東京都,葛飾区,35.746746,139.836823,03-5654-6555,03-5654-6559,124-0005,葛飾区宝町2-23-3 宝町第3ハルビル1階,月~金9:00~19:00土9:00~13:00,無,,
薬局トモズお花茶屋店,131229,東京都,葛飾区,35.747147,139.840134,03-5654-6822,03-5672-1035,124-0005,葛飾区宝町2-34-16,月:9:00-19:00/火:9:00-19:00/水:9:00-18:00/木:9:00-19:00/金:9:00-19:00/土:9:00-14:00/,有,070-3512-9365,
ファ-ブ薬局堀切店,131229,東京都,葛飾区,35.745117,139.8293,03-3693-4331,03-3693-4326,124-0006,葛飾区堀切2-51-2,月・火・木・金9:00~18:00土9:00~17:00,無,,
堀切虹薬局,131229,東京都,葛飾区,35.754353,139.831055,03-3604-9419,03-3604-9978,124-0006,葛飾区堀切7-12-1,月・火・木・金9:00~17:00水9:00~19:30土9:00~13:00,有,080-1188-6537,
アイン薬局よつぎ店,131229,東京都,葛飾区,35.735668,139.839493,03-6657-6386,03-5671-1970,124-0011,葛飾区四つ木1-47-12ハルメディカルビル1F,月9:00~19:15/火9:00~19:15/水9:00~19:15/木9:00~19:15/金9:00~19:15/土9:00~13:15,有,03-6657-6386,
あさひ調剤薬局立石2号店,131229,東京都,葛飾区,35.742023,139.842285,03-6662-8693,03-6662-8694,124-0012,葛飾区立石5-7-5,月~土9:00~18:30,有,03-6662-8693,
あさひ調剤薬局立石店,131229,東京都,葛飾区,35.742538,139.842178,03-6657-7220,03-6657-7221,124-0012,葛飾区立石5-2-1,月~金9:00~17:30 土9:00~13:00,無,,
おおうち薬局第1支店,131229,東京都,葛飾区,35.740566,139.848907,03-3694-0435,03-3694-9040,124-0012,葛飾区立石7-6-1 シャト柏1F,9:00~19:00,無,,
さくら薬局立石店,131229,東京都,葛飾区,35.737644,139.850464,03-6657-6303,03--6657-6304,124-0012,葛飾区立石8-1-2 グレ-スカメリア101,月~金9:00~18:30土9:00~13:00,有,03-6657-6303,
スカイ薬局青戸店,131229,東京都,葛飾区,35.742176,139.853317,03-5654-6866,03-3695-8212,124-0012,葛飾区立石6丁目34-13,月9:00~18:30/火9:00~18:30/水9:00~18:30/木9:00~17:00/金9:00~18:30/土9:00~16:30,有,090-5763-8587,
ハロ-薬局立石店,131229,東京都,葛飾区,35.742584,139.851517,03-5670-6528,03-5670-6528,124-0012,葛飾区立石6-20-10 1階 立石メディカルプラザ,月~水・金9:00~19:00木8:45~17:00土9:00~13:00日・祝休み,無,,
日本調剤 立石駅前薬局,131229,東京都,葛飾区,35.738079,139.8479,03-5671-2231,03-5671-2232,124-0012,葛飾区立石1-15-5,月:9:00-19:00/火:9:00-19:00/水:9:00-18:00/木:9:00-19:00/金:9:00-19:00/土:9:00-18:00/,有,090-3247-5575,
本田薬局,131229,東京都,葛飾区,35.737438,139.851273,03-3696-6231,03-3696-6232,124-0013,葛飾区東立石4-45-12,月9:00~18:30/火9:00~18:30/水9:00~18:30/木9:00~17:00/金9:00~18:30/土9:00~12:30,有,03-3696-6231,
へいわ橋薬局,131229,東京都,葛飾区,35.734531,139.842255,03-5698-0502,03-5698-0504,124-0014,葛飾区東四つ木4-45-10,月:9:00~17:15/火:9:00~17:15/水:9:00~17:15/木:9:00~17:15/金:9:00~17:15/土:9:00~13:00/,有,090-2322-5182,
四つ木ライム薬局,131229,東京都,葛飾区,35.729893,139.840698,03-5654-6811,03-5654-6812,124-0014,葛飾区東四つ木3-47-16,月:9:00-18:30/火:9:00-18:30/水:9:00-18:30/木:9:00-17:00/金:9:00-18:30/土:9:00-13:00/,有,080-8842-8233,
ウエルシア薬局葛飾奥戸店,131229,東京都,葛飾区,35.732883,139.864716,03-5672-4770,03-5672-4783,124-0022,葛飾区奥戸5-5-1,月~土9:00~19:00日9:00~13:00 祝休み,無,,
奥戸中央薬局,131229,東京都,葛飾区,35.735828,139.856583,03-5698-1025,03-5698-1026,124-0022,葛飾区奥戸2-16-7,月9:00~19:00/火9:00~19:00/水9:00~19:00/木9:00~19:00/金9:00~19:00/土9:00~17:00/備考:第2.5土曜のみ9:00~14:00,有,070-5551-9985,
クリ-ン薬局新小岩,131229,東京都,葛飾区,35.719814,139.856674,03-3695-1976,03-3695-6144,124-0023,葛飾区東新小岩5-1-4,月~金9:00~19:30土9:00~14:00日・祝休み,有,03-3695-1976,
薬局ぽっぽ,131229,東京都,葛飾区,35.714176,139.862228,03-5661-6290,03-5879-3012,124-0024,葛飾区新小岩1-55-6,月・火・金 9:00~19:00水・土 9:00~18:00木 9:00~17:00日 10:00~17:00,有,070-7532-4562,
有限会社吉田薬局,131229,東京都,葛飾区,35.715809,139.862823,03-3651-7162,03-3651-4686,124-0024,葛飾区新小岩2-30-1,月~金9:00~20:00土9:00~18:00日・祝休み,有,080-3385-3600,
アイセイ薬局西新小岩店,131229,東京都,葛飾区,35.718525,139.852112,03-5671-5024,03-3696-9586,124-0025,葛飾区西新小岩4-17-6,月-金:9:00-18:00、土9:00-17:00,有,03-5671-5024,
エ-ス薬局,131229,東京都,葛飾区,35.722111,139.85379,03-3694-0939,03-3694-0939,124-0025,葛飾区西新小岩4-37-14 石橋ビル1階,月~金9:00~19:00 土9:00~13:00,有,03-3694-0939,
ココカラファイン薬局新小岩駅前店,131229,東京都,葛飾区,35.71788,139.857269,03-6657-6371,03-6657-6372,124-0025,葛飾区西新小岩1-3-10,月:9:00~19:30/火:9:00~19:30/水:9:00~19:30/木:9:00~19:30/金:9:00~19:30/土:9:00~15:00/,有,070-1383-9988,
上平井クリ-ン薬局,131229,東京都,葛飾区,35.719994,139.856049,03-6413-8720,03-6413-8721,124-0025,葛飾区西新小岩4-39-23 R&Mビル2 店舗3,月~金9:00~19:00土9:00~14:00日・祝休み,有,080-9574-8103,
新エ-ス薬局,131229,東京都,葛飾区,35.719551,139.851929,03-6662-8399,03-6662-8339,124-0025,葛飾区西新小岩4-14-16 サンハイツ103,月~金9:00~18:00 土9:00~13:00,有,090-4435-4874,
永寿薬局 水元店,131229,東京都,葛飾区,35.78093,139.865936,03-3862-5856,03-3826-5857,125-0032,葛飾区水元3-22-21,月・火・木・金9:00~17:30水9:00~20:00土9:00~17:00,無,,
水元三丁目薬局,131229,東京都,葛飾区,35.782883,139.862976,03-5660-7344,03-5660-7343,125-0032,葛飾区水元3-8-13,月:9:00-19:00/火:9:00-19:00/水:9:00-17:00/木:9:00-19:00/金:9:00-19:00/土:9:00-13:00/,無,,
みよの台薬局東水元店,131229,東京都,葛飾区,35.77853,139.869583,03-5876-3191,03-5876-4141,125-0033,葛飾区東水元2-10-25,月:9:00~18:00/火:9:00~18:00/水:9:00~18:00/木:9:00~17:00/金:9:00~18:00/土:9:00~13:00/,有,080-9456-4375,
いいづか薬局,131229,東京都,葛飾区,35.775784,139.860153,03-5876-9387,03-5876-9386,125-0035,葛飾区南水元1-23-17,月・火・木・金9:00~18:00水9:00~17:00土9:00~12:00日・祝休み,有,03-5876-9387,
Mito薬局かなまち,131229,東京都,葛飾区,35.770447,139.86824,03-6231-3622,03-6231-3633,125-0041,葛飾区東金町1-12-12,月・火・水・金9:00~18:30木・土9:00~12:30,有,090-4571-8918,
新生堂薬局東金町店,131229,東京都,葛飾区,35.77681,139.880219,03-5648-5320,03-5648-5321,125-0041,葛飾区東金町7-5-9,月・火・木・金9:00~18:30水9:00~17:00土・日・祝9:00~12:30,有,090-5470-6474,
水元調剤薬局,131229,東京都,葛飾区,35.771885,139.876495,03-3607-1670,03-3607-1528,125-0041,葛飾区東金町4-1-12,月9:00-19:00/火9:00-19:00/水9:00-19:00/木9:00-19:00/金9:00-19:00/土9:00-17:00,有,090-5763-8587,
薬局モリファ-マシ-,131229,東京都,葛飾区,35.771656,139.868271,03-3826-1881,03-3826-1885,125-0041,葛飾区東金町1-15-6,月・火・金9:00~18:00水9:00~20:00木9:00~17:00土9:00~13:00日・祝休み,有,03-3826-1881,
セイムス東金町薬局,131229,東京都,葛飾区,35.770798,139.873123,	03-	5876-	5861,	03-	5876-	5862,125-0041,葛飾区東金町3-17-8,平日 9:00-19:00(昼休憩 14:00-15:00)土曜日 9:00-18:00(昼休憩 14:00-15:00)日曜・祝日 定休日,有,	03-	5876-	5861,
なの花薬局金町店,131229,東京都,葛飾区,35.768021,139.871033,03-3609-8301,03-3609-8305,125-0042,葛飾区金町6-2-1-2F,月9:30~17:30火~金8:30~19:00第二土8:30~17:30日曜日9:00~15:00祝休み,有,03-3609-8301,
和光薬局新宿店,131229,東京都,葛飾区,35.761169,139.85672,03-3608-8666,03-3608-8702,125-0051,葛飾区新宿2-5-9,月~金9:00~18:00 土9:00~13:00,有,090-4709-4301,
ユニスマイル薬局柴又店,131229,東京都,葛飾区,35.756603,139.874771,03-5699-6866,03-5699-6872,125-0052,葛飾区柴又1-43-10,月:9:00-18:30/火:9:00-18:30/水:9:00-13:00/木:9:00-18:30/金:9:00-18:30/土:9:00-13:00/,有,03-5699-6866,
ミツワ薬局柴又四丁目店,131229,東京都,葛飾区,35.755112,139.874603,03-3658-0029,03-3658-0043,125-0052,葛飾区柴又4-6-12-101,月~水8:45~18:00土8:30~13:00日祝祭休日,有,070-5575-4404,
ミツワ薬局柴又店,131229,東京都,葛飾区,35.755009,139.870682,03-3627-3486,03-3627-5872,125-0052,葛飾区柴又1-5-14,月:9:00-18:30/火:9:00-18:30/水:9:00-18:30/金:9:00-18:30/土:9:00-14:00/,有,070-5563-9772,
水戸薬局ハ-ブ店,131229,東京都,葛飾区,35.758202,139.871567,03-5648-6861,03-5648-6862,125-0052,葛飾区柴又1-29-8,月:9:00 -18:00/火:9:00-18:00/水:9:00-18:00/木:9:00-17:00/金:9:00-18:00/土:9:00-13:00/,有,070-5013-3664,
ミント薬局鎌倉店,131229,東京都,葛飾区,35.749348,139.879501,03-5612-7123,03-5612-7124,125-0053,葛飾区鎌倉4-17-7,月:9:00-17:30/火:9:00-17:30/水:9:00-17:30/木:9:00-17:30/金:9:00-17:30/土:9:00-13:00/,無,,
アップル薬局高砂店,131229,東京都,葛飾区,35.750397,139.866974,03-6801-7680,03-6801-7681,125-0054,葛飾区高砂2-38-3,月:9:00-19:00/火:9:00-19:00/水:9:00-19:00/木:9:00-19:00/金:9:00-19:00/土:9:00-18:00/,有,080-3173-5061,
ミツワ薬局第二高砂店,131229,東京都,葛飾区,35.750156,139.867996,03-5622-6780,03-5622-6760,125-0054,葛飾区高砂3-10-8,月:8:45-19:30/火:8:45-19:30/水:9:00-17:00/木:8:45-19:30/金:8:45-18:45/土:8:45-17:00/,有,070-6425-0908,
水戸薬局在宅医療支援センタ-,131229,東京都,葛飾区,35.752674,139.868835,03-3607-2568,03-3607-2679,125-0054,葛飾区高砂5-38-8 1F,月:9:00-18:00/火:9:00-18:00/水:9:00-18:00/木:9:00-18:00/金:9:00-18:00/土:9:00-13:00/祝:9:00-13:00/,有,070-5012-5110,
水戸薬局本店,131229,東京都,葛飾区,35.751675,139.868134,03-3607-2562,03-3600-8029,125-0054,葛飾区高砂5-36-7 1F,月:9:00~18:00/火:9:00~18:00/水:9:00~18:00/木:9:00~18:00/金:9:00~18:00/土:9:00~17:00/,有,070-5594-8315,
あさひ調剤薬局亀有店,131229,東京都,葛飾区,35.758896,139.849396,03-6231-2793,03-6231-2792,125-0061,葛飾区亀有2-18-27,月・水~金9:00~17:00 火9:00~18:00 土9:00~13:00,有,03-6231-2793,
ウエルシア薬局葛飾亀有店,131229,東京都,葛飾区,35.758671,139.847946,03-5629-6329,03-5629-6323,125-0061,葛飾区亀有2-16-1,月~土9:00~20:00日9:00~13:30、14:30~19:00祝9:00~13:30、14:30~18:00,有,070-1406-8979,
亀有鈴薬局,131229,東京都,葛飾区,35.758163,139.8461,03-5647-7156,03-5647-7157,125-0061,葛飾区亀有1-15-23,月:9:00-18:30/火:9:00-18:30/水:9:00-18:30/木:9:00-18:00/金:9:00-18:30/土:9:00-18:30/,有,070-3072-3957,
日本調剤 亀有薬局,131229,東京都,葛飾区,35.76627,139.847,03-5673-0557,03-5673-0558,125-0061,葛飾区亀有三丁目25番1号,月:9:00~20:00/火:9:00~20:00/水:9:00~20:00/木:9:00~20:00/金:9:00~20:00/土:9:00~18:00/,無,,
薬局日本メディカル亀有店,131229,東京都,葛飾区,35.766182,139.848404,03-6662-6288,03-6662-6289,125-0061,葛飾区亀有3-26-1,月:9:00-21:00/火:9:00-21:00/水:9:00-21:00/木:9:00-21:00/金:9:00-21:00/土:9:00-21:00/日:9:00-21:00/祝:9:00-21:00/,有,070-6578-8244,
そうごう薬局 在宅調剤センタ-青砥店,131229,東京都,葛飾区,35.747761,139.854004,03-3838-3011,03-3838-3012,125-0062,葛飾区青戸5-14-5,月:9:00~18:00/火:9:00~18:00/水:9:00~18:00/木:9:00~18:00/金:9:00~18:00/土:9:00~14:00/,無,,
そよかぜ薬局青戸店,131229,東京都,葛飾区,35.752831,139.857788,03-5650-3072,03-5650-3073,125-0062,葛飾区青戸6-16-19,月~水・金9:00~18:00木9:00~19:00土9:00~15:00,有,070-4530-7266,
なの花薬局青戸店,131229,東京都,葛飾区,35.75219,139.857956,03-5629-5862,03-5629-5861,125-0062,葛飾区青戸6-17-17,月:9:00~17:30/火:9:00~17:30/水:9:00~17:30/木:9:00~17:30/金:9:00~19:00/土:9:00~17:30/,無,,
ミズホ薬局,131229,東京都,葛飾区,35.744831,139.854065,03-3838-3329,03-3838-3329,125-0062,葛飾区青戸3-41-4 篠田ビル1階,月~金9:00~19:00土9:00~13:00,有,080-3367-9740,
日本調剤 新青戸薬局,131229,東京都,葛飾区,35.751812,139.858047,03-5650-1761,03-5650-1762,125-0062,葛飾区青戸6-19-21,月:9:00~18:00/火:9:00~18:00/水:9:00~18:00/木:9:00~18:00/金:9:00~18:00/土:9:00~18:00/,有,090-1420-1252,
日本調剤 青砥駅前薬局,131229,東京都,葛飾区,35.745556,139.855347,03-5650-5431,03-5650-5439,125-0062,葛飾区青戸3-39-11,月:9:00~19:00/火:9:00~19:00/水:9:00~19:00/木:9:00~19:00/金:9:00~19:00/土:9:00~18:00/,有,090-9001-3036,
日本調剤葛飾薬局,131229,東京都,葛飾区,35.752457,139.85788,03-5629-4481,03-5629-4710,125-0062,葛飾区青戸6-17-15,月:9:00~18:00/火:9:00~18:00/水:9:00~18:00/木:9:00~18:00/金:9:00~18:00/土:9:00~18:00/,有,090-2734-5586,
薬局トモズ葛飾青戸店,131229,東京都,葛飾区,35.756474,139.849579,03-6804-3988,03-6804-3987,125-0062,葛飾区青戸8-3-10,月:8:30~12:00 15:00~18:30/火:8:30~12:00 15:00~18:30/水:8:30~12:00 15:00~18:30/金:8:30~12:00 15:00~18:30/土:8:30~12:00 /,無,,
中川薬局吾妻橋店,131075,東京都,墨田区,35.708382,139.800781,03-5637-2321,03-5637-2320,130-0001,墨田区吾妻橋1-8-9,月:9:00~18:00/火:9:00~18:00/水:9:00~18:00/木:9:00~17:00/金:9:00~18:00/土:9:00~13:00/,有,090-6729-0769,
なりひら薬局,131075,東京都,墨田区,35.708061,139.812668,03-5619-4131,03-5619-4136,130-0002,墨田区業平3-12-1,月:9:00~17:00/火:9:00~17:00/水:9:00~17:00/木:9:00~17:00/金:9:00~17:00/土:9:00~13:00/,無,,
田辺薬局墨田押上店,131075,東京都,墨田区,35.705112,139.814224,03-5611-6161,03-5611-6162,130-0003,墨田区横川3-11-14 マツマルビル1F,月~金9:00~19:00土9:00~13:00,有,080-9802-1832,
日本調剤すみだパ-ク薬局,131075,東京都,墨田区,35.703411,139.809189,03-5637-8752,03-5637-8753,130-0003,墨田区横川1-1-10,月:9:00-20:00/火:9:00-19:00/水:9:00-19:00/木:9:00-20:00/金:9:00-19:00/土:9:00-17:00/,有,080-1084-7497,
薬局古川ファ-マシ-,131075,東京都,墨田区,35.702969,139.814392,03-3624-4872,03-3624-4875,130-0003,墨田区横川3-2-7,月:9:00-18:30/火:9:00-18:30/水:9:00-18:30/木:9:00-18:30/金:9:00-18:30/土:9:00-14:00/,有,090-3500-2716,
ドラッグセイムス墨田横川薬局,131075,東京都,墨田区,35.704727,139.817032,03-6658-8765,03-6658-8795,130-0003,墨田区横川5-8-52,月-金:9:00-18:30、土:9:00-18:00,有,03-6658-8765,
こまがた薬局,131075,東京都,墨田区,35.707611,139.800751,03-3829-5727,03-3829-5727,130-0005,墨田区東駒形2-19-4,月:9:00~18:00/火:9:00~20:00/水:9:00~18:00/木:9:00~20:00/金:9:00~18:00/土:9:00~13:00/,有,080-4137-7512,
石川調剤薬局,131075,東京都,墨田区,35.706493,139.799393,03-3621-3866,03-3621-3866,130-0005,墨田区東駒形1-19-3,月~水・金9:00~19:00木9:00~14:00土9:00~13:00日・祝休み,有,090-4936-1706,
第一薬局,131075,東京都,墨田区,35.708199,139.805923,03-3623-6688,03-3623-6688,130-0005,墨田区東駒形4-24-3  伊藤ビル1階,月・火・木・金 9:00~19:30水 9:00~18:30土 9:00~16:30,有,090-3903-5569,
日本調剤石原薬局,131075,東京都,墨田区,35.700977,139.801193,03-3622-6433,03-5619-6300,130-0011,墨田区石原2-21-1,月:9:00~18:00/火:9:00~18:00/水:9:00~18:00/木:9:00~18:00/金:9:00~18:00/土:9:00~18:00/,有,080-2585-5893,
アイン薬局錦糸町店,131075,東京都,墨田区,35.700195,139.814896,03-6284-1823,03-6284-1824,130-0012,墨田区太平4丁目1-2,月10:00~19:00/火10:00~19:00/水10:00~19:00/木10:00~19:00/金10:00~19:00/土10:00~19:00/日10:00~19:00/備考:365日営業,有,03-6284-1823,
オリ-ブ薬局,131075,東京都,墨田区,35.701061,139.813614,03-5637-9123,03-6278-8717,130-0012,墨田区太平3-10-5,月:9:00~19:00/火:9:00~19:00/水:10:00~18:00/木:9:00~19:00/金:9:00~19:00/土:9:00~17:00/日:9:00~13:00/,無,,
ライフバランス薬局,131075,東京都,墨田区,35.699654,139.813354,03-6240-4303,03-6240-4307,130-0012,墨田区太平3-1-1,月~木9:00~20:00金9:00~19:00土9:00~18:00祝9:00~17:00,有,03-6240-4303,
錦糸薬局アルカ店,131075,東京都,墨田区,35.697708,139.813568,03-3829-5566,03-3829-5568,130-0013,墨田区錦糸3-2-1,月:9:30-19:00/火:9:30-19:00/水:9:30-19:00/木:9:30-19:00/金:9:30-19:00/土:9:30-16:30/,有,080-7897-7502,
きりん薬局,131075,東京都,墨田区,35.697552,139.797516,03-3624-9216,03-3624-9287,130-0014,墨田区亀沢1-8-5,月~水・金・土9:00~20:00木10:00~18:00日・祝休み,有,03-3624-9216,
アイン薬局両国店,131075,東京都,墨田区,35.700493,139.794312,03-6456-1036,03-6456-1037,130-0015,墨田区横網2-1-11,月8:45~22:00/火8:45~22:00/水8:45~22:00/木8:45~22:00/金8:45~22:00/土8:45~17:00,無,,
薬局トモズ両国店,131075,東京都,墨田区,35.6987,139.795288,03-5819-3715,03-5819-3716,130-0015,墨田区横網1-10-12,月:9:00-18:00/火:9:00-18:00/水:9:00-18:00/木:9:00-18:00/金:9:00-18:00/土:9:00-13:00/,有,070-6480-5783,
あおば薬局住吉店,131075,東京都,墨田区,35.688858,139.811066,03-5638-8701,03-5638-8702,130-0022,墨田区江東橋5-3-13,月:9:00~18:30/火:9:00~18:30/水:9:00~18:30/木:9:00~17:00/金:9:00~18:30/土:9:00~14:30/,有,03-5638-8701,
すずかぜ薬局,131075,東京都,墨田区,35.694817,139.817795,03-3634-3575,03-3634-1088,130-0022,墨田区江東橋4-15-5,月~金9:00~17:30土9:00~17:00,有,03-3634-3575,
たんぽぽ薬局 錦糸町店,131075,東京都,墨田区,35.695351,139.813736,03-6284-0938,03-6284-0938,130-0022,墨田区江東橋3-9-10,月:11:00-19:00/火:11:00-19:00/水:11:00-19:00/木:11:00-19:00/金:11:00-19:00/土:11:00-18:15/,有,090-1708-6568,
竹内調剤薬局,131075,東京都,墨田区,35.69492,139.817734,03-3633-8080,03-3633-8084,130-0022,墨田区江東橋4-22-9,月:9:00~17:30/火:9:00~17:30/水:9:00~17:30/木:9:00~17:30/金:9:00~17:30/土:9:00~12:00/,無,,
森薬局,131075,東京都,墨田区,35.694889,139.792068,03-3631-5359,03-3631-1863,130-0026,墨田区両国2-18-1,月:9:00~19:00/火:9:00~19:00/水:9:00~19:00/木:9:00~19:00/金:9:00~19:00/土:9:00~14:00/,有,090-3633-7268,
ドラッグセイムス墨田両国薬局,131075,東京都,墨田区,35.694168,139.792709,	03-	5638-	0731,nan,130-0026,墨田区両国2-10-14両国シティコア1F,月-金:9:00-20:00土:10:00-20:00日祝休み,有,,
3丁目薬局,131075,東京都,墨田区,35.730087,139.823196,03-3613-6840,03-3613-6875,131-0031,墨田区墨田3-41-15,月:9:00~19:30/火:9:00~17:00/水:9:00~17:00/木:9:00~17:00/金:9:00~19:30/土:9:00~12:45/,有,070-5553-3424,
かちどき薬局墨田店,131075,東京都,墨田区,35.732922,139.817261,03-3614-3245,03-3614-3245,131-0031,墨田区墨田2-6-16,月9:00~18:30/火9:00~18:30/水9:00~18:30/木9:00~17:00/金9:00~18:30/土9:00~14:00,有,070-6445-1533,
鐘ヶ渕薬局,131075,東京都,墨田区,35.733135,139.818481,03-3611-6478,03-3610-6400,131-0031,墨田区墨田2-12-8,月~金9:00~18:00土9:00~14:00,有,転送,
たんぽぽ薬局,131075,東京都,墨田区,35.736767,139.820175,03-3613-1510,03-6906-8813,131-0031,墨田区墨田5-36-8,月:9:00-18:30/火:9:00-18:30/水:9:00-17:30/木:9:00-18:30/金:9:00-18:30/土:9:00-13:00/,有,03-3613-1510,
あおぞら薬局,131075,東京都,墨田区,35.723736,139.815125,03-3617-3739,03-6912-4485,131-0032,墨田区東向島3-29-10,月~水・金9:00~19:00木9:00~12:00土9:00~17:00,有,03-3617-3739,
さつき薬局,131075,東京都,墨田区,35.72076,139.816162,03-3619-2133,03-3619-2133,131-0032,墨田区東向島3-36-8,月:9:00~18:30/火:9:00~18:30/水:9:00~18:30/木:9:00~18:30/金:9:00~18:30/土:9:00~13:00/,有,080-8842-8233,
しんせい薬局東向島,131075,東京都,墨田区,35.725288,139.820602,03-3617-8905,03-3617-8904,131-0032,墨田区東向島5-5-12,月:9:00~18:45/火:9:00~18:45/水:9:00~18:45/木:9:00~18:45/金:9:00~18:45/土:9:00~13:00/,有,03-3617-8905,
ひきふね薬局,131075,東京都,墨田区,35.717125,139.815948,03-3618-3031,03-3618-3401,131-0032,墨田区東向島2-13-15,月9:00~19:00/火9:00~19:00/水9:00~19:00/木9:00~19:00/金9:00~19:00/土9:00~15:00,有,03-3618-3031,
スズラン薬局 ,131075,東京都,墨田区,35.711712,139.808167,03-5637-9688,03-5637-9687,131-0033,墨田区向島3-33-15,月~土9:00~18:30,有,080-8842-8233,
フタバ調剤薬局,131075,東京都,墨田区,35.718178,139.813263,03-3616-6573,03-0336-6573,131-0033,墨田区向島5-50-13,月:9:00~18:00/火:9:00~18:00/水:9:00~13:00/木:9:00~18:00/金:9:00~18:00/土:9:00~13:00/,無,,
アイセイ薬局曳舟店,131075,東京都,墨田区,35.720627,139.822556,03-5630-6332,03-3612-6476,131-0041,墨田区八広1-15-2,月:9:00~19:00/火:9:00~17:00/水:9:00~19:00/木:9:00~19:00/金:9:00~19:00/土:9:00~14:00/,有,03-5630-6332,
かちどき薬局 向島店,131075,東京都,墨田区,35.721149,139.82196,03-3613-4691,03-3613-3825,131-0041,墨田区八広1-4-4,月9:00=17:00/火9:00~17:00/水9:00~17:00/木9:00~17:00/金9:00~17:00/土9:00~14:00,無,,
かちどき薬局ひきふね店,131075,東京都,墨田区,35.720367,139.82222,03-6657-3588,03-6657-3589,131-0041,墨田区八広1-2-14,月9:00~17:00/火9:00~17:00 /水9:00~17:00/木9:00~17:00/金9:00~17:00/土9:00~14:00,有,070-5552-7660,
薬局トモズ向島店,131075,東京都,墨田区,35.721222,139.821686,03-6231-9523,03-6231-9524,131-0041,墨田区八広1-7-1,月:9:00~19:00/火:9:00~19:00/水:9:00~19:00/木:9:00~17:00/金:9:00~19:00/土:10:00~14:00/,有,090-1854-3837,
アイセイ薬局 錦糸町北口店,131075,東京都,墨田区,35.713249,139.82991,03-5819-4193,03-3626-0165,131-0043,墨田区立花5-16-1プラムハイツ208,月~金:9:00~18:00、土:9:00~13:00 ,有,03-5819-4193,
ひばり薬局,131075,東京都,墨田区,35.711937,139.82872,03-3611-1631,03-3611-1634,131-0043,墨田区立花5-2-6,月~金9:00~18:00土9:00~17:00,有,03-3611-1631,
みずほ薬局,131075,東京都,墨田区,35.706551,139.830963,03-3618-3188,03-3618-3188,131-0043,墨田区立花1-23-5 サンタウン立花117,月・木9:00~19:00 火・水・金9:00~18:00 土9:00~13:30,有,080-1360-5917,
りんご薬局立花店,131075,東京都,墨田区,35.706959,139.830658,03-6657-0824,03-6657-0874,131-0043,墨田区立花2-25-7,月~金9:00~18:00土9:00~13:00,有,03-6657-0824,
薬局トモズ押上店,131075,東京都,墨田区,35.710384,139.814362,03-5809-7727,03-5809-7715,131-0045,墨田区押上1-11-4,月~水9:00~19:30金9:00~19:30土9:00~12:00,無,,
本木薬局曳舟店,131075,東京都,墨田区,35.718227,139.819519,03-6657-0616,03-6657-0626,131-0046,墨田区京島1-39-1-120,月~水・金9:00~18:00 木9:00~17:00 土9:00~13:00,無,,
薬局くすりの福太郎京島1丁目店,131075,東京都,墨田区,35.710724,139.801498,03-5655-1129,03-5655-1129,131-0046,墨田区1-2-2 イ-ストコア曳舟三番館F101号,月~水・金9:00~19:00木9:00~18:00土9:00~13:00日・祝休み,無,,
薬局はなファ-マシ-曳舟,131075,東京都,墨田区,35.717442,139.817307,03-6657-2112,03-3613-0087,131-0046,墨田区京島1-2-2-F104,月:9:30-20:00/火:9:30-20:00/水:9:30-19:00/木:9:30-20:00/金:9:30-20:00/土:9:30-17:00/,有,090-3215-2866,
メ-プル調剤薬局,131237,東京都,江戸川区,35.691517,139.906281,03-5664-0901,03-5664-0902,132-0013,江戸川区江戸川1-51-7,月:8:30~18:30/火:8:30~18:30/水:8:30~18:30/木:8:30~16:30/金:8:30~18:30/土:8:30~13:00/,有,070-5579-3084,
昭和堂今井調剤薬局,131237,東京都,江戸川区,35.684715,139.890991,03-3698-2165,03-3698-2165,132-0013,江戸川区江戸川3-39-47,月・火・木・金9:00~18:30水9:00~17:00土9:00~12:30日・祝定休,無,,
昭和堂調剤薬局,131237,東京都,江戸川区,35.688419,139.898926,03-3678-9150,03-3678-9150,132-0014,江戸川区東瑞江2-31-1,月~水・金8:30~18:30 木9:00~17:00 土8:30~12:30,無,,
有限会社ニコニコファミリ-ケア 薬局ニコニコ,131237,東京都,江戸川区,35.710083,139.86618,03-5879-2514,03-5879-2518,132-0021,江戸川区中央4-11-8アルカディア親水公園ビル1F,月9:30~18:30/火9:30~18:30/水9:30~18:30/木9:30~18:30/金9:30~18:30/土9:30~18:30,有,03-5879-2514,
ウエルシア薬局江戸川一之江店,131237,東京都,江戸川区,35.685524,139.879028,03-5661-7704,03-5661-7714,132-0024,江戸川区一之江7-73-5,月~金9:00~23:00土9:00~20:00日・祝10:00~19:00,無,,
ことぶき薬局一之江店,131237,東京都,江戸川区,35.690414,139.879593,03-3655-3480,03-3655-3481,132-0024,江戸川区一之江4-7-4,月9:00~19:00/火9:00~19:00/水9:00~19:00/木9:00~18:00/金9:00~19:00/土9:00~13:00,無,,
薬局くすりの福太郎一之江店,131237,東京都,江戸川区,35.687401,139.883011,03-5879-9712,03-5879-9712,132-0024,江戸川区一之江3-2-2,月~金8:30~18:30土8:30~15:00日・祝休み,無,,
株式会社マリンファ-マシ-松江調剤薬局,131237,東京都,江戸川区,35.696655,139.870392,03-3656-0800,03-5607-5113,132-0025,江戸川区松江2-1-19クリスタルビル1F,月~金8:30~18:30土8:30~13:00日祝日休み,無,,
なの花調剤薬局,131237,東京都,江戸川区,35.697197,139.868256,03-5678-5566,03-5678-5567,132-0025,江戸川区松江3-11-6-102,月・火・木・金9:00~19:00土9:00~13:00水・日・祝休み,有,090-8491-3848,
薬局トモズ松江店,131237,東京都,江戸川区,35.702858,139.875214,03-5662-1902,03-5662-1904,132-0025,江戸川区松江2-43-8,月:9:00-19:30/火:9:00-19:30/水:9:00-19:30/木:9:00-19:30/金:9:00-19:30/土:9:00-19:30/日:9:00-13:00/祝:9:00-17:00/,有,080-6283-1931,
アップル薬局まつしま店,131237,東京都,江戸川区,35.706795,139.867706,03-5662-5891,03-5662-5892,132-0031,江戸川区松島1-41-23 アクアリオビル1F,月~金9:00~17:30土9:00~13:30日・祝休み,有,03-3685-8830,
中川薬局江戸川松島店,131237,東京都,江戸川区,35.705521,139.867783,03-5661-8655,03-5661-8656,132-0031,江戸川区松島1-42-22,月:9:00-17:30/火:9:00-17:30/水:9:00-17:30/木:9:00-17:30/金:9:00-17:30/土:9:00-13:00/,無,,
アイランド薬局平井店,131237,東京都,江戸川区,35.707443,139.842285,03-3617-2403,03-3617-2405,132-0035,江戸川区平井5-21-11-1F,月:9:00~18:00/火:9:00~18:00/水:9:00~18:00/木:9:00~18:00/金:9:00~18:00/土:9:00~17:00/,無,,
ユニスマイル薬局 平井店,131237,東京都,江戸川区,35.705566,139.843781,03-3684-5971,03-3684-5972,132-0035,江戸川区平井3-24-17,月9:00~19:00/火9:00~19:00/水9:00~19:00/木9:00~19:00/金9:00~19:00/土9:00~18:00,無,,
黒田薬局,131237,東京都,江戸川区,35.703487,139.846725,03-3685-8830,03-3685-8830,132-0035,江戸川区平井2-23-13,月~金9:00~19:30土9:00~17:30,有,03-3685-8830,
スマイル薬局,131237,東京都,江戸川区,35.724758,139.874451,03-5661-5581,03-5661-5582,133-0042,江戸川区興宮町17-5 ,月:9:00~18:00/火:9:00~18:00/水:9:00~18:00/木:9:00~17:00/金:9:00~18:00/土:9:00~13:00/,有,080-3428-5038,
