施設_名称,施設_市区町村コード,住所_都道府県,住所_市区町村（郡）,住所_緯度,住所_経度,連絡先_電話番号,連絡先_FAX番号,連絡先_郵便番号,連絡先_住所,施設_開局時間,時間外_対応の有無,時間外_電話番号,エラー
ドラッグセイムス新橋日比谷口薬局,131032,東京都,港区,35.66769,139.756927,03-6811-2091,03-6811-2092,105-0004,港区新橋2-6-2新橋アイマ-クビル1F,月-金:9:00-20:00、土:9:00-18:00,有,070-3033-2463,
健康福祉サ-ビス株式会社 中央薬局,121010,千葉県,千葉市中央区,35.612495,140.140656,043-235-1727,043-235-1728,260-0001,千葉市中央区都町2-16-6,月・金9:00~13:00・14:00~18:00 水・木9:00~13:00・15:00~18:00 土9:00~14:00,無,,
桃太郎薬局みやこ店,121010,千葉県,千葉市中央区,35.615604,140.144623,043-214-1189,043-214-1207,260-0001,千葉市中央区都町6-3-10,月・火・水・金9:00~18:30 木9:00~17:00 土9:00~13:00,有,043-214-1189,
薬局タカサ千葉都町店,121010,千葉県,千葉市中央区,35.614124,140.15036,043-214-7105,043-214-7106,260-0001,千葉市中央区都町5-36-1,月・木9:00~19:00 火9:00~17:00 水9:00~18:00 金9:00~14:00 土9:00~13:00,有,043-214-7105,
サンテ薬局都町店,121010,千葉県,千葉市中央区,35.615803,140.142944,043-231-8841,043-231-8911,260-0001,千葉市中央区都町1-47-23,月・火・木・金8:30~18:00 水8:30~16:30 土8:30~11:30,無,,
道場薬局,121010,千葉県,千葉市中央区,35.61285,140.130707,043-227-3691,043-227-3693,260-0005,千葉市中央区道場南1-15-30,月~土8:30~17:30,無,,
桃太郎薬局かめい店,121010,千葉県,千葉市中央区,35.608311,140.128876,043-226-1189,043-226-1184,260-0011,千葉市中央区亀井町2-5,月~金8:30~16:30 土8:30~12:30,有,043-226-1189,
桃太郎薬局本町店,121010,千葉県,千葉市中央区,35.611134,140.124786,043-202-1189,043-202-1089,260-0012,千葉市中央区本町1-1-1,月~水・金9:00~18:30 木・土9:00~13:00,無,,
千葉中央薬局,121010,千葉県,千葉市中央区,35.609299,140.122009,043-222-6765,043-222-6744,260-0013,千葉市中央区中央2-6-7,月・火・木・金9:00~17:30 水・土9:00~13:00,無,,
調剤薬局ツルハドラッグ千葉中央3丁目店,121010,千葉県,千葉市中央区,35.608963,140.121155,043-202-2268,043-202-2268,260-0013,千葉市中央区中央3-3-1,月~金9:30~13:00、14:00~18:30土・日・祝休み,無,,
有限会社銀座薬局,121010,千葉県,千葉市中央区,35.608475,140.122528,043-222-4275,043-222-4275,260-0013,千葉市中央区中央3-5-8,月~土9:00~19:00,有,090-5319-5740,
フルヤマ薬局中央店,121010,千葉県,千葉市中央区,35.607548,140.12233,043-225-6310,043-215-7022,260-0013,千葉市中央区中央4-5-1,月~土9:00~19:00 日・祝9:00~18:00,無,,
まいにち薬局千葉中央店,121010,千葉県,千葉市中央区,35.607456,140.11763,043-305-4031,043-305-4032,260-0014,千葉市中央区本千葉町15-1 京成千葉中央ビル3F,月・水10:00~21:00 火・木・金~日・祝日10:00~19:00,無,,
フルヤマ薬局千葉シ-ワン店,121010,千葉県,千葉市中央区,35.610886,140.115936,043-215-7500,043-215-7455,260-0015,千葉市中央区富士見2-25-1,月~日10:00~20:00,無,,
さくら薬局東千葉店,121010,千葉県,千葉市中央区,35.61314,140.123581,043-222-5434,043-226-1981,260-0018,千葉市中央区院内1-8-12 LAPUTA1階,月~土8:30~17:00,有,043-222-5434,
たちばな薬局,121010,千葉県,千葉市中央区,35.607281,140.116837,043-204-8501,043-204-8501,260-0021,千葉市中央区新宿2-5-20 タナムラビル102号,月~金9:00~18:00 第1.3土9:00~13:00 第2.4土9:00~17:00,無,,
あさがお薬局千葉中央店,121010,千葉県,千葉市中央区,35.60997,140.115707,043-204-9751,043-204-9878,260-0028,千葉市中央区新町1-8 駿河ビル,月~金9:00~18:00土9:00~14:00,有,070-1048-6705,
新町まる薬局,121010,千葉県,千葉市中央区,35.61068,140.111755,043-302-1411,043-302-1412,260-0028,千葉市中央区新町17-7 1F,月・火・木・金9:00~14:00・15:00~19:00 水・土9:00~13:00,無,,
日本調剤千葉駅前薬局,121010,千葉県,千葉市中央区,35.60997,140.115707,043-301-5061,043-301-5062,260-0028,千葉市中央区新町1-19アイ・エス・ワイ国際ビル1階,月~土9:00~19:00,有,080-2189-7757,
しんまち薬局,121010,千葉県,千葉市中央区,35.60997,140.115707,043-243-2287,043-243-2289,260-0028,千葉市中央区新町1-6,月~金9:00~18:00 土9:00~14:00,有,043-243-2287,
調剤薬局日本メディカルシステム千葉西口店,121010,千葉県,千葉市中央区,35.613495,140.111282,043-216-3217,043-216-3218,260-0031,千葉市中央区新千葉2-2-1 新日本EXビル3階,月・火9:00~22:00 水~金9:00~19:00 土9:00-17:00,無,,
アイン薬局ペリエ千葉エキナカ店,121010,千葉県,千葉市中央区,35.612953,140.114136,043-307-8722,043-307-8723,260-0031,千葉市中央区新千葉1丁目1-1,月~日9:00~21:00,有,043-307-8722,
ひまわり薬局登戸店,121010,千葉県,千葉市中央区,35.61372,140.103485,043-215-7175,043-215-7176,260-0032,千葉市中央区登戸3-11-9 ノフドKCビル1階,月~金9:00~18:30 土9:00~12:30,有,090-2147-3804,
春日薬局,121010,千葉県,千葉市中央区,35.62159,140.101425,043-245-8755,043-245-7088,260-0033,千葉市中央区春日2-9-12,月~金9:00~18:00 土9:00~17:00,無,,
フルヤマ薬局西千葉店,121010,千葉県,千葉市中央区,35.621861,140.102875,043-241-3277,043-245-8993,260-0033,千葉市中央区春日2-21-8,月~土9:30~18:30,無,,
すみれ薬局東千葉店,121010,千葉県,千葉市中央区,35.625481,140.124634,043-301-6501,043-301-6511,260-0041,千葉市中央区東千葉1-13-8 伸恵ビル1F,月・火・木・金9:00~18:00 水9:00~17:00 土9:00~13:00,無,,
フジ薬局,121010,千葉県,千葉市中央区,35.625481,140.124634,043-254-8082,043-284-4316,260-0041,千葉市中央区東千葉1-13-2,月~金9:00~18:00土9:00~15:00,有,090-9967-1524,
東千葉グリ-ン薬局,121010,千葉県,千葉市中央区,35.624241,140.124741,043-290-7760,043-290-7761,260-0041,千葉市中央区東千葉1-7-13,月~水・金9:00~17:15 木9:00~17:00 土9:00~13:00,無,,
フルヤマ薬局東千葉店,121010,千葉県,千葉市中央区,35.619789,140.125366,043-287-6734,043-253-0030,260-0041,千葉市中央区東千葉1-1-16,月~土9:00~18:00,無,,
クオ-ル薬局東千葉店,121010,千葉県,千葉市中央区,35.621529,140.123001,043-285-5455,043-252-6100,260-0042,千葉市中央区椿森6-5-2,月・金9:00~17:00  火~木9:00~17:30 土9:00~13:00,有,090-3802-3702,
ヤックスドラッグ椿森薬局,121010,千葉県,千葉市中央区,35.621292,140.122772,043-252-8262,043-252-8171,260-0042,千葉市中央区椿森6-2-16,月~金9:00~18:00   土9:00~16:00,有,043-252-8262,
日本調剤椿森薬局,121010,千葉県,千葉市中央区,35.623627,140.122757,043-207-5531,043-207-5532,260-0042,千葉市中央区椿森4-4-4,月~金9:00~17:30土9:00~12:00,無,,
薬局くすりの福太郎椿森店,121010,千葉県,千葉市中央区,35.623249,140.12326,043-207-8229,043-207-8229,260-0042,千葉市中央区椿森4-3-3-101,月~金9:00~18:00,無,,
クオ-ル薬局まつなみ店,121010,千葉県,千葉市中央区,35.617329,140.108841,043-287-6115,043-284-7953,260-0044,千葉市中央区松波1-4-13,月~土9:00~18:00,有,090-3802-3666,
MAM薬局,121010,千葉県,千葉市中央区,35.615261,140.114151,043-311-0711,043-311-0710,260-0045,千葉市中央区弁天1-33-3,月~金9:00~18:00土・日・祝休み,無,,
漢方閣千葉店,121010,千葉県,千葉市中央区,35.614769,140.111847,043-256-6660,043-254-9585,260-0045,千葉市中央区弁天1-2-3,月~水・金9:00~19:00 木・土9:00~18:00,有,070-6421-5480,
薬局漢方閣千葉II号店,121010,千葉県,千葉市中央区,35.614746,140.117355,043-206-5556,043-206-5578,260-0045,千葉市中央区弁天2-22-7,月~土9:00~18:00,有,070-6975-8658,
アイン薬局千葉仁戸名店,121010,千葉県,千葉市中央区,35.583855,140.16275,043-209-1910,043-209-1915,260-0801,千葉市中央区仁戸名町681,月~金9:00~18:00 土9:00~12:00,有,043-209-1910,
日本調剤千葉中央薬局,121010,千葉県,千葉市中央区,35.58699,140.160034,043-312-9845,043-312-9855,260-0801,千葉市中央区仁戸名町697-10,月~金9:00~18:00土日祝休み,有,080-9970-7726,
ヤックスドラッグ薬局仁戸名店,121010,千葉県,千葉市中央区,35.580379,140.164978,043-261-7738,043-261-7805,260-0801,千葉市中央区仁戸名町702-1,月~金9:00~18:00    土9:00~13:00,有,043-261-7738,
仁戸名薬局,121010,千葉県,千葉市中央区,35.583855,140.16275,043-265-0081,043-209-3011,260-0801,千葉市中央区仁戸名町685-11,月・水・金9:00~19:30 火・木9:00~18:00 土9:00~17:30,無,,
仁戸名薬局2号店,121010,千葉県,千葉市中央区,35.580379,140.164978,043-209-3155,043-209-3156,260-0801,千葉市中央区仁戸名町702-1,月~金9:00~18:00,無,,
薬局タカサドライブスル-仁戸名店,121010,千葉県,千葉市中央区,35.578541,140.166977,043-305-0046,043-305-0045,260-0801,千葉市中央区仁戸名町710-5,月~土9:00~18:00,無,,
スマイル薬局 有限会社スマイルサポ-ト,121010,千葉県,千葉市中央区,35.583935,140.139069,043-268-2666,043-268-2601,260-0805,千葉市中央区宮崎町235-7 升富ビル103号,月9:00~19:00/火9:00~19:00/水9:00~19:00/木9:45~17:45/金9:00~17:00/土9:00~17:00/備考:木曜日以外 14:00~15:00は閉局,有,080-9279-1943,
そが薬局,121010,千葉県,千葉市中央区,35.583851,140.143097,043-497-3497,043-497-3498,260-0805,千葉市中央区宮崎町560-2,月・火・木・金9:00~18:00 水9:00~17:00 土9:00~13:00,有,043-497-3497,
桃太郎薬局そが店,121010,千葉県,千葉市中央区,35.580803,140.138153,043-305-1093,043-305-1083,260-0806,千葉市中央区宮崎2-11-16,月~金9:00~17:30 土9:00~15:00,無,,
みずき薬局 星久喜店,121010,千葉県,千葉市中央区,35.598358,140.151154,043-309-6080,043-309-6087,260-0808,千葉市中央区星久喜町606-26,月~金9:00~18:00 土9:00~13:00,有,080-8050-1648,
サンテ薬局生実町店,121010,千葉県,千葉市中央区,35.56126,140.144852,043-420-8323,043-420-8327,260-0813,千葉市中央区生実町1789-3,月火木金9:00~17:00土9:00~12:00,無,,
ふれあい薬局,121010,千葉県,千葉市中央区,35.578918,140.139847,043-266-0081,043-266-0083,260-0841,千葉市中央区白旗2-14-3,月~金9:00~20:00 土9:00~13:00,有,090-7830-6107,
あゆみ薬局南町店,121010,千葉県,千葉市中央区,35.581207,140.134171,043-309-8531,043-309-8532,260-0842,千葉市中央区南町2-14-13,月~土9:30~18:30,無,,
わかな薬局蘇我,121010,千葉県,千葉市中央区,35.581783,140.131927,043-265-9261,043-264-4448,260-0842,千葉市中央区南町2-10-19,月~水・金9:30~20:00木9:30~17:00土9:30~14:00第1・3土休み,無,,
調剤薬局ツルハドラッグ蘇我駅前店,121010,千葉県,千葉市中央区,35.580952,140.132294,043-305-1268,043-305-1268,260-0842,千葉市中央区南町2-15-19,月~金9:00~19:00土9:00~18:00,無,,
調剤薬局日本メディカルシステム蘇我店,121010,千葉県,千葉市中央区,35.58073,140.132751,043-488-6371,043-488-6372,260-0842,千葉市中央区南町2-15-15 KS.HOYOビル,月~金9:00~18:00 土9:00~17:00 日祝休,有,090-1732-7866,
鈴木薬局,121010,千葉県,千葉市中央区,35.595524,140.126053,043-266-3727,043-261-6422,260-0843,千葉市中央区末広2-12-16,月~金9:00~18:00 土9:00~13:00,無,,
千葉寺中央薬局,121010,千葉県,千葉市中央区,35.590851,140.132278,043-208-3021,043-208-3022,260-0844,千葉市中央区千葉寺町1194-3-101,月~土9:00~18:00,無,,
ヤックスドラッグ亥鼻薬局,121010,千葉県,千葉市中央区,35.603081,140.136871,043-225-1818,043-225-1818,260-0851,千葉市中央区矢作町810,月~金9:00~18:00 土9:00~13:00,有,043-225-1818,
薬局タカサ千葉大病院前店,121010,千葉県,千葉市中央区,35.603081,140.136871,043-224-3531,043-224-3532,260-0851,千葉市中央区矢作町805-13,月~金9:00~18:00,無,,
ありす薬局青葉店,121010,千葉県,千葉市中央区,35.603081,140.136871,043-225-5500,043-225-5546,260-0851,千葉市中央区矢作町804-5,月~金9:00~18:00,無,,
コクミン薬局千葉大病院前店,121010,千葉県,千葉市中央区,35.603081,140.136871,043-222-0208,043-222-0208,260-0851,千葉市中央区矢作町805-14,月~金8:30~17:30,無,,
日本調剤青葉薬局,121010,千葉県,千葉市中央区,35.600525,140.136841,043-226-1730,043-226-1739,260-0852,千葉市中央区青葉町955-23,月~金9:00~18:00土9:00~13:00日・祝休み,無,,
薬局タカサ青葉の森店,121010,千葉県,千葉市中央区,35.6017,140.137177,043-216-5362,043-216-5367,260-0852,千葉市中央区青葉町1273-3,月~金9:00~18:00,無,,
ヤックスドラッグ本千葉薬局,121010,千葉県,千葉市中央区,35.599308,140.123993,043-223-6601,043-223-6603,260-0854,千葉市中央区長洲2-27-4,月~土9:00~18:00 祝日休み,有,043-223-6601,
きらり薬局 幸町店,121061,千葉県,千葉市美浜区,35.622269,140.093521,043-305-4850,043-305-4851,261-0001,千葉市美浜区幸町2-23-1 マルエツ千葉幸町店2F,月~金9:00~18:00 土9:00~13:00,有,043-305-4850,
ハ-ト調剤薬局西千葉店,121061,千葉県,千葉市美浜区,35.615246,140.097641,043-204-7714,043-204-7715,261-0001,千葉市美浜区幸町1-12-1,月・火・木・金8:30~17:30 水8:30~16:30 土8:30~12:30,無,,
ヤックスドラッグ千葉みなと薬局,121061,千葉県,千葉市美浜区,35.615246,140.097641,043-307-8863,043-307-8864,261-0001,千葉市美浜区幸町1丁目12番5号,月~土9:00~13:00・14:00~18:00,無,,
幸町薬局,121061,千葉県,千葉市美浜区,35.615654,140.098724,043-242-8488,043-242-8477,261-0001,千葉市美浜区幸町1-15-7,月~土9:00~17:30,有,080-6620-9955,
バ-ミ-薬局稲浜店,121061,千葉県,千葉市美浜区,35.640553,140.063034,043-278-0900,043-278-0900,261-0003,千葉市美浜区4-12-2,月~金9:00~19:00   土9:00~17:00,無,,
イオン薬局マリンピア店,121061,千葉県,千葉市美浜区,35.628323,140.073074,043-303-9745,043-303-0381,261-0004,千葉市美浜区高洲3-13-1,月~土9:00~21:00 日祝9:00~20:00,有,080-4710-3594,
いなげかいがん調剤薬局,121061,千葉県,千葉市美浜区,35.628311,140.074341,043-278-6780,043-278-6730,261-0004,千葉市美浜区高洲3-14-18 花澤高州ビル 1F,月・火・金9:00~18:30 水・木9:00~18:00土9:00~17:00,有,090-6874-5770,
稲毛海岸マル薬局,121061,千葉県,千葉市美浜区,35.630001,140.072678,043-307-5200,043-307-5201,261-0004,千葉市美浜区高洲1-21-1 三基ビル1F-4,月~土9:00~18:00,無,,
アイセイ薬局稲毛海岸店,121061,千葉県,千葉市美浜区,35.629486,140.078568,043-270-5656,043-270-5657,261-0004,千葉市美浜区高州3-22-2 アリ-ム稲毛海岸1F,月・火・木~土8:30~18:00 水8:30~16:30,有,043-270-5656,
いなげかいがん調剤薬局,121061,千葉県,千葉市美浜区,35.628311,140.074341,043-279-1120,043-279-1137,261-0004,千葉市美浜区高洲3-14-1 和紅ビル205,月~水・金9:00~18:30 木・土9:00~18:00 ,有,043-279-1120,
いなげ共同薬局,121061,千葉県,千葉市美浜区,35.634773,140.075836,043-301-0070,043-301-0071,261-0005,千葉市美浜区稲毛海岸4-11-4-A,月~金8:45~17:00 土8:45~12:30,有,080-1371-8845,
薬局アポック稲毛海岸店,121061,千葉県,千葉市美浜区,35.640144,140.073074,043-302-8008,043-302-8009,261-0005,千葉市美浜区稲毛海岸5-3-1,月・火・水・金10:00~19:00 木10:00~18:00 土9:00~18:00,有,080-1385-8550,
クオ-ル薬局検見川浜店,121061,千葉県,千葉市美浜区,35.635323,140.062515,043-307-7690,043-307-7693,261-0011,千葉市美浜区真砂3-13-4 美浜ウィング1F,月・火・木・金9:00~18:00土9:00~15:00,無,,
まごころ薬局,121061,千葉県,千葉市美浜区,35.639526,140.060608,043-304-6160,043-304-6162,261-0011,千葉市美浜区真砂4-1-10-101,月~金9:00~19:00土9:00~17:00,無,,
ファルメックス薬局,121061,千葉県,千葉市美浜区,35.636257,140.058792,043-441-6101,043-441-6102,261-0012,千葉市美浜区磯辺5-9-1,月~水・金9:00~18:30 木9:00~18:00 土9:00~14:00,有,080-6063-0372,
マリン薬局,121061,千葉県,千葉市美浜区,35.630646,140.058731,043-270-7001,043-270-7011,261-0012,千葉市美浜区磯辺4-15-3,月~金9:00~18:30 土9:00~12:30,有,043-270-7001,
ヤックスドラッグ磯辺海浜薬局,121061,千葉県,千葉市美浜区,0.0,0.0,043-270-7410,043-270-7411,261-0012,22,月~金9:00~18:00 土9:00~13:00,有,043-270-7410,
ダリヤ幕張薬局,121061,千葉県,千葉市美浜区,35.64254,140.042496,043-310-8010,043-310-8050,261-0013,千葉市美浜区打瀬2-1-2 グランパティオス公園西の街5番街101号,月~水・金9:30~19:00 木9:00~17:00 土9:30~13:30,有,080-6083-9220,
ヤックスドラッグパティオス薬局,121061,千葉県,千葉市美浜区,35.641701,140.046005,043-310-0166,043-310-0167,261-0013,千葉市美浜区打瀬2-5パティオス3番街,月~日10:00~19:00,有,043-310-0166,
日本調剤ベイタウン薬局,121061,千葉県,千葉市美浜区,35.639694,140.042038,043-274-0826,043-274-0839,261-0013,千葉市美浜区打瀬3-4 パティオス20番街,月~水・金9:00~18:30 木9:00~18:00 土9:00~14:00,有,090-6942-3093,
薬局タカサ幕張マリンフォ-ト店,121061,千葉県,千葉市美浜区,35.639587,140.040329,043-213-3191,043-213-3192,261-0013,千葉市美浜区打瀬3-5 マリンフォ-ト2-103,月~金9:00~18:00 土9:00~13:00,有,043-213-3191,
日本調剤幕張ベイパ-ク薬局,121061,千葉県,千葉市美浜区,35.649914,140.049454,043-441-4151,043-441-4152,261-0014,千葉市美浜区若葉3-1-38,月~金9:00~18:30 土9:00~18:00,有,070-4015-3085,
フロ-ラ薬局海浜幕張店,121061,千葉県,千葉市美浜区,35.65086,140.043686,043-351-8101,043-351-8102,261-0021,千葉市美浜区ひび野1-7-1,月~金9:00~18:00 土9:00~12:00,有,080-4342-8307,
ありす薬局,121061,千葉県,千葉市美浜区,35.651276,140.041779,043-296-2733,043-296-2734,261-0023,千葉市美浜区中瀬1-3幕張テクノガ-デンF-1,月~金8:30~19:00土9:00~17:30日・祝休み,有,070-6514-6615,
ありす薬局幕張店,121061,千葉県,千葉市美浜区,35.651276,140.041779,043-293-2733,043-296-2734,261-0023,千葉市美浜区中瀬1-3 テクノガ-デンF棟1階,月~金8:30~19:00 土9:00~17:30,有,070-6514-6615,
イオンタワ-薬局,121061,千葉県,千葉市美浜区,35.651524,140.038177,043-212-6712,043-212-6150,261-0023,千葉市美浜区中瀬1-5-1,月~金8:00~18:00 土8:00~14:00,無,,
フルヤマ薬局マリブ店,121061,千葉県,千葉市美浜区,35.648041,140.038834,043-297-1173,043-297-1174,261-0023,千葉市美浜区中瀬2-6-1 WBG2F,月~土9:00~18:00(祝祭日休み),無,,
南山堂薬局幕張西店,121061,千葉県,千葉市美浜区,35.665215,140.037231,043-273-9900,043-273-9901,261-0026,千葉市美浜区幕張西2-7-20,月-金:9時~18時30分、土:9時~13時,無,,
ちぐさ薬局,121029,千葉県,千葉市花見川区,35.682365,140.119507,043-215-1435,043-215-1436,262-0012,千葉市花見川区千種町358-6,月~金9:00~18:00 土9:00~13:00,有,090-4363-3944,
ヤックスドラッグ千種薬局,121029,千葉県,千葉市花見川区,35.679081,140.111526,043-301-6702,043-301-6703,262-0012,千葉市花見川区千種町249,月~土9:00~13:00・14:00~18:00 祝日は閉局,無,,
第一薬局幕張店,121029,千葉県,千葉市花見川区,35.671207,140.039825,043-239-6131,043-239-6132,262-0013,千葉市花見川区幕張本郷1-15-1,月~金9:00~17:00 土9:00~14:00,無,,
すみれ薬局,121029,千葉県,千葉市花見川区,35.664761,140.097794,043-215-5750,043-215-5760,262-0014,千葉市花見川区さつきが丘1-17-4,月・火・木・金9:00~18:00 水9:00~17:00 土9:00~14:00,有,080-6560-9037,
さざなみ薬局,121029,千葉県,千葉市花見川区,35.660889,140.09314,043-252-8212,043-252-8213,262-0015,千葉市花見川区宮野木台3-29-2,月・水・木・金9:00~18:00 火9:00~17:00土日9:00~13:00祝日休み,有,043-252-8212,
株式会社宮野木薬局 宮の木薬局,121029,千葉県,千葉市花見川区,35.655518,140.091644,043-308-5506,043-308-5507,262-0015,千葉市花見川区宮野木台1-5-23,月8:20~13:00、14:15~18:00/火8:20~13:00、14:15~18:00/水8:20~13:00、14:15~18:00/木9:00~17:00/金8:20~13:00、14:15~18:00/土8:20~12:00,無,,
有限会社健章つくし薬局,121029,千葉県,千葉市花見川区,35.658058,140.093018,043-290-5265,043-290-5266,262-0015,千葉市花見川区宮野木台2-5-17,月~水・金9:00~18:00 木9:00~17:00 土9:00~12:30,無,,
さくら薬局宮野木店,121029,千葉県,千葉市花見川区,35.658058,140.093018,043-205-4639,043-205-4640,262-0015,千葉市花見川区宮野木台2-5-33 ミキ医療モ-ル1階,月~水・金9:00~18:30 木・土9:00~18:00,無,,
さいが薬局,121029,千葉県,千葉市花見川区,35.664188,140.078857,043-441-8314,043-441-8315,262-0018,千葉市花見川区畑町1421-7,月~金9:00~12:30・14:00~17:00,有,043-441-8314,
阿部薬局,121029,千葉県,千葉市花見川区,35.651329,140.074677,043-350-4970,043-350-4975,262-0022,千葉市花見川区南花園1-44-9 高山ビル102,月・火・木・金9:00~19:00 水9:00~17:30 土9:00~15:00,有,090-1795-7818,
薬局タカサ新検見川店,121029,千葉県,千葉市花見川区,35.654259,140.074585,043-350-0611,043-275-0266,262-0025,千葉市花見川区花園5-3-10 プチモンド101,月~水・金9:00~18:00 土9:00~12:00,無,,
さくら薬局花園店,121029,千葉県,千葉市花見川区,35.652588,140.073364,043-351-0369,043-351-0370,262-0025,千葉市花見川区花園1-9-19,月・金9:00~19:00 火・水9:00~20:00 木・土9:00~18:00 日祝は休み,有,043-351-0369,
はなぞの薬局,121029,千葉県,千葉市花見川区,35.653992,140.07048,043-274-8411,043-273-7366,262-0025,千葉市花見川区花園2-8-20,月・木9:00~20:00 火・水・金9:00~17:00 土9:00~12:30,有,090-5417-2277,
新検見川すばる薬局,121029,千葉県,千葉市花見川区,35.652317,140.072067,043-276-1040,043-276-1040,262-0025,千葉市花見川区花園1-8-10,月~水・金9:00~19:00 土9:00~13:00,無,,
あけぼの薬局幕張店,121029,千葉県,千葉市花見川区,35.66087,140.059784,043-310-3892,043-310-3496,262-0032,千葉市花見川区幕張町6-90-1 エムノ-ブル102,月~金8:30~18:00 土8:30~12:30,有,070-3163-5094,
薬局メディクス幕張店,121029,千葉県,千葉市花見川区,35.655151,140.050842,043-276-7760,043-276-7770,262-0032,千葉市花見川区幕張町5-417-222 幕張グリ-ンハイツ地下1FB-1号,月~水・金9:00~19:00 木・土9:00~17:30 ,有,070-6975-8674,
コスモ薬局幕張駅前店,121029,千葉県,千葉市花見川区,35.658016,140.056564,043-273-8367,043-273-8367,262-0032,千葉市花見川区幕張町5-145,月~金8:00~20:00 土8:00~18:00,無,,
共同薬局,121029,千葉県,千葉市花見川区,35.653381,140.059631,043-274-2800,043-275-1900,262-0032,千葉市花見川区幕張町5-399-2,月~木8:55~16:55 金8:55~20:30 土8:55~16:00,有,043-274-2800,
オリ-ブ薬局幕張本郷店,121029,千葉県,千葉市花見川区,35.67218,140.041306,043-441-3142,043-441-3143,262-0033,千葉市花見川区幕張本郷1-2-24 幕張本郷相葉ビル102,月~水・金9:00~19:00 木9:00~17:00 土9:00~12:30,無,,
ファ-コス薬局もみの木,121029,千葉県,千葉市花見川区,35.675774,140.049713,043-274-3295,043-388-8025,262-0033,千葉市花見川区幕張本郷7-22-10,月・火・木・金 9:00~18:00 水 9:00~17:00 土 9:00~14:00,有,09052011825,
サンリツ薬局幕張本郷店,121029,千葉県,千葉市花見川区,35.667038,140.045868,043-299-2227,043-299-2228,262-0033,千葉市花見川区幕張本郷3-22-14,月・火・木・金8:30~18:00 水9:00~17:00 土8:30~12:00,有,043-299-2227,
柏井薬局,121029,千葉県,千葉市花見川区,35.688339,140.102432,043-286-1281,043-286-1283,262-0041,千葉市花見川区柏井町815-5,月~金9:00~17:30,無,,
オハナ薬局,121029,千葉県,千葉市花見川区,35.684464,140.087387,043-301-5802,043-301-5803,262-0043,千葉市花見川区天戸町1467-7-101,月~金9:00~18:00 土9:00~13:00,無,,
あゆみ薬局,121029,千葉県,千葉市花見川区,35.69054,140.08577,043-298-6730,043-298-6731,262-0045,千葉市花見川区作新台5-1-5,月~金9:00~18:45 土9:00~13:45,無,,
つくし薬局作新台店,121029,千葉県,千葉市花見川区,35.690411,140.091568,043-305-5031,043-305-5031,262-0045,千葉市花見川区作新台1-6-2,月~水・金8:00~18:15 木9:00~17:00 土8:00~12:15,無,,
作新台マル薬局,121029,千葉県,千葉市花見川区,35.688934,140.090256,043-298-5511,043-298-5512,262-0045,千葉市花見川区作新台1-5-7,月・木・金9:00~18:00 火9:00~17:00 土9:00~13:00,無,,
ウエルシア薬局花見川作新台店,121029,千葉県,千葉市花見川区,35.689209,140.088364,043-298-9881,043-298-9882,262-0045,千葉市花見川区作新台2-1-3,月~金9:00~19:00 土9:00~18:00,有,043-298-9881,
花見川中央薬局,121029,千葉県,千葉市花見川区,35.688766,140.091049,043-216-0051,043-216-0052,262-0046,千葉市花見川区花見川2-42-103,月・水~金9:00~18:00 火9:00~17:00 土9:00~13:00,有,043-216-0051,
薬局タカサ長沼原店,121037,千葉県,千葉市稲毛区,35.676731,140.126678,043-298-0281,043-298-0282,263-0001,千葉市稲毛区長沼原町414-5,月・金9:00~17:30 火~木9:00~17:00 土9:00~13:00,有,043-298-0281,
サンテ薬局千葉北店,121037,千葉県,千葉市稲毛区,35.659264,140.126297,043-304-5557,043-374-5558,263-0001,千葉市稲毛区長沼原町782-1,月~金9:00~17:30 土9:00~12:30,無,,
ヤックスドラッグ千葉山王薬局,121037,千葉県,千葉市稲毛区,35.66341,140.148972,043-312-8813,043-312-8843,263-0002,千葉市稲毛区山王町48-2,月~土9:00~13:00・14:00~18:00 日祝休み,無,,
ウエルシア薬局千葉山王店,121037,千葉県,千葉市稲毛区,35.666824,140.141296,043-304-2223,043-304-2224,263-0002,千葉市稲毛区山王町134-1,月~金9:00~20:00 土9:00~19:00 日9:00~14:00・15:00~19:00,無,,
和光薬局長沼店,121037,千葉県,千葉市稲毛区,35.663071,140.118713,043-216-1355,043-216-1355,263-0005,千葉市稲毛区長沼町134-13,月~金9:00~18:00 土9:00~13:00,有,080-1049-7085,
千草台ファ-マシ-,121037,千葉県,千葉市稲毛区,35.634621,140.117508,043-251-7903,043-253-5934,263-0013,千葉市稲毛区千草台1-1-25-103,月~金8:30~18:00 土8:30~13:00,無,,
ヤックスドラッグ作草部薬局,121037,千葉県,千葉市稲毛区,35.628925,140.115433,043-207-6003,043-207-6005,263-0015,千葉市稲毛区作草部1-10-2,月~土9:00~18:00,有,043-207-6003,
てんだい薬局,121037,千葉県,千葉市稲毛区,35.632179,140.116302,043-251-1102,043-251-1516,263-0016,千葉市稲毛区天台1-20-8,月・水・金9:00~20:30 火・木9:00~17:00 土9:00~13:00,有,090-8301-6752,
みどり薬局,121037,千葉県,千葉市稲毛区,35.638298,140.11261,043-290-5755,043-290-5756,263-0016,千葉市稲毛区天台4-1-13,月・火・木・金9:00~18:00 水9:00~17:00 土9:00~12:45,無,,
クオ-ル薬局稲毛駅前店,121037,千葉県,千葉市稲毛区,35.636608,140.091888,043-243-8160,043-243-8162,263-0031,千葉市稲毛区稲毛東3-15-8,月・火・木~土9:00~18:30 水9:00~17:00,有,080-6628-2209,
ビック薬局3号店,121037,千葉県,千葉市稲毛区,35.635963,140.090302,043-247-6649,043-247-6649,263-0031,千葉市稲毛区稲毛東3-3-10,月~水9:00~19:00 木9:00~17:00 金9:00~19:00 土9:00~13:00 ,無,,
第一薬局稲毛店,121037,千葉県,千葉市稲毛区,35.636734,140.09256,043-243-9435,043-243-1120,263-0031,千葉市稲毛区稲毛東3-19-21,月~金9:00~19:00   土9:00~18:30,無,,
第一薬局浅間通り店,121037,千葉県,千葉市稲毛区,35.636993,140.085892,043-215-8371,043-215-8372,263-0031,千葉市稲毛区稲毛東2-3-6,月~金9:00~17:00 土9:00~14:00,無,,
薬局タカサ黒砂台店,121037,千葉県,千葉市稲毛区,35.627117,140.096573,043-242-1313,043-242-1320,263-0041,千葉市稲毛区黒砂台1-9-1,月~金9:00~18:00 土9:00~13:00,無,,
フルヤマ薬局黒砂店,121037,千葉県,千葉市稲毛区,35.625031,140.094986,043-241-5842,043-216-5038,263-0042,千葉市稲毛区黒砂1-14-1,月・火・木~土9:00~18:00,無,,
おむすび薬局,121037,千葉県,千葉市稲毛区,35.639153,140.093842,043-255-6481,043-255-6492,263-0043,千葉市稲毛区小仲台6-17-12,月~水・金8:30~17:00 木9:00~17:00 土8:30~12:30,有,043-255-6481,
クオ-ル薬局稲毛店,121037,千葉県,千葉市稲毛区,35.636257,140.093491,043-206-8289,043-206-8290,263-0043,千葉市稲毛区小仲台2-2-2 2A,月~水・金9:00~18:30 木9:00~18:00 土9:00~17:00,無,,
ココカラファイン薬局稲毛店,121037,千葉県,千葉市稲毛区,35.637215,140.093872,043-287-5071,043-287-5071,263-0043,千葉市稲毛区小仲台2-3-12,月~金9:30~19:00 土9:30~18:30,有,070-3138-8765,
ビック薬局本店,121037,千葉県,千葉市稲毛区,35.638931,140.092926,043-287-3754,043-287-3754,263-0043,千葉市稲毛区小仲台6-2-16,月~金9:00~13:00・14:30~18:30 土9:00~13:00・14:00~17:00,無,,
ヒロ薬局稲毛店,121037,千葉県,千葉市稲毛区,35.63765,140.094803,043-207-9944,043-207-9955,263-0043,千葉市稲毛区小仲台2-8-23-101,月・火・木~土 8:30~18:00 水9:00~18:00,無,,
ヒロ薬局小仲台店,121037,千葉県,千葉市稲毛区,35.638332,140.095642,043-301-6717,043-301-6718,263-0043,千葉市稲毛区小仲台2-10-14-101,月・火・水・金8:30~18:00 木9:00~17:00 土9:00~14:00,有,080-2018-3225,
第一薬局小仲台店,121037,千葉県,千葉市稲毛区,35.639786,140.092621,043-304-6540,043-304-6541,263-0043,千葉市稲毛区小仲台6-15-9,"月~金9:00~17:15 第1,3,5土9:00~13:00 第2,4土9:00,17:00",無,,
薬局タカサ稲毛病院前店,121037,千葉県,千葉市稲毛区,35.639771,140.093842,043-255-1200,043-255-1201,263-0043,千葉市稲毛区小仲台6-22-1,月・水・木9:00~18:00 火・金9:00~17:30 土9:00~13:00,無,,
アイセイ薬局稲毛店,121037,千葉県,千葉市稲毛区,35.638126,140.093704,043-207-6595,043-207-6596,263-0043,千葉市稲毛区小仲台2-6-5,月・水~金9:00~19:00 火9:30~19:00土9:00~17:00,無,,
園生薬局,121037,千葉県,千葉市稲毛区,35.639893,140.104385,043-255-7791,043-255-7691,263-0051,千葉市稲毛区園生町1111-1 プチモンド稲毛1-D,月~木9:00~18:30 金9:00~17:00 土・日9:00~12:30,無,,
第一薬局 園生店,121037,千葉県,千葉市稲毛区,35.649082,140.100327,043-255-9791,043-255-9796,263-0051,千葉市稲毛区園生町107-5,月~金9:00~18:00 土9:00~17:30,無,,
有限会社銭治薬局宮野木店,121037,千葉県,千葉市稲毛区,35.65659,140.108337,043-250-0211,043-286-1015,263-0054,千葉市稲毛区宮野木町1752-67,9:00~19:00,有,043-250-0211,
みなみ薬局,121045,千葉県,千葉市若葉区,35.617737,140.184921,043-226-6501,043-236-1181,264-0003,千葉市若葉区千城台南3-1-5,月~金9:00~18:00・土9:00~13:00,有,090-8720-9496,
ヤックスケアタウン千城台薬局,121045,千葉県,千葉市若葉区,35.62167,140.187637,043-312-0541,043-312-0542,264-0004,千葉市若葉区千城台西2-1-3,月・水~金、第1・3・4・5土8:00~19:00火、第2土・日・祝9:00~18:00,有,043-312-0541,
ブレ-メン薬局 小倉台店,121045,千葉県,千葉市若葉区,35.628574,140.177979,043-235-3441,043-235-3442,264-0006,千葉市若葉区小倉台7-2-2,月9:00~18:00/火9:00~18:00/水9:00~18:00/金9:00~18:00/土9:00~18:00,有,090-8035-1261,
さくら薬局千葉小倉台店,121045,千葉県,千葉市若葉区,35.625099,140.178268,043-234-7485,043-234-7486,264-0007,千葉市若葉区小倉町869-1,月・水・木9:00~19:00 火・金9:00~17:00 土9:00~1600,無,,
フクチ薬局,121045,千葉県,千葉市若葉区,35.620491,140.175003,043-235-1871,043-235-1872,264-0007,千葉市若葉区小倉町760-1,月~金9:00~18:00 土9:00~13:00,有,043-235-1871,
若葉薬局,121045,千葉県,千葉市若葉区,35.618965,140.167053,043-234-2222,043-234-2424,264-0017,千葉市若葉区加曽利町1800-230,月~金9:00-17:30 土9:00-13:00,有,090-2464-6795,
小桜薬局,121045,千葉県,千葉市若葉区,35.618965,140.167053,043-233-7008,043-233-7030,264-0017,千葉市若葉区加曽利町1800-21,月~金9:00~17:30 土9:00~13:00,有,090-2464-6795,
桃太郎薬局わかば店,121045,千葉県,千葉市若葉区,35.607372,140.149811,043-214-5211,043-214-5213,264-0017,千葉市若葉区加曽利町6-1,月・火・金9:00~18:30 水・木9:00~17:00 土9:00~12:00,有,043-214-5211,
きらり薬局若松町店,121045,千葉県,千葉市若葉区,35.647961,140.15242,043-309-7446,043-309-7449,264-0021,千葉市若葉区若松町545-9 ,月~金8:45~17:30、土9:00~12:30,有,043-309-7446,
ヤックスドラッグ若松薬局,121045,千葉県,千葉市若葉区,35.648396,140.14917,043-304-2775,043-304-2776,264-0021,千葉市若葉区若松町895,月~土9:00~13:00・14:00~18:00,無,,
桜木マル薬局,121045,千葉県,千葉市若葉区,35.633881,140.163284,043-214-7571,043-214-7572,264-0021,千葉市若葉区若松町2135-10 千葉北ビル3F-A,月・水・金9:30~17:30 火・木・土9:30~13:00,無,,
さくら薬局千葉若松店,121045,千葉県,千葉市若葉区,35.646858,140.14328,043-424-8401,043-424-8402,264-0021,千葉市若葉区若松町531-252,月~金9:00~18:00 土9:00~14:00,無,,
くすりの福太郎都賀駅前店,121045,千葉県,千葉市若葉区,35.634953,140.150497,043-235-2577,577 FAX 043-235-2577,264-0025,千葉市若葉区都賀3丁目13番8号 キャトルセゾン都賀1階,月~金10:00~13:00・14:00~18:45,無,,
ゆり薬局都賀店,121045,千葉県,千葉市若葉区,35.633041,140.148132,043-308-3539,043-308-3539,264-0025,千葉市若葉区都賀2-11-8,月・火・木・金8:45~17:30 水・土・祝日8:45~17:00,有,090-1217-2490,
ありす薬局都賀店,121045,千葉県,千葉市若葉区,35.631489,140.1492,043-214-5776,043-235-2555,264-0025,千葉市若葉区都賀2-24-1,月~水・金9:00~19:00 木9:00~17:00 土9:00~13:00,有,043-214-5776,
フルヤマ薬局都賀店,121045,千葉県,千葉市若葉区,35.635418,140.151459,043-233-1430,043-231-4454,264-0025,千葉市若葉区都賀3-24-1,月~水・金9:00~18:00 土9:00~12:00,無,,
あけぼの薬局都賀店,121045,千葉県,千葉市若葉区,35.637466,140.14537,043-309-1189,043-253-7730,264-0026,千葉市若葉区西都賀2-5-7,月~水・金9:00~18:00 木9:00~17:00 土9:00~14:00,有,080-2034-5572,
西都賀調剤薬局,121045,千葉県,千葉市若葉区,35.639446,140.14978,043-252-7750,043-252-7750,264-0026,千葉市若葉区西都賀4-7-2,月~水・金9:00~18:30 土9:00~13:00,無,,
クオ-ル薬局桜木店,121045,千葉県,千葉市若葉区,35.625267,140.159393,043-235-5010,043-235-5020,264-0028,千葉市若葉区桜木3-9-29,月・火・木・金9:00~18:00 水9:00~17:00 土9:00~13:00,無,,
みどり薬局桜木店,121045,千葉県,千葉市若葉区,35.627487,140.161057,043-497-5473,043-497-5474,264-0028,千葉市若葉区桜木8-7-1,月・火・金8:45~18:15 水8:45~19:15 木8:45~17:00 土8:45~12:15,有,080-9826-9994,
さかもとゆう薬局,121045,千葉県,千葉市若葉区,35.646709,140.134628,043-206-8200,043-206-8201,264-0032,千葉市若葉区みつわ台5-6-20,"月8:30~18:00/火8:30~18:00/水8:30~18:00/木9:00~18:00/金8:30~18:00/土8:30~14:00/備考:第1,3金曜日 8:30-21:00",nan,,
みどり薬局みつわ台店,121045,千葉県,千葉市若葉区,35.642929,140.134933,043-215-8186,043-215-8187,264-0032,千葉市若葉区みつわ台4-17-3,月~水・金9:00~18:30 木9:00~17:00 土日9:00~13:00,無,,
さくら薬局都賀の台店,121045,千葉県,千葉市若葉区,35.646297,140.142197,043-256-3110,043-254-3063,264-0033,千葉市若葉区都賀の台2-22-9,月~金9:00~18:00 土9:00~14:00,有,043-256-3110,
都賀の台薬局,121045,千葉県,千葉市若葉区,35.643253,140.142242,043-253-7881,043-285-1836,264-0033,千葉市若葉区都賀の台2-4-10,月~水・金9:00~12:00・15:00~18:00 土9:00~13:00,無,,
クオ-ル薬局高根町店,121045,千葉県,千葉市若葉区,35.593849,140.218689,043-228-2941,043-228-2940,265-0061,千葉市若葉区高根町964-8,月~金9:00~18:00 土9:00~13:00,有,090-3802-3638,
あきの薬局高田店,121053,千葉県,千葉市緑区,35.556015,140.210571,043-235-8839,043-235-8840,266-0003,千葉市緑区高田町401-72,月~土9:00~17:00,有,090-6041-0417,
タカダ薬局高田店,121053,千葉県,千葉市緑区,35.550159,140.222565,043-293-6030,043-293-6033,266-0003,千葉市緑区高田町1084-96,月~水・金・土9:00~18:00 木9:00~17:00,無,,
薬局タカサ誉田店,121053,千葉県,千葉市緑区,35.547211,140.207962,043-300-3100,043-300-3101,266-0005,千葉市緑区誉田町2-2307-161,月~金9:00~18:00 土9:00~17:00 第1.3.5日9:00~13:00,無,,
和幸薬局,121053,千葉県,千葉市緑区,35.548599,140.203003,043-292-5200,043-292-0830,266-0005,千葉市緑区誉田町1-957-2,月~水・金・土8:30~17:30,無,,
さくら薬局鎌取店,121053,千葉県,千葉市緑区,35.559479,140.189865,043-293-7010,043-293-7026,266-0007,千葉市緑区辺田町593-21,月~金9:00~18:00 土9:00~13:00,有,043-293-7010,
ヤックスドラッグ鎌取薬局,121053,千葉県,千葉市緑区,35.568577,140.17366,043-293-7835,043-293-7836,266-0011,千葉市緑区鎌取町114-30,月~土9:00~18:00(昼閉局13:00~14:00),無,,
サンリツ薬局古市場店,121053,千葉県,千葉市緑区,35.540981,140.153015,043-226-7300,043-226-7306,266-0026,千葉市緑区古市場町102,月・木8:45~19:15 火・水・金8:45~18:15 土8:45~17:15,有,090-2528-4950,
ウエルシア薬局千葉おゆみ野店,121053,千葉県,千葉市緑区,35.563381,140.17691,043-300-3027,043-300-3028,266-0031,千葉市緑区おゆみ野3-1,月~金9:00~20:00土9:00~19:00日・祝9:00~13:00、14:00~19:00,無,,
きらり薬局鎌取店,121053,千葉県,千葉市緑区,35.560123,140.18074,043-309-7718,043-309-7719,266-0031,千葉市緑区おゆみ野4-2-7 ,月~金9:00~18:00、土9:00~12:00,有,080-2706-3451,
調剤薬局ツルハドラッグ鎌取店,121053,千葉県,千葉市緑区,35.558327,140.176285,043-292-0636,043-292-0636,266-0031,千葉市緑区おゆみ野3-40-5,月~土9:00~19:00,有,080-6067-1309,
そうごう薬局おゆみ野店,121053,千葉県,千葉市緑区,35.555107,140.160767,043-293-8711,043-291-8222,266-0032,千葉市緑区おゆみ野中央2-3-1,月・水~金9:00~18:00 火9:30~18:00 土9:00~17:00 日9:00~15:00,有,043-293-8711,
まきの木薬局,121053,千葉県,千葉市緑区,35.551556,140.17865,043-226-9837,043-226-9838,266-0032,千葉市緑区おゆみ野中央6-21-12,月~水・金9:00~18:30 木9:00~18:00 土9:00~13:00,有,070-2488-5364,
あおぞら薬局,121053,千葉県,千葉市緑区,35.549156,140.177979,043-309-8345,043-309-8346,266-0032,千葉市緑区おゆみ野中央7-34-3,月~水・金9:00~13:00・15:00~19:00 土9:00~13:00・15:00~18:00,有,043-309-8345,
なのはな薬局南店,121053,千葉県,千葉市緑区,35.551788,140.167099,043-300-1524,043-300-1624,266-0033,千葉市緑区おゆみ野南2-11-1,月~金9:00~18:00 土9:00~17:00,有,090-1760-4210,
調剤薬局ツルハドラッグおゆみ野南店,121053,千葉県,千葉市緑区,35.550003,140.173279,043-291-0157,043-291-0157,266-0033,千葉市緑区おゆみ野南5-7-2,月~金9:00~19:00土9:00~14:00日9:00~14:00祝休み,無,,
桃太郎薬局おゆみ野店,121053,千葉県,千葉市緑区,35.543964,140.180115,043-292-4189,043-292-2593,266-0033,千葉市緑区おゆみ野南6-2-5,月・火・木・金9:00~18:00 水9:00~17:00 土9:00~13:00,有,043-292-4189,
薬局タカサおゆみの中央病院前店,121053,千葉県,千葉市緑区,35.539921,140.183929,043-300-2015,043-300-2016,266-0033,千葉市緑区おゆみ野南6-49-6,月~土9:00~18:00 日9:00~12:00,無,,
薬局タカサおゆみ野店,121053,千葉県,千葉市緑区,35.54158,140.18602,043-292-8830,043-292-8831,266-0033,千葉市緑区おゆみ野南6-18-3,月~金9:00~18:00,有,043-292-8830,
ドラッグセイムス土気駅前薬局,121053,千葉県,千葉市緑区,35.529316,140.269379,043-295-1851,043-295-1852,267-0066,千葉市緑区あすみが丘1-20-4,月-土9時半-20時,無,,
ヤックスドラッグ土気薬局,121053,千葉県,千葉市緑区,35.522194,140.265671,043-205-8881,043-205-8885,267-0066,千葉市緑区あすみが丘4-19-3,月~土9:00~13:00・14:00~18:00,無,,
薬局タカサ あすみが丘店,121053,千葉県,千葉市緑区,35.518578,140.26474,043-205-8955,043-205-8966,267-0066,千葉市緑区あすみが丘7-12-6,月~水8:30~18:00 土8:30~12:30,有,043-205-8955,
薬局タカサ オアシスとけ店,121053,千葉県,千葉市緑区,35.528782,140.267853,043-497-4988,043-497-4989,267-0066,千葉市緑区あすみが丘3-4-7,月~金9:00~13:00,無,,
あすみが丘薬局,121053,千葉県,千葉市緑区,35.528549,140.267227,043-226-5757,043-295-8980,267-0066,千葉市緑区あすみが丘3-5-1,月・火・木・金8:30~19:00 水9:00~17:00 土8:30~17:30 日8:30~12:30,無,,
あすみ薬局,121053,千葉県,千葉市緑区,35.522964,140.269348,043-205-5010,043-205-0810,267-0066,千葉市緑区あすみが丘2-35-2,月~水・金9:00~18:00 木9:00~17:00 土9:00~12:00,無,,
つつじ薬局土気店,121053,千葉県,千葉市緑区,35.527359,140.271149,043-309-9032,043-309-9037,267-0066,千葉市緑区あすみが丘2-3-12 ト-クプラザ102,月~金9:00~17:00 土9:00~13:00  ,無,,
ファ-コス薬局あすみが丘,121053,千葉県,千葉市緑区,35.522163,140.274414,043-205-0351,043-205-0352,267-0067,千葉市緑区あすみが丘東4-1-2,月9:00~12:00・18:00~21:00 水~金9:00~20:00 土14:00~20:00 日※隔週9:00~18:00,無,,
フォレスト薬局,121053,千葉県,千葉市緑区,35.521088,140.269333,043-205-5101,043-205-5102,267-0067,千葉市緑区あすみが丘8-1-3,月~金9:00~18:00 土9:00~13:00,無,,
コスモス薬局 北小金店,122076,千葉県,松戸市,35.83276,139.932495,047-347-3106,047-347-3107,270-0003,松戸市東平賀316-1,月~金9:00~19:00 土第1日9:00~13:00,有,090-1694-8775,
オリビエ薬局本町店,122076,千葉県,松戸市,35.704025,139.986755,047-411-1166,047-411-1167,270-0005,船橋市本町6-4-24 友愛ビル1階,月~土9:00~18:00,無,,
ファ-コス薬局銀杏,122076,千葉県,松戸市,35.830532,139.934158,047-309-6555,047-309-6556,270-0013,松戸市小金きよしケ丘2-8-13ファ-コス薬局銀杏,月・木 9:00~19:00 火・水・金 9:00~17:30 土 9:00~18:00,有,047-309-6555,
イオン薬局北小金店,122076,千葉県,松戸市,35.832893,139.931442,047-342-6212,047-342-6213,270-0014,松戸市小金1,9:00~20:00年中無休,無,,
ウイング薬局北小金駅前店,122076,千葉県,松戸市,35.832893,139.931442,047-711-5296,047-711-5319,270-0014,松戸市小金8-6 大正堂ビル2階,月~土9:00~19:00,無,,
薬局マツモトキヨシ 小金店,122076,千葉県,松戸市,35.829227,139.93045,047-344-1363,047-344-1363,270-0014,松戸市小金435-1,月~金9:00~19:00 土9:00~15:00,無,,
アピオス薬局,122076,千葉県,松戸市,35.832893,139.931442,047-348-4516,047-702-7511,270-0014,松戸市小金1番地 イオン北小金1階,月~金9:00~20:00 土9:00~18:00 日9:00~14:00,有,047-348-4516,
さくら薬局松戸小金原店,122076,千葉県,松戸市,35.816486,139.949493,047-312-0677,047-312-0678,270-0021,松戸市小金原7-18-30,月・火・第1.3.4.5木・金8:30~18:30 第2木・水8:30~16:30 土8:30~12:30,有,047-312-0677,
ファ-コス薬局小金原,122076,千葉県,松戸市,35.818871,139.944809,047-340-1914,047-340-1945,270-0021,松戸市小金原6-5-20,月~土:9:00~17:30,有,047-340-1914,
薬局マツモトキヨシ小金原店,122076,千葉県,松戸市,35.818871,139.944809,047-349-5200,047-349-5200,270-0021,松戸市小金原6-5-1,月・水~金9:00~18:00 火・土9:00~17:00,有,080-8778-4017,
友愛薬局くりがさわ店,122076,千葉県,松戸市,35.811665,139.95462,047-382-6035,047-382-6036,270-0022,松戸市栗ヶ沢777-23,月~土9:00~17:30 ,無,,
わかば薬局八ヶ崎,122076,千葉県,松戸市,35.808468,139.932526,047-700-5026,047-312-0525,270-0023,松戸市八ケ崎6-56-42,月~水・金9:00~18:00 木9:00~17:00 土9:00~13:00,有,070-8345-5110,
調剤薬局マツモトキヨシ八ヶ崎店,122076,千葉県,松戸市,35.81192,139.930069,047-312-0277,047-312-0278,270-0023,松戸市八ケ崎7丁目32-11 プチモンド八ケ崎1-B,月~土9:00~18:00,無,,
ハ-ト調剤薬局馬橋店,122076,千葉県,松戸市,35.806686,139.923798,047-701-7805,047-701-7806,270-0025,松戸市中和倉151-2,月・水・金8:30~18:00 火・木8:30~16:30 土8:30~12:30 日9:30~12:30,有,047-701-7805,
アイン薬局新松戸店,122076,千葉県,松戸市,35.827141,139.916107,047-710-9903,047-710-9904,270-0034,松戸市新松戸4-141-1,月~金9:00~18:00 土9:00~13:00,無,,
うさぎ薬局新松戸店,122076,千葉県,松戸市,35.827984,139.920517,047-374-6651,047-374-6652,270-0034,松戸市新松戸1-410-2,月~金9:00~18:00土9:00~14:00,無,,
ひいらぎ薬局,122076,千葉県,松戸市,35.825104,139.919067,047-349-6801,047-349-6802,270-0034,松戸市新松戸4-1,月~水・金9:00~17:00 木9:00~18:30 土9:00~16:00,有,090-7812-3207,
田辺薬局新松戸西店,122076,千葉県,松戸市,35.825378,139.910934,047-312-1355,047-312-1356,270-0034,松戸市新松戸6-39,月~金9:00~18:00土9:00~13:00日・祝休み,無,,
日本調剤新松戸薬局,122076,千葉県,松戸市,35.827984,139.920517,047-309-3751,047-309-3752,270-0034,松戸市新松戸1-407 岡本ビル1階,月~金9:00~18:00 土9:00~14:00,有,090-1694-7136,
薬局メディクス新松戸南店,122076,千葉県,松戸市,35.823692,139.91449,047-309-4701,047-309-4703,270-0034,松戸市新松戸3-282 リリ-フパ-トナ-ズ101,月~水・金9:00~19:00 木・土9:00~18:00,有,070-5586-3369,
イオンフ-ドスタイル新松戸店薬局,122076,千葉県,松戸市,35.825249,139.916031,047-301-1498,047-301-2115,270-0034,松戸市新松戸3-2-2,月~金9:30~19:30 土9:30~18:30,無,,
共創未来新松戸薬局,122076,千葉県,松戸市,35.827984,139.920517,047-348-2237,047-348-2126,270-0034,松戸市新松戸1-411,月~金9:00~18:00 土9:00~14:00,有,080-2047-6468,
調剤薬局マツモトキヨシ新松戸3丁目店,122076,千葉県,松戸市,35.824078,139.916031,047-309-2220,047-340-3381,270-0034,松戸市新松戸3-135,月~金7:30~18:30 第1水9:00~18:30 土7:30~13:00,無,,
ドラッグセイムス運河薬局,122203,千葉県,流山市,35.913425,139.90564,04-7197-4866,04-7197-4868,270-0101,流山市東深井383-1,月~金9:00~19:00 土9:00~18:00,有,04-7197-4866,
三幸薬局,122203,千葉県,流山市,35.90033,139.907959,04-7178-3393,04-7178-3394,270-0111,流山市江戸川台2-315-2,月~金9:00~18:00 土9:00~13:30,有,080-9582-1288,
江戸川台薬局,122203,千葉県,流山市,35.896996,139.909988,04-7178-2851,04-7178-2852,270-0115,流山市江戸川台西2-141,月~金9:00~17:30 土9:00~13:00,有,04-7186-7080,
はからめ薬局,122203,千葉県,流山市,35.896759,139.901428,04-7154-7515,04-7154-7516,270-0116,流山市中野久木511-9,月・火・木・金 9:00~18:30 水 9:00~17:00 土 9:00~18:00,有,04-7154-7515,
そうごう薬局流山おおたかの森北口店,122203,千葉県,流山市,35.874325,139.924454,047-199-4891,047-199-4892,270-0119,流山市おおたかの森北1-4-1 ソライエスクエア1階,月~日9:00~18:00 祝日休,有,047-199-4891,
まえの薬局おおたかの森,122203,千葉県,流山市,35.877682,139.927216,04-7197-1006,04-7197-1014,270-0119,流山市おおたかの森北3-2-16,月・火・木・金9:00~18:30 水・土9:00~17:00,無,,
みそら薬局,122203,千葉県,流山市,35.876717,139.928101,04-7156-0177,04-7156-0178,270-0119,流山市おおたかの森北1-17-20,月8:30~18:00/火8:30~18:00/水8:30~17:30/木8:30~18:00/金8:30~18:00/土8:30~17:00,有,090-8319-6002,
ウエルシア薬局流山西初石店,122203,千葉県,流山市,35.884319,139.915085,04-7156-6570,04-7156-6571,270-0121,流山市西初石3-12-5,月~土9:00~19:00,無,,
雄飛堂薬局流山初石店,122203,千葉県,流山市,35.882748,139.916489,04-7186-6650,04-7186-6658,270-0121,流山市西初石3-354-1 初石メディカルモ-ル104,月~土8:30~18:00,無,,
わかば薬局,122203,千葉県,流山市,35.868687,139.902237,04-7159-8502,04-7150-2848,270-0124,流山市下花輪409-11,月~金9:00~17:30 土9:00~13:00,無,,
ウエルシア薬局流山おおたかの森店,122203,千葉県,流山市,35.874325,139.919632,047-178-2889,047-178-2888,270-0128,流山市おおたかの森西4-9,9:00~24:00,無,,
薬ヒグチ薬局流山おおたかの森店,122203,千葉県,流山市,35.87191,139.924286,04-7186-7982,04-7186-7983,270-0128,流山市おおたかの森西1-2-3,月~日・祝10:00~19:00,無,,
薬局タカサ流山おおたかの森店,122203,千葉県,流山市,35.870926,139.921585,0471-37-9655,0471-37-9658,270-0128,流山市おおたかの森西1-30-1,月~水・金9:30~18:30 土9:30~13:30,有,0471-37-9655,
ウエルシア薬局 流山おおたかの森店,122203,千葉県,流山市,35.874325,139.919632,04-7178-2889,04-7178-2888,270-0128,流山市おおたかの森西4-9,全日9:00~22:00,有,080-4932-6640,
ウエルシア薬局 流山おおたかの森店,122203,千葉県,流山市,35.874325,139.919632,04-7178-2889,04-7178-2888,270-0128,流山市おおたかの森西4-9,全日9:00~22:00,有,080-4932-6640,
ウエルシア薬局流山野々下店,122203,千葉県,流山市,35.862381,139.938248,04-7141-7030,04-7141-7031,270-0135,流山市野々下3-756-1,月~土9:00~20:00,有,080-3482-9436,
はまなす薬局流山おおたかの森,122203,千葉県,流山市,35.861637,139.919266,04-7197-6543,04-7197-6553,270-0137,流山市市野谷519-1 (運A80街区8),月・火・水・金9:00~18:30 木9:00~17:00 土9:00~13:00,有,04-7197-6543,
アイセイ薬局おおたかの森店,122203,千葉県,流山市,35.864628,139.92041,04-7159-5015,04-7157-9550,270-0139,流山市おおたかの森南3-8LEVENおおたかの森アネックス棟2F,月、金:9:00~17:00、火、水、木:9:00~17:30、土:9:00~16:30、日:9:00~12:30,有,04-7159-5015,
そうごう薬局流山おおたかの森店,122203,千葉県,流山市,35.870209,139.924179,04-7197-5871,04-7197-5872,270-0139,流山市おおたかの森南1-4-11 ウエルスおおたかの森1階,月・水・金9:00~19:00 火・木9:00~20:00 土9:00~13:30,無,,
はなまる薬局おおたかの森南口店,122203,千葉県,流山市,35.865112,139.921997,04-7150-2283,04-7157-6866,270-0139,流山市おおたかの森南2-34-1Kおおたかの森ビル1F,月~金:9:00~18:00、土:9:00~17:00,有,04-7150-2283,
薬局おおたかの森フォレスト,122203,千葉県,流山市,35.869091,139.923248,04-7178-8711,04-7178-8712,270-0139,流山市おおたかの森南1-25-2K-2,月~水・金9:00~17:30 土9:00~12:00 祝日はお休み 不定期のお休みあり,無,,
オシベ薬局,122203,千葉県,流山市,35.846569,139.945786,04-7144-6966,04-7142-7128,270-0141,流山市松ケ丘4-514-209,月~土9:30~19:00,無,,
松ヶ丘公園薬局,122203,千葉県,流山市,35.847412,139.946732,04-7197-7484,04-7197-7483,270-0141,流山市松ケ丘4-495-4-101,月~金9:00~18:00 土9:00~13:00,有,04-7197-7484,
ウエルシア薬局 流山向小金店,122203,千葉県,流山市,35.856285,139.902588,04-7175-3705,04-7175-3706,270-0143,流山向小金2-184-5,月~金 9:00~14:00、15:00~20:00土 9:00~14:00,無,,
ハ-ブランド薬局三ツ葉店,122203,千葉県,流山市,35.847134,139.939514,04-7141-3008,04-7141-3090,270-0145,流山市名都借300-5,月~土9:00~18:00,有,070-1279-2471,
ハ-ブランド薬局セントラルパ-ク店,122203,千葉県,流山市,35.855881,139.916229,04-7157-8200,04-7157-8800,270-0151,流山市後平井165,月~金9:00~18:00土9:00~13:00,有,080-8835-3606,
わかば薬局パ-クビュ-,122203,千葉県,流山市,35.854198,139.915009,04-7128-9861,04-7128-9862,270-0152,流山市前平井154-1,月~金9:00~17:00 土9:00~13:00 日9:00~16:30,有,04-7186-7080,
わかば薬局中央店,122203,千葉県,流山市,35.854198,139.915009,04-7186-6111,04-7186-6112,270-0152,流山市前平井155,月~金9:00~18:00 土9:00~16:00,有,04-7186-7080,
薬局ハカラメディコ,122203,千葉県,流山市,35.85466,139.916046,04-7197-7112,04-7197-7113,270-0152,流山市前平井177-1 プロシ-ドTX流山セントラルパ-ク0001,月~土9:00~17:30,有,04-7197-7112,
ウエルシア薬局流山西平井店,122203,千葉県,流山市,35.848446,139.908997,04-7150-2602,04-7150-2603,270-0156,流山市西平井1-31-15,月~土9:00~20:00,有,080-7247-2429,
みずき薬局 平和台店,122203,千葉県,流山市,35.853512,139.905334,04-7157-7137,04-7157-7138,270-0157,流山市平和台4-5-43,月~金9:00~18:30 土9:00~12:30,有,04-7157-7137,
アオノ薬局南流山店,122203,千葉県,流山市,35.837452,139.903854,04-7199-7297,04-7199-7298,270-0163,流山市南流山2-4-3-102,月~金9:30~19:30土9:30~18:30日・祝休み,無,,
そうごう薬局南流山店,122203,千葉県,流山市,35.837894,139.906448,04-7137-7561,04-7137-7562,270-0163,流山市南流山9-16-2 ヤオコ-南流山店2階,月・金9:00~17:00 火~木・土・日9:00~18:00第1日曜9:00~13:00 祝日お休み,無,,
たから薬局南流山店,122203,千葉県,流山市,35.837452,139.903854,04-7138-5016,04-7138-5026,270-0163,流山市南流山2-4-7 Grandjour1FA号室,月~水・金9:00~18:30 木9:00~17:00 土9:00~18:00,無,,
たんぽぽ薬局,122203,千葉県,流山市,35.837872,139.906525,047-158-7170,047-158-7170,270-0163,流山市南流山1-18-2,月~木9:30~13:15・14:30~19:15 土9:30~13:15・13:30~17:15,無,,
南山堂薬局南流山店,122203,千葉県,流山市,35.839378,139.903931,04-7150-5331,04-7150-5333,270-0163,流山市南流山4-1-15 南流山駅前ビル1F,月・火・木・金9:00~19:00水9:00~17:00土9:00~15:00日・祝休み,無,,
薬局ふろっぐ,122203,千葉県,流山市,35.839432,139.906876,04-7157-8655,04-7157-8656,270-0163,流山市南流山1-14-7,月・火・木・日9:00~18:00 水・金9:00~20:00,有,04-7157-8655,
ドラッグセイムス南流山薬局,122203,千葉県,流山市,35.837921,139.90274,04-7158-6871,04-7140-7177,270-0163,流山市南流山2-2-7,月~金9:00~20:00 土・日9:00~18:00,無,,
ひろこうじ薬局,122203,千葉県,流山市,35.849094,139.899445,04-7158-2115,04-7158-2115,270-0164,流山市流山9-800-2,月~金10:00~18:00 土10:00~15:00,無,,
さくら薬局関宿店,122084,千葉県,野田市,36.055412,139.802902,04-7196-4567,04-7196-4568,270-0215,野田市中戸7-3,月~土9:00~17:30,無,,
ヤックスドラッグ関宿薬局,122084,千葉県,野田市,36.019218,139.827194,04-7120-6655,04-7120-6657,270-0222,野田市木間ケ瀬4934-1,月~土9:00~13:00・14:00~18:00,無,,
オヌマ薬局木間ケ瀬店,122084,千葉県,野田市,36.019882,139.84491,04-7198-0255,04-7198-5180,270-0222,野田市木間ケ瀬4015,月~土10:00~18:00,無,,
島田薬局,122084,千葉県,野田市,35.986374,139.840378,04-7129-5554,04-7127-4888,270-0234,野田市日の出町19-15,月~土10:00~19:30,有,04-7129-5554,
オリ-ブ薬局野田店,122084,千葉県,野田市,36.000061,139.849045,04-7189-7081,04-7189-7082,270-0237,野田市中里1564-7,月~土9:00~18:00,無,,
薬樹薬局野田,122084,千葉県,野田市,36.000061,139.849045,04-7129-0300,04-7129-0285,270-0237,野田市中里1564-5,月~土9:00~18:00,有,04-7129-0300,
アイセイ薬局布佐店,122220,千葉県,我孫子市,35.863403,140.116776,04-7136-7071,04-7136-7072,270-1101,我孫子市布佐834,月~土9:00~18:00 第1.3.5日曜9:00~17:00,有,04-7136-7071,
あさひ薬局,122220,千葉県,我孫子市,35.847584,140.137314,047-181-6507,047-181-6508,270-1101,我孫子市布佐2925-6,月~金8:30~19:00 土8:30~17:00,無,,
さくら薬局新木店,122220,千葉県,我孫子市,35.863403,140.116776,04-7181-6088,04-7189-6007,270-1101,我孫子市布佐834-179,月~土9:00~17:30 第2.4日9:00~17:00,無,,
そうごう薬局ふさ店,122220,千葉県,我孫子市,35.851475,140.131119,04-7189-0381,04-7189-0382,270-1101,我孫子市布佐2202-7,月・火・木・金9:00~19:00 水・土9:00~17:00,有,04-7189-0381,
布佐マル薬局,122220,千葉県,我孫子市,35.850628,140.138809,04-7181-6677,04-7181-6678,270-1101,我孫子市布佐3078-1,月~金9:00~18:30 土9:00~13:30,無,,
ヤックスドラッグ我孫子薬局,122220,千葉県,我孫子市,35.864731,140.093719,04-7179-3572,04-7179-3573,270-1112,我孫子市新木2651-1,月~土9:00~12:00,無,,
ゆいのはな薬局湖北台店,122220,千葉県,我孫子市,35.865055,140.072235,04-7196-7523,04-7196-7524,270-1132,我孫子市湖北台8-7-5,月・火・木~土9:00~13:00・14:00~18:00,無,,
湖北台タカダ薬局,122220,千葉県,我孫子市,35.86668,140.077942,04-7188-9050,04-7188-9077,270-1132,我孫子市湖北台1-1-13,月~金9:00~18:00 土9:00~17:00,無,,
けやき通り薬局,122220,千葉県,我孫子市,35.865204,140.068634,04-7187-7577,04-7187-7567,270-1132,我孫子市湖北台8-18-15,月・火・木・金8:30~17:00 水8:30~16:30 土8:30~16:00,有,04-7187-7577,
ウエルシア薬局我孫子下ヶ戸店,122220,千葉県,我孫子市,35.870564,140.052292,04-7165-2015,04-7165-2016,270-1138,我孫子市下ケ戸478-1,月~土9:00~14:00・15:00~19:00日・祝休み,無,,
薬局くすりの福太郎天王台店,122220,千葉県,我孫子市,35.871841,140.043503,04-7183-3387,04-7183-3387,270-1143,我孫子市天王台2-10-7ロイヤルパレス天王台104,月~金9:00~19:00土9:00~15:00日・祝休み,無,,
ウエルシア薬局我孫子若松店,122220,千葉県,我孫子市,35.866158,140.018768,04-7181-8820,04-7181-8821,270-1147,我孫子市若松102,月~土9:00~24:00,有,04-7181-8820,
あびこ本町薬局,122220,千葉県,我孫子市,35.871128,140.010971,04-7182-8608,04-7181-8608,270-1151,我孫子市本町2-6-3アキモトビル1F-A,月~水・金9:00~18:30木9:00~18:00土9:00~12:30,有,090-1051-6223,
さくら薬局我孫子駅前店,122220,千葉県,我孫子市,35.871731,140.010529,04-7186-3070,04-7186-6602,270-1151,我孫子市本町2-4-15 弥生ビル1F,月~日9:00~18:00,有,04-7186-3070,
アイン薬局我孫子店,122220,千葉県,我孫子市,35.876648,140.02594,04-7136-1493,04-7136-1495,270-1166,我孫子市我孫子字並塚1860-4,月~金8:30~18:00 土8:30~14:00,有,04-7136-1493,
あびこマル薬局,122220,千葉県,我孫子市,35.875633,140.014832,04-7179-6611,04-7179-6612,270-1166,我孫子市我孫子4-43-16,月・火・木・金8:30~18:00 水8:30~16:30 土8:30~16:00,無,,
あゆみ薬局,122220,千葉県,我孫子市,35.875523,140.009964,04-7165-5100,04-7165-5101,270-1166,我孫子市我孫子4-3-20,月~土9:00~18:30日9:00~13:00祝休み,無,,
日本調剤我孫子薬局,122220,千葉県,我孫子市,35.867424,140.027115,04-7184-8836,04-7184-8961,270-1166,我孫子市我孫子1843-3,月~金9:00~18:00土9:00~13:00日・祝休み,有,090-1037-2087,
薬局ナチュラル・メディクス我孫子店,122220,千葉県,我孫子市,35.873173,140.014816,04-7157-3362,04-7157-3368,270-1166,我孫子市我孫子1-17-22,月・火・木・金9:00~18:00 土・第2.4日9:00~14:00,無,,
薬局メディクス我孫子店,122220,千葉県,我孫子市,35.873337,140.010941,04-7181-8700,04-7181-8702,270-1166,我孫子市我孫子1-1-22 アラベスクビル1階,月~金9:00~18:00 土9:00~17:00 日9:00~13:00,有,070-6641-9060,
あすか薬局我孫子店,122220,千葉県,我孫子市,35.880878,140.001343,04-7185-8331,04-7185-8317,270-1168,我孫子市根戸字堀尻943-6,月~土9:00~18:00,有,090-8816-8069,
北柏マル薬局,122220,千葉県,我孫子市,35.878544,139.993805,04-7181-0071,04-7181-0072,270-1168,我孫子市根戸1747-1,月・火・木・金8:30~18:00 土8:30~13:30,無,,
クオ-ル薬局天王台店,122220,千葉県,我孫子市,35.872662,140.043625,04-7165-6289,0120-112-364,270-1176,我孫子市柴崎台1-18-34,月~土8:40~17:30,無,,
けやき天王台薬局,122220,千葉県,我孫子市,35.874268,140.039505,04-7181-0006,04-7199-2528,270-1176,我孫子市柴崎台2-1-7,月、火、水、金9:00-17:00木9:00-19:00 土9:00-12:30,無,,
柴崎薬局,122220,千葉県,我孫子市,35.875889,140.051086,04-7182-1161,04-7182-1162,270-1177,我孫子市柴崎1299-14,月~土9:00~17:30,有,04-7182-1161,
コスモス薬局 印西店,122319,千葉県,印西市,35.831985,140.193268,0476-97-3331,0476-97-3330,270-1313,印西市小林北2-5-17,月・火・木・金9:00~19:00 水9:00~17:00 土9:00~13:00,有,090-7836-3264,
サンリツ薬局印西店,122319,千葉県,印西市,35.835114,140.145599,0476-40-2811,0476-40-2812,270-1327,印西市大森2550-11,月~土9:00~18:00,無,,
いちのみや薬局印西店,122319,千葉県,印西市,35.804577,140.143631,0476-36-8866,0476-29-5220,270-1334,印西市西の原5-12-1,月~金9:00~18:00 土9:00~14:00,有,0476-36-8866(転送),
あやめ薬局西の原店,122319,千葉県,印西市,35.802189,140.153183,0476-37-8539,0476-46-8593,270-1334,印西市西の原3-12-2,月~水・金9:00~18:30 木9:00~17:00 土9:00~17:40,有,0476-37-8539,
そうごう薬局印西牧の原店,122319,千葉県,印西市,35.803074,140.164886,0476-33-7621,0476-33-7622,270-1335,印西市原1-2 ビッグホップガ-デンモ-ル印西,月・火・金9:00~19:00 水9:00~18:00 木・土9:00~17:00 日10:00~13:00,無,,
五十嵐薬局牧の原店,122319,千葉県,印西市,35.799274,140.162216,0476-40-6206,0476-40-6207,270-1335,印西市原4-3-2,月・火・木~土8:30~17:00 水9:00~17:00,無,,
ロ-ズ薬局,122319,千葉県,印西市,35.797993,140.162796,0476-37-8627,0476-37-8628,270-1337,印西市草深2220-32,月~水・金9:00~12:30・15:00~18:30 土9:00~13:00,無,,
薬局タカサくすり専科千葉ニュ-タウン店,122319,千葉県,印西市,35.798599,140.117126,0476-29-4705,0476-29-4706,270-1340,印西市中央南1-8 千葉ニュ-タウン中央駅前センタ-ビル1階,月~日9:00~21:00,無,,
ひまわり薬局 高花店,122319,千葉県,印西市,35.794441,140.133453,0476-48-4550,0476-48-4552,270-1342,印西市高花5-5-9,月・火・木9:00~18:30 水・金・土9:00~17:00,有,090-4528-9894,
サンハルク(株)フラワ-薬局千葉ニュ-タウン中央店,122319,千葉県,印西市,35.801331,140.114548,0476-36-5222,0476-36-5223,270-1350,印西市中央北2-1-3 サンクタス千葉ニュ-タウン中央区画B,月・火・金9:00~20:00 水・木9:00~19:30 土9:00~17:30,無,,
ヤックスドラッグ白井薬局,122327,千葉県,白井市,35.793571,140.02774,047-407-2644,047-407-2645,270-1408,白井市西白井1-19-26,月~土9:00~13:00・14:00~18:00,無,,
ウエルシア薬局白井十余一店,122327,千葉県,白井市,35.808411,140.099335,047-498-3577,047-498-3587,270-1411,白井市十余一50-5,月~土9:00~19:00 日・祝休み,有,047-498-3577,
健栄 さくら台薬局,122327,千葉県,白井市,35.799152,140.106445,047-498-1160,047-498-1161,270-1412,白井市桜台2丁目5-2,月~水・金9:00~18:30 木土9:00~17:00,有,070-4397-7979,
ピュア薬局白井店,122327,千葉県,白井市,35.79435,140.059998,047-404-1885,047-404-1886,270-1422,白井市復1441-1,月・水~日9:00~17:30,無,,
ポラン薬局,122327,千葉県,白井市,35.78574,140.05307,047-436-8565,047-436-8566,270-1426,白井市笹塚2-2-2 コスモビル101,月~水・金9:00~18:30 木9:00~17:00 土9:00~13:30,有,080-6863-9178,
アイン薬局西白井店,122327,千葉県,白井市,35.795601,140.037369,047-497-6166,047-497-6167,270-1431,白井市根1778-8,月~水・金9:00~18:30 木9:00~17:00 土9:00~13:00,無,,
あけぼの薬局西白井店,122327,千葉県,白井市,35.781219,140.026611,047-498-1189,047-498-4189,270-1431,白井市根1970-1-1,月~金9:00~18:00 土9:00~1400,有,047-498-1189,
ささのは薬局,122327,千葉県,白井市,35.788864,140.052567,047-498-0088,047-498-3733,270-1431,白井市根120-48,月~水・金8:30~18:30 木:9:00~17:00 土8:30~12:30,無,,
レモン薬局 白井店,122327,千葉県,白井市,35.773212,140.038803,047-402-2524,047-402-2529,270-1431,白井市根268-7,月~金9:00~18:00土9:00~12:00,有,080-2451-3509,
薬樹薬局白井,122327,千葉県,白井市,35.791714,140.053284,047-492-3001,047-492-3002,270-1431,白井市根479-21,月~土9:00~18:00,無,,
アイセイ薬局白井店,122327,千葉県,白井市,35.766941,140.017242,047-441-3070,047-441-3071,270-1432,白井市冨士129-28,月・火・水・金9:00~19:00 水・土9:00~17:00,有,047-441-3070,
調剤薬局マツモトキヨシ西白井駅前店,122327,千葉県,白井市,35.785782,140.031052,047-498-0015,047-492-8821,270-1435,白井市清水口1-1-25 西白井駅前セントラルビル1F,月~土9:00~21:30 祝日13:00~21:30,有,080-8759-7496,
ウエルシア薬局西白井店,122327,千葉県,白井市,35.785782,140.031052,047-492-2911,047-492-2912,270-1435,白井市清水口1-1-26,月~土9:00~20:00,有,047-492-2911,
ヤックスドラッグ安食薬局,123293,千葉県,印旛郡栄町,35.842228,140.24675,0476-37-3027,0476-37-3028,270-1516,印旛郡栄町安食947-5,月~土9:00~13:00・14:00~18:00,無,,
栄町薬局,123293,千葉県,印旛郡栄町,35.835342,140.248245,0476-95-8228,0476-95-8229,270-1516,印旛郡栄町安食2421-85,月~土9:00~17:00,有,0476-95-8228,
栄町薬局安食駅前店,123293,千葉県,印旛郡栄町,35.834118,140.240982,0476-80-2740,0476-80-2741,270-1516,印旛郡栄町安食2-3-9,月~土9:00~17:00,有,0476-80-2740,
ヤックスドラッグ印旛日本医大駅前薬局,122319,千葉県,印西市,35.783424,140.202621,0476-80-3551,0476-80-3552,270-1608,印西市舞姫1-5-1,月~土9:00~18:00,有,0476-80-3551,
アイン薬局日本医大北総店,122319,千葉県,印西市,35.78017,140.196228,0476-85-6966,0476-85-6967,270-1613,印西市鎌苅1715,月~日24時間営業,無,,
イントロン薬局松戸店,122076,千葉県,松戸市,35.797615,139.984009,047-382-6464,047-382-6463,270-2203,松戸市六高台7-28-1,月~金9:00~18:00 土9:00~12:30,無,,
ウエルシア薬局松戸六高台店,122076,千葉県,松戸市,35.797882,139.983429,047-394-5288,047-394-5467,270-2203,松戸市六高台7-20-1,月~土9:00~20:00 日・祝10:00~13:00・14:00~20:00,無,,
ウエルシア松戸元山薬局,122076,千葉県,松戸市,35.791237,139.97377,047-706-2413,047-385-2410,270-2212,松戸市五香南1-1-5,月~土9:00~21:00 日祝9:00~12:00・13:00~21:00,無,,
アイン薬局五香店,122076,千葉県,松戸市,35.796268,139.980667,047-394-1193,047-394-1195,270-2213,松戸市五香8-39-5,月~金9:00~18:00 土9:00~14:30,無,,
ウエルシア薬局松戸五香店,122076,千葉県,松戸市,35.793766,139.980362,047-311-8035,047-311-8028,270-2213,松戸市五香4-21-1,月~土9:00~21:00 日9:00~13:00・14:00~19:00 祝日9:00~19:00,有,070-6432-8617,
ウエルシア薬局松戸五香西店,122076,千葉県,松戸市,35.790863,139.965469,047-394-0532,047-394-0533,270-2218,松戸市五香西2-37-1,月~金9:00-20:00 土10:00~20:00 日9:00~13:00 祝10:00~1400・15:00~20:00,無,,
ウエルシア松戸高塚薬局,122076,千葉県,松戸市,35.755226,139.938751,047-312-7775,047-312-7776,270-2222,松戸市高塚新田232,月~土9:00~21:00 日祝9:00~14:00・15:00~18:00,無,,
ウエルシア薬局松戸高塚2号店,122076,千葉県,松戸市,35.755226,139.938751,047-392-5805,047-392-5806,270-2222,松戸市高塚新田251-12,月~土9:00~20:00,無,,
友愛薬局東松戸店,122076,千葉県,松戸市,35.756802,139.942917,047-382-6670,043-382-6675,270-2222,松戸市高塚新田123-16,月~金9:00~18:00土9:00~13:00,有,080-4082-2511,
梨香台薬局,122076,千葉県,松戸市,35.760841,139.933136,047-330-9477,047-330-9050,270-2223,松戸市高塚新田488-48,月~金8:30~18:00 土8:30~17:00,有,070-1074-3995,
秋山薬局,122076,千葉県,松戸市,35.766544,139.927673,047-312-7338,047-312-7338,270-2223,松戸市秋山68-17,月~土9:00~19:00,無,,
竹内薬局松戸店,122076,千葉県,松戸市,35.765884,139.910721,047-362-8961,047-362-8962,270-2224,松戸市大橋416-2,月~金:9:00~17:30、土:9:00~13:00,有,080-1108-3132,
ハ-ブランド薬局東松戸店,122076,千葉県,松戸市,35.769764,139.941513,047-312-8787,047-312-8788,270-2225,松戸市東松戸3-7-19,月~土9:00~18:00日休み,無,,
ゆいのはな薬局東松戸店,122076,千葉県,松戸市,35.770348,139.94313,047-375-8562,047-375-8363,270-2225,松戸市東松戸3-1-2 MILIEUBLANCHE1-A,月~水・金8:50~13:30・14:30~18:00 木8:50~17:00 土8:50~13:00,有,090-6923-2218,
薬局くすりの福太郎東松戸店,122076,千葉県,松戸市,35.770954,139.946182,047-711-9570,047-711-9570,270-2225,松戸市東松戸2-5-1,月・火・木・金9:00~18:00水・土9:00~13:00,無,,
リズム薬局東松戸店,122076,千葉県,松戸市,35.771286,139.943253,047-392-9811,047-392-9810,270-2225,松戸市東松戸3-2-1 アルフレンテ307,月~水・金9:00~19:00 木11:00~19:00 土9:00~13:00,有,090-1558-0028,
薬局タカサ松戸店,122076,千葉県,松戸市,35.777645,139.912537,047-703-3345,047-364-0148,270-2241,松戸市松戸新田21-58,月~水・金9:00~18:00 土9:00~13:00,有,047-703-3345,
薬局トモズグリ-ンマ-クシティ松戸新田店,122076,千葉県,松戸市,35.791653,139.920868,047-330-2201,047-330-2202,270-2241,松戸市松戸新田245-26,月9:30~19:30/火9:30~19:30/水9:30~19:30/木9:30~19:30/金9:30~19:30/土9:30~19:30/日9:30~19:30,nan,,
アイン薬局千葉西店,122076,千葉県,松戸市,35.803265,139.945068,047-700-5891,047-700-5892,270-2251,松戸市金ケ作89-5,月~金9:00~19:00 土9:00~14:00,有,047-700-5891,
オハナ薬局千葉西店,122076,千葉県,松戸市,35.804928,139.944901,047-700-5377,047-700-5378,270-2251,松戸市金ケ作93-3,月~金9:00~19:00 土9:00~14:00 第1第2日.祝10:00~17:00 年末年始・ゴ-ルデンウィ-クは不定期,無,,
ファ-コス薬局しいの木西,122076,千葉県,松戸市,35.803265,139.945068,0473112261,0473112262,270-2251,松戸市金ケ作88-6,月-金 9:00-19:00 土 9:00-13:00,有,0473112261,
友愛薬局金ヶ作店,122076,千葉県,松戸市,35.799583,139.965332,047-710-0199,047-710-7066,270-2251,松戸市金ヶ作408-169,月・火・木・金9:00~18:30 水・土9:00~17:00,無,,
アオイ薬局,122076,千葉県,松戸市,35.801975,139.932526,047-343-3333,047-343-3332,270-2252,松戸市千駄堀1018-1,月~金8:45~18:00 土9:00~12:00,有,090-3087-0044,
ヤックスドラッグ八柱薬局,122076,千葉県,松戸市,35.793476,139.936111,047-710-7291,047-710-7292,270-2252,松戸市千駄堀1487-3,月~土10:00~13:00・14:00~19:00 祝日除く,無,,
薬局マツモトキヨシ松戸千駄堀店,122076,千葉県,松戸市,35.799328,139.934204,047-349-2340,047-349-2340,270-2252,松戸市千駄堀1843,月~金9:00~18:00 土9:00~13:00,無,,
友愛薬局松戸センタ-店,122076,千葉県,松戸市,35.802887,139.930893,047-712-2771,047-712-2772,270-2252,松戸市千駄堀1083-1,月~金9:00~18:00,無,,
アイセイ薬局八柱店,122076,千葉県,松戸市,35.792171,139.937164,047-384-6525,047-384-6583,270-2253,松戸市日暮2-3-15,月~金8:30~19:00土8:30~13:30日・祝休み,無,,
サンハルク株式会社フラワ-薬局八柱駅前店,122076,千葉県,松戸市,35.791691,139.938019,047-711-8241,047-711-8242,270-2253,松戸市日暮1-17-1,月・火・木・金9:00~19:30 水9:00~17:00 土9:00~13:00,有,070-1217-6593,
薬局おくすり本舗八柱店,122076,千葉県,松戸市,35.790844,139.937988,047-710-7128,047-710-7156,270-2253,松戸市日暮1-16-2 M-PARTIII日暮ビル1F,月~金9:00~18:00 土9:00~12:00,有,090-8035-1461,
からたち薬局,122076,千葉県,松戸市,35.7864,139.945557,047-710-2785,047-710-2232,270-2254,松戸市河原塚411-1,月~金9:00~18:00 土9:00~13:00,有,070-5459-4462,
あやめ薬局常盤平店,122076,千葉県,松戸市,35.79789,139.956909,047-382-6085,047-311-5085,270-2261,松戸市常盤平6-1-18,月~金9:00~17:30 土9:00~13:00,有,070-5519-9872,
ウエルシア松戸牧の原薬局,122076,千葉県,松戸市,35.793774,139.956879,047-709-3841,047-311-0115,270-2261,松戸市常盤平6-28-7,月~金9:00 ~20:00 土10:00~20:00 日10:00~14:00・15:00~20:00,有,080-3364-5949,
ウエルシア薬局常盤平店,122076,千葉県,松戸市,35.801765,139.95932,047-394-6462,047-394-6461,270-2261,松戸市常盤平4-8-19,月~金9:00~20:00 土10:00~20:00 日10:00~15:00,無,,
そうごう薬局五香店,122076,千葉県,松戸市,35.797722,139.9646,047-704-6701,047-704-6702,270-2261,松戸市常盤平5-12-6 第1泉ビル1階,月~金9:00~18:00 土9:00~13:00,有,047-704-6701,
ファ-コス薬局しいの木,122076,千葉県,松戸市,35.803425,139.94902,047-394-5255,047-386-3921,270-2261,松戸市常盤平1-11-9グランメ-ル常盤平1階,月9:00-19:00 火-金9:00-18:00 土9:00-12:30,有,090-5214-8967,
ファ-コス薬局さくらの木,122076,千葉県,松戸市,35.798656,139.964066,047-389-9720,047-385-4446,270-2261,松戸市常盤平5-8-12,月・火9:00~18:30 水・金9:00~18:00 土9:00~13:00,有,090-4937-7809,
ユニスマイル薬局常磐平団地店,122076,千葉県,松戸市,35.79789,139.956909,0473892249,0473892143,270-2261,松戸市常盤平6-1-15,月~金→9時~17時 土→9時~14時,有,047-389-2249,
薬局くすりの福太郎常盤平店,122076,千葉県,松戸市,35.803425,139.94902,047-701-7485,047-701-7485,270-2261,松戸市常盤平1-11-9,月~金9:00~19:00土9:00~13:00日・祝休み,無,,
五香薬局,122076,千葉県,松戸市,35.796822,139.963638,047-385-0260,047-385-0276,270-2261,松戸市常盤平5-17-15,月~金9:00~18:30土9:00~15:30,有,047-385-0260,
薬局マツモトキヨシ五香駅前通り店,122076,千葉県,松戸市,35.796822,139.963638,047-383-7322,047-383-7322,270-2261,松戸市常盤平5-17-7,月~土9:00~20:00,有,080-8775-0083,
友愛薬局常盤平店,122076,千葉県,松戸市,35.799725,139.950073,047-394-6001,047-394-7887,270-2261,松戸市常盤平2-24-2 常盤平団地A-2,月~金9:00~18:00 土9:00~13:00,有,080-8732-4441,
ファ-コス薬局にしくぼ,122076,千葉県,松戸市,35.798458,139.944901,047-394-1700,047-387-2300,270-2266,松戸市常盤平西窪町13-2,月~水9:00~18:30 金~土9:00~18:30,無,,
友愛薬局牧の原店,122076,千葉県,松戸市,35.792442,139.950378,047-394-7800,047-394-7800,270-2267,松戸市牧の原1-19 ヴィラサンロ-ド牧の原A-101,月・火・金9:00~13:00・14:30~18:30 水・木・土9:00~17:00,無,,
アサヒ薬局竜腹寺店,122319,千葉県,印西市,35.806629,140.180695,0476-37-7707,0476-37-7706,270-2327,印西市竜腹寺349-5,月~金9:00~18:30 土9:00~17:00,有,070-4191-9279,
本八幡薬局,,,,35.720222,139.924286,047-704-9406,047-704-9405,271-0023,市川市南八幡5-11-11 1階,月~金9:00~18:00土9:00~13:00,有,047-704-9406(転送),郵便番号
友愛薬局馬橋店,122076,千葉県,松戸市,35.815704,139.90033,047-340-1600,047-340 -1601,271-0043,松戸市旭町1-137-1,月~金9:00~18:30 土9:00~13:30,有,090-2766-8633,
ウエルシア薬局馬橋駅西口店,122076,千葉県,松戸市,35.812668,139.915253,047-346-5531,047-346-5532,271-0046,松戸市西馬橋蔵元町6番地,月~土9:00~20:00,無,,
薬局オ-クファ-マシ-,122076,千葉県,松戸市,35.810787,139.915833,047-340-3017,047-340-3019,271-0047,松戸市西馬橋幸町13,月~金9:00~18:30 土9:00~17:30,有,080-1189-8739,
あさがお薬局馬橋店,122076,千葉県,松戸市,35.809143,139.918167,047-349-5454,047-349-5450,271-0051,松戸市馬橋1832-4,月~金9:00~18:00   土9:00~13:00,無,,
友愛薬局馬橋駅前店,122076,千葉県,松戸市,35.810677,139.916595,047-312-0162,047-344-0707,271-0051,松戸市馬橋179 馬橋ステ-ションモ-ル3階B-1,月~土9:00~18:00,有,090-3233-8957,
ことぶき薬局松戸店,122076,千葉県,松戸市,35.808212,139.905685,047-331-4801,047-331-4802,271-0062,松戸市栄町5-360-2 倉持コ-ポ,月~金9:00~19:00 土9:00~13:00,有,070-3625-6447,
くるみ薬局,122076,千葉県,松戸市,35.806816,139.906754,047-367-4628,047-367-7025,271-0062,松戸市栄町6-418-2,月~金9:30~18:00 土10:30~13:00,有,047-367-4628,
ハ-ト調剤薬局北松戸店,122076,千葉県,松戸市,35.802387,139.912079,047-331-3233,047-331-3234,271-0063,松戸市北松戸1-1-4,月9:00~18:30/火9:00~18:30/水9:00~18:30/木9:00~17:00/金9:00~18:30/土9:00~16:00,有,047-331-3233,
アイン薬局北松戸店,122076,千葉県,松戸市,35.800652,139.912735,047-710-0111,047-710-0112,271-0064,松戸市上本郷902-5 パ-クキュ-ブ北松戸1階,月・水~金9:00~18:00 火・第1.3土9:00~17:00 第2.4.5土9:00~12:00,有,047-710-0111,
オリ-ブ薬局,122076,千葉県,松戸市,35.790707,139.916977,047-360-2013,047-360-2014,271-0064,松戸市上本郷2672-9 上本郷駅ビル1階A-2号,月~金9:00~18:30 土9:00~13:00,無,,
薬局日本メディカルシステム北松戸店,122076,千葉県,松戸市,35.795715,139.918854,047-710-7891,047-710-7892,271-0064,松戸市上本郷4005-1,月~金8:45~18:30 土8:45~13:00,無,,
あい調剤薬局,122076,千葉県,松戸市,35.790707,139.916977,047-703-5207,047-703-5208,271-0064,松戸市上本郷2675-1 鳥海ビル101,月~金9:00~18:00 土9:00~13:00,有,090-1203-4987,
北松戸薬局,122076,千葉県,松戸市,35.799191,139.910858,047-363-5821,047-323-6183,271-0064,松戸市上本郷437,月~水・金9:00~19:00 木・土9:00~1700,有,080-7647-1367,
ウエルシア薬局松戸樋野口店,122076,千葉県,松戸市,35.789806,139.896179,047-308-2145,047-308-2146,271-0067,松戸市樋野口932番地の1,月~土9:00~14:00・15:00~19:00,無,,
ウエルシア薬局松戸古ヶ崎店,122076,千葉県,松戸市,35.805241,139.895584,047-361-6359,047-703-3348,271-0068,松戸市古ケ崎4-3579,月~金9:00~20:00 土10:00~15:00,無,,
鈴木薬局松戸五香店,122076,千葉県,松戸市,35.797897,139.965057,047-711-9586,047-711-9587,271-0076,松戸市常盤平5-11-19 秋吉ビル1階,月~金9:00~19:00 土9:00~16:00 日・祝:休,有,070-4510-1890,
かざね薬局,122076,千葉県,松戸市,35.787487,139.899368,047-362-0601,047-362-0602,271-0077,松戸市根本7-8,月・火・木・金9:00~17:00 土9:00~12:00,無,,
おくすり本舗20世紀ヶ丘店,122076,千葉県,松戸市,35.771523,139.914719,047-391-4061,047-391-4062,271-0083,松戸市二十世紀ケ丘梨元町25-3,月~金9:00~18:00 土9:00~16:30 日9:00~12:30 祝定休日・隔週日曜定休日,有,090-8035-1793,
ヤックスドラッグ二十世紀が丘薬局,122076,千葉県,松戸市,35.767609,139.91037,047-712-1631,047-712-1632,271-0084,松戸市二十世紀が丘丸山町130,月~土9:00~18:00 祝日除く,無,,
ウエルシア薬局松戸駅西口店,122076,千葉県,松戸市,35.785419,139.899658,047-331-1731,047-331-1731,271-0091,松戸市本町19-17 松戸本町第1ビル1階,月~土9:00~20:00 日祝10:00~13:00・14:00~19:00,無,,
かつみ薬局,122076,千葉県,松戸市,35.785419,139.899658,047-308-3103,047-308-3601,271-0091,松戸市本町19-16松戸ウエストビル1F,月・火・木・金9:00~19:00水9:00~17:00土9:00~15:00,有,090-7185-3235,
薬局マツモトキヨシ松戸西口駅前店,122076,千葉県,松戸市,35.784817,139.899323,047-312-5155,047-312-5155,271-0091,松戸市本町18-6,月~土9:00~20:00,無,,
松戸薬局,122076,千葉県,松戸市,35.784817,139.899323,047-362-2202,047-367-1305,271-0091,松戸市本町18-1,月~土9:30~20:00,有,047-362-2202,
ウエルシア薬局松戸駅東口店,122076,千葉県,松戸市,35.784515,139.902115,047-367-0609,047-367-0610,271-0092,松戸市松戸1177-1-1F,月~土・祝9:00~20:00 日10:00~14:00,無,,
さくら薬局松戸駅前店,122076,千葉県,松戸市,35.784618,139.901642,047-308-6431,047-308-6432,271-0092,松戸市松戸1178,月~水・金9:30~19:00 木9:30~17:30 土9:00~18:00 ,有,047-308-6431,
ハ-ブランド薬局松戸店,122076,千葉県,松戸市,35.782379,139.901291,047-308-6086,047-308-6085,271-0092,松戸市松戸1293-2小川ビル1F,月~土9:00~18:00,無,,
ふくろう薬局,122076,千葉県,松戸市,35.778713,139.902985,047-.365-5200,047-365-5250,271-0092,松戸市松戸 1072-12,月9:00~18:00/火9:00~18:00/水9:00~18:00/金9:00~18:00/土9:00~13:00,nan,,
まり松戸薬局,122076,千葉県,松戸市,35.782726,139.900742,047-308-7971,047-308-7972,271-0092,松戸市松戸1299-2,月~水・金9:00~19:00 木9:00~17:00 土9:00~13:00,有,070-5553-7971,
松戸西薬局,122076,千葉県,松戸市,35.786621,139.895248,047-361-7577,047-361-7566,271-0092,松戸市松戸2044,月~金9:00~19:30 土9:00~13:30,有,080-1088-8877,
薬局ユ-エス・ファ-マシ-松戸駅前,122076,千葉県,松戸市,35.784618,139.901642,047-710-0696,047-710-0697,271-0092,松戸市松戸1173-1 RGMATSUDOBLD1F,月~土9:00~19:00(祝祭日を除く),無,,
薬局ユ-エス・ファ-マシ-3号店,122076,千葉県,松戸市,35.784515,139.902115,047-369-7431,047-369-7433,271-0092,松戸市松戸1164-2,月~土9:00~17:30,無,,
薬局トモズキテミテマツド店,122076,千葉県,松戸市,35.782318,139.898926,047-369-7771,047-363-1555,271-0092,松戸市松戸1307-1キテミテマツド1階,月-金9:00-19:00 土9:00-13:00,無,,
しんわ薬局松戸店,122076,千葉県,松戸市,35.774574,139.893723,047-711-8971,047-711-8972,271-0093,松戸市小山188-1,月・火・木・金9:00~18:00 水9:00~17:00 土9:00~13:00,有,047-711-8971,
ユニスマイル薬局下矢切店,122076,千葉県,松戸市,35.759892,139.898712,047-303-2111,047-303-2112,271-0096,松戸市下矢切72ラ・コリ-ナ101,月~水・金 9:00~18:00 木 9:00~17:00 土 9:00~13:00,有,09023131265,
マツモトキヨシ矢切店,122076,千葉県,松戸市,35.756519,139.898697,047-368-3521,047-368-3521,271-0097,松戸市栗山125-1,月~日9:00~20:00,有,047-368-3521,
あいケア薬局鬼高店,122033,千葉県,市川市,35.712326,139.934814,047-379-2021,047-379-2022,272-0015,市川市鬼高1-7-6,月~金9:00~18:30 土9:00~12:30,有,047-379-2021,
あいケア薬局八幡店,122033,千葉県,市川市,35.727398,139.933853,047-302-1555,047-302-1556,272-0021,市川市八幡6-3-25,月~水・金9:00~13:00・14:00~18:00 木9:00~18:00 土8:30~13:30,無,,
あけぼの薬局本八幡店,122033,千葉県,市川市,35.722675,139.926086,047-325-8511,047-326-6065,272-0021,市川市八幡3-5-1 本八幡キャピタルタワ-1F,月~水・金9:00~19:00 木9:00~18:00 土9:00~15:00,有,080-211-8129,
さくら薬局市川八幡店,122033,千葉県,市川市,35.720417,139.930984,047-311-4601,047-311-4605,272-0021,市川市八幡1-15-12,月~水・金9:00~18:30 木9:00~17:00 土9:00~13:00,無,,
日本調剤本八幡北口薬局,122033,千葉県,市川市,35.721844,139.927414,047-302-3981,047-302-3982,272-0021,市川市八幡2-15-15本八幡駅北口ビル1階,月~金9:00~20:00土9:00~18:00,有,080-1305-7526,
駅前薬局スミレ2号店,122033,千葉県,市川市,35.724209,139.928955,047-711-1745,047-711-1746,272-0021,市川市八幡3-27-20-102,月~金9:00~18:30 土9:00~14:00,有,047-711-1745,
薬局スミレ,122033,千葉県,市川市,35.723965,139.929047,047-333-8503,047-333-2235,272-0021,市川市八幡4-4-8,月~水・金9:00~19:00 木9:00~13:00・14:00~18:00 土9:00~18:00,有,047-333-8503,
薬局タカサ市川本八幡店,122033,千葉県,市川市,35.723091,139.925766,047-329-1900,047-329-1901,272-0021,市川市八幡3-4-10ユ-ハイツB-1,月・木8:30~18:30 火・金8:30~20:00 土8:30~13:00,無,,
島崎薬局,122033,千葉県,市川市,35.721493,139.93161,047-334-0063,047-334-0134,272-0021,市川市八幡1-2-2,月~金8:30~18:00 木9:00~17:00 土8:30~14:00,有,047-334-0063,
調剤薬局マツモトキヨシ南八幡店,122033,千葉県,市川市,35.719971,139.92717,047-314-2031,047-314-2032,272-0023,市川市南八幡4-7-2,月~金9:30~19:00 土9:30~17:00,無,,
日本調剤本八幡南口薬局,122033,千葉県,市川市,35.718975,139.925873,047-320-3571,047-320-3572,272-0023,市川市南八幡4-9-5,月~金9:00~19:00 土9:00~18:00,有,090-1115-4289,
クオ-ル薬局本八幡店,122033,千葉県,市川市,35.718342,139.925461,047-700-2000,047-700-2001,272-0023,市川市南八幡4-14-4,月~金9:00~18:30 土9:00~17:30,有,080-8754-5602,
アイン薬局市川店,122033,千葉県,市川市,35.711922,139.916962,047-702-5601,047-702-5602,272-0025,市川市大和田2-21-30,月・火・木・金9:00~18:00 水9:00~17:00 土9:00~12:30,有,047-702-5601,
SFC薬局平田店,122033,千葉県,市川市,35.719025,139.919464,047-393-3739,047-393-3756,272-0031,市川市平田4-3-6,月・火・木・金9:00~18:30 水9:00~17:00 土9:00~12:30,有,080-3311-4198,
みのり薬局市川店,122033,千葉県,市川市,35.72517,139.920929,047-323-2230,047-323-2232,272-0031,市川市平田1-17-22,月~土9:00~17:00 祝日10:00~17:00,有,090-3348-3717,
市川グリ-ン薬局,122033,千葉県,市川市,35.725842,139.919693,047-712-5581,047-712-5582,272-0031,市川市平田2-7-2,月~金8:45~13:00・14:30~18:30 土8:45~13:00,無,,
西川永生堂らいふけあ薬局,122033,千葉県,市川市,35.727665,139.906677,047-314-8912,047-314-8913,272-0033,市川市市川南1-8-6,月~金9:00~20:00 土9:00~14:00,有,047-314-8933,
西川永生堂薬局,122033,千葉県,市川市,35.72702,139.908646,047-322-1493,047-326-6872,272-0033,市川市市川南1-2-5,月~金9:00~20:00 土9:00~18:00,有,047-322-1493,
日本調剤市川南口薬局,122033,千葉県,市川市,35.728058,139.909561,047-325-6731,047-325-6732,272-0033,市川市市川南1-1-1 B203,月・火・木・金9:00~19:00 水9:00~18:30 土9:00~18:00,有,080-1047-4786,
コアラ薬局,122033,千葉県,市川市,35.730057,139.906708,047-323-1193,047-323-1194,272-0034,市川市市川1-10-2,月・火・木・金8:30~18:30 土8:30~13:30,無,,
さくら薬局市川駅前店,122033,千葉県,市川市,35.730793,139.907089,047-325-8760,047-325-8761,272-0034,市川市市川1-12-7 竹之内マンション1F,月・火・金9:00~18:30 水・木9:00~17:00 第1.2.4.5土9:00~13:30 第3土9:00~12:00,無,,
さくら薬局市川駅北口店,122033,千葉県,市川市,35.729435,139.908112,047-323-6900,047-323-6901,272-0034,市川市市川1-4-10 市川ビル9階,月~金10:00~18:30 土10:00~13:30,無,,
さくら薬局市川店,122033,千葉県,市川市,35.734207,139.906555,047-321-2422,047-320-9156,272-0034,市川市市川2-28-15,月・水・金8:30~16:30 火・木8:30~17:30 土8:30~13:00,有,047-321-2422,
サラダ薬局 国府台店 ,122033,千葉県,市川市,35.738243,139.903046,047-374-8050,047-374-8051,272-0034,市川市市川4-7-5 シャト-鴻ノ台102,月~水・金9:00~19:00 木9:00~17:00 土9:00~13:00,無,,
ヤスイ薬局市川駅前店,122033,千葉県,市川市,35.730026,139.905975,047-702-5992,047-702-5993,272-0034,市川市市川2-1-4,月~金9:00~19:00 土9:00~14:00,有,047-702-5992,
レモン薬局 市川店,122033,千葉県,市川市,35.731049,139.908157,047-322-4446,047-322-4447,272-0034,市川市市川1-12-23,月~金 9:00~19:00土 9:00~17:00,有,090-5302-9984,
市川真間グリ-ン薬局,122033,千葉県,市川市,35.731594,139.910858,043-311-4201,043-311-4202,272-0034,市川市市川1-27-5 元木ビル101,月~水・金9:00~13:00・14:30~18:30 土9:00~13:00・14:00~17:00,無,,
調剤薬局インフォ・ドラッグ 市川店,122033,千葉県,市川市,35.730076,139.907288,047-325-7130,047-325-7131,272-0034,市川市市川1-9-7,月~金 9:00~19:00土 9:00~14:00,有,047-325-7130,
ひまわり薬局,122033,千葉県,市川市,35.730244,139.908508,043-711-0596,047-711-0597,272-0034,市川市市川1-7-15,月~金9:00~18:00 土9:00~13:00,無,,
くすりの福太郎市川北方店,122033,千葉県,市川市,35.725521,139.938171,047-318-2961,047-318-2961,272-0035,市川市北方2-35-16,月~土10:00~19:00土日祝:休,無,,
石田薬局,122033,千葉県,市川市,35.724598,139.910416,047-376-4793,047-378-7893,272-0035,市川市新田3-23-15,月~水・金9:00~18:30 木9:00~17:00 土9:00~17:30,有,080-9648-9301,
まこ薬局行徳店,122033,千葉県,市川市,35.694016,139.918213,047-316-0776,047-397-0770,272-0103,市川市本行徳5525-4,月~金9:00~18:00 土9:00~14:00,有,080-4601-9115,
さくら薬局市川押切店,122033,千葉県,市川市,35.685623,139.915085,047-357-6155,047-318-3205,272-0107,市川市押切19-7,月・火・木・金9:00~18:00 水9:00~17:00 土10:00~15:00,無,,
アオノ薬局みょうでん店,122033,千葉県,市川市,35.692165,139.925934,047-307-2726,047-307-2728,272-0111,市川市妙典4-2-12,月・火・木・金9:00~19:30水・土9:00~18:00日・祝休み,有,080-8706-4570,
クオ-ル薬局妙典店,122033,千葉県,市川市,35.690083,139.929733,047-318-6026,047-318-6027,272-0111,市川市妙典4-10-28クリサンテ-ム妙典II,月・火・木・金9:00~19:00水9:00~17:00土9:00~14:00,無,,
薬樹薬局妙典,122033,千葉県,市川市,35.691074,139.926865,047-307-8677,047-307-8678,272-0111,市川市妙典4-5-25,月~金:9:00~19:00、土:9:00~13:30 ,有,047-307-8677,
東行徳太陽堂薬局,122033,千葉県,市川市,35.686733,139.923965,047-399-1010,047-399-1010,272-0114,市川市塩焼3-1-1,月~土9:00~18:00 木9:00~17:00(13:00~14:00は閉局),有,070-5011-4037,
妙典駅前太陽堂薬局,122033,千葉県,市川市,35.689556,139.925827,047-398-8080,047-398-8089,272-0115,市川市富浜2-14-4-101,月・水・金9:00~19:00 火9:00~21:00 木9:00~18:30 土9:00~17:00,有,070-6421-9779,
アオノ薬局ケアセンタ-,122033,千葉県,市川市,35.683235,139.913803,047-395-4593,047-395-4596,272-0133,市川市行徳駅前2-17-2-1階,月~金9:00~20:00土9:00~19:00日9:00~18:00,無,,
けやき薬局行徳店,122033,千葉県,市川市,35.677837,139.913773,047-300-4668,047-300-4669,272-0133,市川市行徳駅前4-23-1,月~土9:00~18:00木9:00~17:00,有,080-6770-6825,
コスモ薬局行徳駅前店,122033,千葉県,市川市,35.683208,139.91394,047-356-0311,047-356-0511,272-0133,市川市行徳駅前2-1-11-2F エルミタ-ジュ,月~水・金9:00~19:00 木9:00~17:00 土9:00~16:00,無,,
はなまる薬局 行徳店,122033,千葉県,市川市,35.682529,139.915405,047-356-0137,047-396-0008,272-0133,市川市行徳駅前1丁目26-12行徳駅前六甲ビル,月9:00~13:00、15:00~21:00/火9:00~13:00、15:00~21:00/水9:00~13:00、15:00~21:00/木9:00~13:00、15:00~21:00/金9:00~13:00、15:00~21:00/土9:00~12:30/日9:00~12:30/備考:祝日;9:00~12:30,有,047-356-0137,
プラザアオノ薬局,122033,千葉県,市川市,35.682758,139.914246,047-357-1925,047-357-1924,272-0133,市川市行徳駅前2-4,月~土9:00~18:00,無,,
ヤスイ薬局本店,122033,千葉県,市川市,35.682545,139.916992,047-397-7877,047-397-9919,272-0133,市川市行徳駅前1-13-6,月~金9:00~20:00 土9:00 ~19:30 日9:00~17:30 祝日9:00~14:00,有,047-397-7877,
太陽堂薬局駅前2丁目店,122033,千葉県,市川市,35.68108,139.914001,047-307-8883,047-307-8885,272-0133,市川市行徳駅前2-12-13,月~金9:00~18:30 土9:00~12:30,有,070-6421-9140,
太陽堂薬局南店,122033,千葉県,市川市,35.680531,139.913605,047-396-8700,047-396-8700,272-0133,市川市行徳駅前2-25-12,月~金9:00~18:00 土9:00~13:00,有,070-6421-5501,
ヤスイ調剤薬局,122033,千葉県,市川市,35.682091,139.914429,047-398-4224,047-397-2120,272-0133,市川市行徳駅前2-13-20,月~水・金9:00~19:00 木9:00~17:00 土9:00~14:00,無,,
あいケア薬局行徳店,122033,千葉県,市川市,35.676937,139.920883,047-395-3175,047-395-3176,272-0134,市川市入船14-8,月~金9:00~19:00 土9:00~13:30,有,047-395-3175,
ヘルシ-ランドヤスイ薬局,122033,千葉県,市川市,35.679115,139.920166,043-399-7337,047-399-7358,272-0134,市川市入船12-23,月~金9:00~19:00 土9:00~15:00,有,047-399-7337,
アオノ薬局ふみはま店,122033,千葉県,市川市,35.672123,139.903381,047-390-2380,047-390-2382,272-0138,市川市南行徳1-15-21-1F,月~金9:00~19:30土9:00~18:00,有,080-8811-9954,
イオン薬局南行徳店,122033,千葉県,市川市,35.668213,139.905228,047-709-9370,047-709-9371,272-0138,市川市南行徳2-20-25,月~金10:00~20:00土・日・祝10:00~18:00毎年1月1日休み,無,,
ウエルシア薬局南行徳店,122033,千葉県,市川市,35.66507,139.90863,047-701-1502,047-701-1501,272-0138,市川市南行徳4-3-17,月~土9:00~20:00 日・祝日10:00~13:00・14:00~19:00,有,080-7676-1449,
スクエアアオノ薬局,122033,千葉県,市川市,35.672432,139.902359,047-396-4193,047-396-1217,272-0138,市川市南行徳1-16-27 NANGYOスクエアビル,月・金9:00~21:00火・水・木・土9:00~20:00日祝日休み,有,080-9537-8458,
株式会社誠心堂薬局,122033,千葉県,市川市,35.671223,139.901047,047-398-9393,047-398-8940,272-0138,市川市南行徳3-1-2,月火水金土9:00~19:00 木日祝10:00~19:00,有,070-1387-2280,
あけぼの薬局南行徳店,122033,千葉県,市川市,35.673615,139.902969,047-307-1189,047-307-1190,272-0143,市川市相之川4-5-8 南行徳メディカルスクエア1F,月~金9:00~19:00 土9:00~15:00,有,080-8433-4307,
ウエルシア薬局南行徳駅前店,122033,千葉県,市川市,35.672939,139.900589,047-300-2721,047-300-2762,272-0143,千葉県市川市相之川4-9-10,月~日9:00~21:00,無,,
スタ-薬局,122033,千葉県,市川市,35.67416,139.903519,047-307-8233,047-307-8234,272-0143,市川市相之川4-2-14-103,月~土9:00-18:00 祝10:00-18:00,無,,
ファ-マシ-アオノ薬局,122033,千葉県,市川市,35.672314,139.901047,047-356-5346,047-356-5348,272-0143,市川市相之川4-15-1,月・火・水・金9:00~20:00木・土9:00~19:00日・祝休み,有,090-3407-4754,
太陽堂調剤薬局相の川店,122033,千葉県,市川市,35.680801,139.897873,047-356-5965,047-356-7759,272-0143,市川市相之川1-8-1,月~金9:00~18:00 土9:00~13:00,有,070-6421-2106,
南行徳薬局,122033,千葉県,市川市,35.672203,139.901154,047-356-4193,047-359-0818,272-0143,市川市相之川4-15-2吉野ビル1F,月・金9:00~19:30火・水9:00~20:00木・土9:00~18:00日・祝休み,有,080-8054-2371,
ほほえみ薬局,122033,千葉県,市川市,35.740086,139.972458,017-337-8853,047-338-0270,272-0802,市川市柏井町1-2205,月~金9:30~17:30 土9:30~14:30,有,090-9976-9530,
薬局ままのて,122033,千葉県,市川市,35.7458,139.953613,047-337-8060,047-339-4525,272-0804,市川市南大野2-3-24,月~金9:00~18:00 土9:00~13:00,有,047-337-8060,
和光薬局市川店,122033,千葉県,市川市,35.745918,139.95047,047-338-5635,047-338-5635,272-0804,市川市南大野2-18-23101号,月・火・金9:00~18:00 水・土9:00~13:00,有,080-1060-2935,
久米の木薬局,122033,千葉県,市川市,35.726486,139.953613,047-320-7361,047-369-7175,272-0812,市川市若宮3-53-24,月・火・木・金9:00~18:00 水8:30~16:30 土9:00~15:00,無,,
薬局タカサ市川若宮店,122033,千葉県,市川市,35.726776,139.954758,047-318-0300,047-318-0301,272-0812,市川市若宮3-31-5,月・火・木・金8:45~18:00 水9:00~17:00 土8:45~12:00,有,047-318-0300,
鬼越薬局,122033,千葉県,市川市,35.720364,139.937225,047-332-2278,047-335-5566,272-0815,市川市北方1-9-13,月~水・金9:00~19:00 木9:00~18:00 土9:00~15:00,有,047-332-2278,
すずらん薬局,122033,千葉県,市川市,35.739437,139.949066,047-318-5311,047-318-5322,272-0821,市川市下貝塚3-21-23,月~金9:00~18:00 土9:00~17:00,有,090-2303-1569,
みどり薬局,122033,千葉県,市川市,35.739758,139.947739,047-374-7666,047-374-7665,272-0821,市川市下貝塚3-365-1,月~金9:00~18:00 土9:00~13:00,有,080-6925-6393,
はちまん薬局,122033,千葉県,市川市,35.727348,139.92981,047-711-3939,047-711-0891,272-0823,市川市東菅野1-6-19シ-ダ-ヒルズ1F,月~金:8:30~12:30、15:00~19:00 土:8:00~13:00,有,080-4142-0891,
さくら薬局菅野店,122033,千葉県,市川市,35.732662,139.922897,047-325-3337,047-320-9157,272-0824,市川市菅野4-17-12 ラ・メ-ル岡野1階,月~金9:00~18:00 第1.3.4.5土9:00~14:00 第2土9:00~12:00,有,047-325-3337,
そうこう薬局市川店,122033,千葉県,市川市,35.732605,139.922745,047-322-7533,047-322-7580,272-0824,市川市菅野4-17-11-101,月~金9:00~17:30 土9:00~13:00,無,,
日本調剤ワ-ルド薬局,122033,千葉県,市川市,35.732605,139.922745,047-320-9000,047-320-9021,272-0824,市川市菅野4-17-11 1階,月~金9:00~17:30 土9:00~13:00,無,,
くるみ薬局,122033,千葉県,市川市,35.733509,139.91008,047-325-7100,047-325-7100,272-0826,市川市真間2-12-14 シャト-真間1F,月~水・金9:00~19:00 木・土9:00~17:00,有,080-5060-6011,
ABC薬局 国府台店,122033,千葉県,市川市,35.747421,139.904373,047-373-4441,047-373-4440,272-0827,市川市国府台3-1-27,月・水~金 9:00~18:00火 9:00~19:00土 9:00~11:00,有,047-373-4441,
アイン薬局国府台店,122033,千葉県,市川市,35.747173,139.904434,047-703-7856,047-703-7857,272-0827,市川市国府台3-1-29,月~金9:00~18:00 土9:00~13:00,有,047-703-7856,
サトミグリ-ン薬局,122033,千葉県,市川市,35.747688,139.904343,047-372-9770,047-374-2610,272-0827,市川市国府台3-1-25,月・火・木・金9:00~18:00 水9:00~19:00 土9:30~12:30,有,070-2610-6483,
薬剤師会市川薬局,122033,千葉県,市川市,35.747997,139.904327,047-373-1020,047-375-4366,272-0827,市川市国府台5-1-8,月~木8:30~17:00 金8:30~19:00 土9:00~12:00,無,,
さくら薬局市川曽谷店,122033,千葉県,市川市,35.745434,139.928055,047-373-2222,047-373-5508,272-0832,市川市曽谷7-3-16,月・火・木8:30~18:00 水8:30~16:30 金8:30~17:00 土8:30~12:00,無,,
さくら薬局船橋市場店,122041,千葉県,船橋市,35.702206,139.99855,047-426-8010,047-426-8018,273-0001,船橋市市場4-6-16,月~金9:00~17:45  土9:00~16:30,無,,
コスモス薬局東船橋店,122041,千葉県,船橋市,35.701859,140.005127,047-424-6731,047-424-6732,273-0002,船橋市東船橋3-33-6,月~水・金9:00~19:00木・土9:00~17:00,有,090-7814-1360,
そうごう薬局東船橋店,122041,千葉県,船橋市,35.698376,140.004333,047-460-6511,047-460-6512,273-0002,船橋市東船橋4-30-2,月・火・木・金9:00~18:00 水17:00~20:00 土9:00~13:30,有,047-460-6511,
第2薬局船橋店,122041,千葉県,船橋市,35.701679,140.004501,047-405-2041,047-405-2042,273-0002,船橋市東船橋2-11-13,月~金10:00~17:00,有,080-9675-6187,
第一薬局船橋店,122041,千葉県,船橋市,35.700859,140.008392,047-406-5501,047-406-5502,273-0002,船橋市東船橋3-14-8,月~金9:00~18:00 土9:00~13:00 祝日休み,有,047-406-5501,
薬局くすりの福太郎東船橋駅前店,122041,千葉県,船橋市,35.699074,140.004562,047-411-0029,047-411-0029,273-0002,船橋市東船橋4-31-20,月~土9:00~19:00,無,,
みやもと薬局,122041,千葉県,船橋市,35.695961,139.990311,047-407-3868,047-407-3869,273-0003,船橋市宮本2-1-17,月~水・金9:00~13:00 14:00~18:00 土9:00~13:00,有,090-2491-4131,
友愛薬局船橋店,122041,千葉県,船橋市,35.691433,139.996567,047-409-0080,047-409-9050,273-0003,船橋市宮本4-12-18,月~水・金9:00~18:30 木9:00~17:00 土9:00~12:30,有,047-409-0080,
川奈部薬局,122041,千葉県,船橋市,35.696915,139.995895,047-423-2008,047-423-2009,273-0003,船橋市宮本6-27-9,月~水・金9:00~13:00・15:00~19:00 木9:00~18:00 土9:00~13:00,有,090-1033-0084,
みなみ薬局,122041,千葉県,船橋市,35.696651,139.979279,047-495-5881,047-495-5882,273-0004,船橋市南本町6-2,月・火・木・金9:00~20:30 水9:00~17:00 土9:00~13:30・14:30~16:30,無,,
カネマタ薬局船橋北口店,122041,千葉県,船橋市,35.703869,139.985992,047-422-8585,047-422-4936,273-0005,千葉県船橋市本町6-1-7,月~金9:00~20:00土9:00~19:00日祝9:00~18:00,有,047-422-8585,
カネマタ薬局本町店,122041,千葉県,船橋市,35.698624,139.983505,047-401-0505,047-401-0606,273-0005,船橋市本町2-26-26,月~水・金9:00~18:00 土9:00~13:00,無,,
クオ-ル薬局船橋店,122041,千葉県,船橋市,35.697693,139.983002,047-433-3955,047-433-3992,273-0005,船橋市本町2-24-10,月~金9:00~18:00土9:00~13:00,有,080-8754-5600,
たんぽぽ薬局船橋駅前店,122041,千葉県,船橋市,35.703556,139.985062,047-425-4193,047-425-4193,273-0005,船橋市本町7-6-1 船橋ツインビル東館6階,月~水・金・土9:30~19:00 木9:30~17:30,有,090-1708-6568,
ひだまり薬局,122041,千葉県,船橋市,35.699669,139.982101,047-436-8073,047-436-8076,273-0005,船橋市本町1-20-35 グリ-ンマリ205,月~水・金9:00~18:00 土9:00~13:00,有,080-8231-4174,
ミヤマ薬局,122041,千葉県,船橋市,35.704815,139.985336,047-424-2824,047-424-3924,273-0005,船橋市本町6-7-1 ANパ-クビル1F,月・木・金9:00~1900 火・水9:00~18:30 土9:00~18:00,無,,
ミヤマ薬局駅前店,122041,千葉県,船橋市,35.703316,139.986328,047-460-6651,047-460-6672,273-0005,船橋市本町6-2-19,月~水・金9:00~18:30 土9:00~17:00 木9:00~18:00(13:00-14:00は昼休み)日祝休み,nan,,
三山薬局船橋店,122041,千葉県,船橋市,35.703644,139.985672,047-411-3801,047-411-3802,273-0005,船橋市本町6-1-3-102,月・水~金9:00~20:00 火・土9:00~18:00 日10:00~17:00,有,047-411-3801,
大山薬局,122041,千葉県,船橋市,35.697552,139.987793,047-424-5050,047-424-5057,273-0005,船橋市本町3-3-8,月~金9:00~18:00 土9:00~14:00,有,047-424-5050,
いろは薬局,122041,千葉県,船橋市,35.695724,139.982422,047-410-1685,047-410-1686,273-0011,船橋市湊町2-5-6 ハンザビル1F,月~水・金9:00~18:30 木9:00~17:00 土日9:00~13:30,有,070-4153-1767,
そうごう薬局南船橋駅前店,122041,千葉県,船橋市,35.681408,139.995361,047-436-8411,047-436-8412,273-0013,船橋市若松2-2-1 ららテラスTOKYO-BAY2階,月・火・木~土9:00~18:30 日10:00~17:30,有,047-436-8411,
カネマタ薬局ケイツ-店,122041,千葉県,船橋市,35.705097,139.974655,047-420-8844,047-420-8665,273-0021,船橋市海神4-1-15,月・火・木・金9:00~18:00 水・土9:00~17:00,有,090-8454-2159,
カネマタ薬局海神店,122041,千葉県,船橋市,35.704262,139.971527,047-420-8725,047-420-8735,273-0021,船橋市海神6-7-12,月~水・金9:00~19:00 木9:00~17:00 土9:00~13:00,有,080-7342-9411,
カネマタ薬局中央店,122041,千葉県,船橋市,35.705292,139.96965,047-431-3037,047-434-0998,273-0021,船橋市海神6-11-19,月~金8:30~17:30 土8:30~12:30,有,047-431-3037,
さくら薬局西船橋北口店,122041,千葉県,船橋市,35.705387,139.958496,047-432-3703,047-432-1824,273-0025,船橋市印内町496-1,月~土9:00~19:00,無,,
太陽堂薬局西船店,122041,千葉県,船橋市,35.715378,139.95636,047-711-4106,047-711-4136,273-0031,船橋市西船6-6-13,月~金9:00~18:00 土9:00~12:00,有,070-6421-1972,
コクミン薬局ペリエ西船橋店,122041,千葉県,船橋市,35.708256,139.957825,047-420-0594,047-420-0595,273-0031,船橋市西船4-27-7 ペリエ西船橋,月~土10:00~13:30・14:30~19:00,無,,
ドラッグセイムス船橋西船薬局,122041,千葉県,船橋市,35.716732,139.956039,047-325-9847,047-325-9848,273-0031,船橋市西船6-10-45,月~土10:00~14:00、15:00~19:00,有,047-325-9847,
さくら薬局西船橋南口店,122041,千葉県,船橋市,35.706974,139.957596,047-437-3633,047-437-3821,273-0032,船橋市葛飾町2-341-3 サミットビル1F,月~水・金9:00~18:00 木9:00~17:00 土9:00~13:00,無,,
日本調剤西船橋薬局,122041,千葉県,船橋市,35.706974,139.957596,047-495-2511,047-495-2512,273-0032,船橋市葛飾町2-335-1アルマ-ス弐番館1F,月~金9:00~18:30土9:00~16:00日・祝休み,有,090-4938-9566,
ウエルシア薬局船橋二子店,122041,千葉県,船橋市,35.709633,139.94722,047-302-8217,047-302-8218,273-0034,船橋市二子町585-1,月~土9:00~20:00 日祝9:00~14:00・15:00~18:00,無,,
サイコウ薬局,122041,千葉県,船橋市,35.711304,139.939438,047-335-9895,047-335-9896,273-0035,船橋市本中山4-22-10,月~金9:00~20:00 土9:00~18:00 日9:00~12:30,無,,
サンリツ薬局本中山店,122041,千葉県,船橋市,35.7131,139.944672,047-332-5167,047-332-5168,273-0035,船橋市本中山3-11-3,月・火・木・金9:00~18:00 水9:00~17:00 土9:00~12:00,無,,
原木中山太陽堂薬局,122041,千葉県,船橋市,35.702358,139.94249,047-336-9384,047-336-9381,273-0035,船橋市本中山7-5-1-111,月~水・金9:00~18:00 木9:00~17:00 土9:00~14:00,有,070-6421-5737,
雄飛堂薬局原木中山店,122041,千葉県,船橋市,35.702621,139.941833,04-7314-5056,04-7314-5058,273-0035,船橋市本中山7-5-11,月・火・木・金9:00~18:30 土9:00~12:30,無,,
新薬堂薬局,122041,千葉県,船橋市,35.715473,139.94397,047-334-2407,047-334-2429,273-0035,船橋市本中山2-15-12,月~金9:00~18:00 土9:00~18:00,無,,
そよかぜ薬局東中山店,122041,千葉県,船橋市,35.712711,139.947311,047-302-2300,047-302-2301,273-0036,船橋市東中山1-18-9,月~土9:00~19:05,無,,
本木薬局東武塚田店,122041,千葉県,船橋市,35.722672,139.98262,047-438-4359,047-404-7101,273-0042,船橋市前貝塚町565,月~水・金9:00~19:00 木9:00~17:00 土9:00~14:00,有,047-438-4359,
薬局くすりの福太郎塚田店,122041,千葉県,船橋市,35.722672,139.98262,047-439-6691,047-439-0036,273-0042,船橋市前貝塚町565-11,月~水・金9:00~19:30 木9:00~17:00 土9:00~19:00,有,070-7400-0241,
イオン薬局船橋店,122041,千葉県,船橋市,35.711884,139.975769,	047-	420-	7261,	047-	420-	7262,273-0045,船橋市山手1-1-8,9時-21時30分,無,,
船橋メロン薬局,122041,千葉県,船橋市,35.727203,139.973007,047-338-8777,047-338-8778,273-0046,船橋市上山町1-204-1,月~木9:00~18:00 金9:00~17:00 土9:00~15:30,有,090-6806-8620,
はなまる薬局,122041,千葉県,船橋市,35.735806,139.978546,047-468-8757,047-468-8767,273-0047,船橋市藤原3-36-10,月~金9:00~18:30 土9:00~13:00,有,047-468-8757,
薬局トモズ馬込沢駅前店,122041,千葉県,船橋市,35.742054,139.991592,047-439-8916,047-439-8918,273-0047,船橋市藤原7-2-2 Luz船橋1階,月9:00~19:00/火9:00~19:00/水9:00~19:00/木9:00~19:00/金9:00~19:00/土9:00~17:00,nan,,
薬局マツモトキヨシ船橋法典駅前店,122041,千葉県,船橋市,35.73119,139.965973,047-337-3400,047-337-3400,273-0047,船橋市藤原1-27-3,月~金9:00~20:00 土9:00~18:00,有,080-2287-5789,
スギ薬局船橋藤原店,122041,千葉県,船橋市,35.729359,139.963562,047-712-0900,047-712-0901,273-0047,船橋市藤原一丁目3番30号,月~土9:00~22:00 日祝9:00~20:00,無,,
イオン薬局鎌ヶ谷店,122246,千葉県,鎌ケ谷市,35.779705,140.001373,047-441-7899,047-441-7902,273-0107,鎌ヶ谷市新鎌ヶ谷2-7-1,月~日9:00~21:00,無,,
あすなろ薬局,122246,千葉県,鎌ケ谷市,35.77158,139.987793,047-441-7701,047-441-7702,273-0112,鎌ケ谷市東中沢1-15-55,月~金8:45~17:00 土8:45~12:30,有,090-8728-8527,
わかば薬局鎌ヶ谷,122246,千葉県,鎌ケ谷市,35.764244,139.996201,047-446-6501,047-446-6551,273-0113,鎌ケ谷市道野辺中央2-5-21,月・火・木・金9:00~19:00 水・土9:00~18:00,有,090-6508-8357,
わかば薬局初富,122246,千葉県,鎌ケ谷市,35.783047,140.007202,047-497-8100,047-497-8109,273-0121,鎌ケ谷市初富924-301,月~金9:00~18:00 土9:00~12:00,有,080-4077-6959,
山口薬局,122246,千葉県,鎌ケ谷市,35.777115,140.014297,047-442-4820,047-401-1376,273-0121,鎌ケ谷市初富848-106,月~土9:00~17:00,有,047-442-4820,
薬局タカサ鎌ヶ谷大仏店,122246,千葉県,鎌ケ谷市,35.760883,140.012314,047-443-2230,047-443-2065,273-0122,鎌ケ谷市東初富6-8-51,月・火・木・金9:00~19:00  水・土9:00~17:00,無,,
オリビエ薬局鎌ヶ谷店,122246,千葉県,鎌ケ谷市,35.759815,140.013199,047-401-3717,047-444-3718,273-0122,鎌ケ谷市東初富6-9-48,月~土9:00~18:00,無,,
さくら薬局鎌ケ谷店,122246,千葉県,鎌ケ谷市,35.76704,140.004669,047-441-8271,047-441-8272,273-0123,鎌ケ谷市南初富6-5-15,月~水・金8:30~18:00 木8:30~16:30 土8:30~12:30,有,047-441-8271,
ウエルシア薬局鎌ケ谷初富店,122246,千葉県,鎌ケ谷市,35.770771,140.00853,047-441-7120,047-441-7126,273-0123,鎌ケ谷市南初富3-14-2,月~土9:00~19:00,無,,
ウエルシア薬局鎌ケ谷くぬぎ山店,122246,千葉県,鎌ケ谷市,35.778202,139.969681,047-394-5107,047-394-5108,273-0128,鎌ケ谷市くぬぎ山3-14-14,月~土9:00~20:00 日祝定休,有,080-3364-5905,
さくら薬局船橋金杉店,122041,千葉県,船橋市,35.723511,139.997375,047-406-8161,047-406-8171,273-0853,船橋市金杉1-20-25,月~金8:30~17:30 土8:30~12:30,有,047-406-8161,
薬樹薬局船橋金杉,122041,千葉県,船橋市,35.723511,139.997375,047-406-8255,047-406-8263,273-0853,船橋市金杉1-20-24,月~金8:30~17:30 土8:30~12:30,無,,
薬樹薬局船橋金杉2号店,122041,千葉県,船橋市,35.723511,139.997375,047-406-8265,047-406-8268,273-0853,船橋市金杉1-20-23,月-金8:30-17:30  土9:00-13:00,有,047-406-8265,
ウエルシア薬局船橋金杉店,122041,千葉県,船橋市,35.733276,140.014572,047-448-3117,047-448-3118,273-0853,船橋市金杉5-5-8,月~土9:00~19:00 日・祝9:00~13:00・14:00~19:00,有,047-448-3117,
アイセイ薬局金杉店,122041,千葉県,船橋市,35.721188,139.998138,047-429-0031,047-429-0032,273-0854,船橋市金杉町103-4,月8:30~16:30 火~土8:30~17:30,有,047-429-0031,
薬樹薬局船橋北本町,122041,千葉県,船橋市,35.706856,139.984039,047-460-0755,047-460-0756,273-0864,船橋市北本町1-3-1,月~金9:00~18:00 土9:00~17:00,有,047-460-0755,
ファ-コス薬局夏見,122041,千葉県,船橋市,35.713474,139.987396,047-425-0430,047-425-8517,273-0865,船橋市夏見2-15-10-101,月・火・木・金9:00~18:00 土9:00~13:00,有,090-3227-9030,
ウエルシア薬局船橋夏見台店,122041,千葉県,船橋市,35.724937,139.99324,047-429-5875,047-429-5876,273-0866,船橋市夏見台4-5-13,月~土9:00~19:00 日9:00~14:00・15:00~19:00(祝日は休み),有,047-429-5875,
そうごう薬局ららぽ-とTOKYO-BAY店,122041,千葉県,船橋市,35.686241,139.990204,047-421-7831,047-421-7832,273-8530,船橋市浜町2-1-1 ららぽ-とTOKYO-BAY西館3階,月~水・金~日9:00~20:00 木9:00~18:00,有,047-421-7831,
アイン薬局とよとみ店,122041,千葉県,船橋市,35.763233,140.074066,047-490-6670,047-490-6680,274-0053,船橋市豊富町699-1,月~金9:00~18:00 土9:00~17:00,有,047-490-6670,
さくら薬局船橋金堀町店,122041,千葉県,船橋市,35.757751,140.063782,047-468-8831,047-468-8832,274-0054,船橋市金堀町522-3,月~土9:00~17:00,有,047-468-8831,
フクシ学園薬局,122041,千葉県,船橋市,35.72958,140.060043,047-490-2950,047-490-2951,274-0060,船橋市坪井東2-13-29,月~水・金・土8:45~18:45 木8:45~16:45,有,070-3166-7591,
坪井東薬局,122041,千葉県,船橋市,35.72958,140.060043,047-401-5120,047-401-5121,274-0060,船橋市坪井東2-13-20,月~水・金9:00~19:00 木9:00~17:00 土9:00~18:00,有,070-1315-3492,
あすなろ薬局,122041,千葉県,船橋市,35.718239,140.045486,047-465-4777,047-465-4848,274-0063,船橋市習志野台4-15-9,月~金9:00~18:00 土9:00~17:00,無,,
サエラ薬局習志野台店,122041,千葉県,船橋市,35.718864,140.045395,047-402-5350,047-402-5351,274-0063,船橋市習志野台4-13-9 クイ-ンハイツ103,月~土9:00~17:30,無,,
サエラ薬局北習志野店,122041,千葉県,船橋市,35.724709,140.041168,047-401-5650,047-401-5651,274-0063,船橋市習志野台1-38-11-1階,月~金8:30~18:30 土8:30~13:00,無,,
さくら薬局船橋習志野台店,122041,千葉県,船橋市,35.727623,140.035507,047-496-3377,047-496-3397,274-0063,船橋市習志野台1-2-2,月・火・木・金9:00~19:00 水9:00~17:00 土9:00~13:00,有,047-496-3377,
ドラッグセイムスゆめまち習志野台モ-ル薬局,122041,千葉県,船橋市,35.718201,140.065216,047-404-6057,047-404-6058,274-0063,船橋市習志野台8-58-1,月~金:9:00-13:30 14:30-19:00、土:9:00-13:30 14:30-18:00,有,047-404-6057,
北習志野薬局,122041,千葉県,船橋市,35.722946,140.046021,047-404-5775,047-404-5773,274-0063,船橋市習志野台2-49-15,月~金9:30~18:30 土9:00~18:00,有,047-404-5775,
薬局おくすり本舗北習志野店,122041,千葉県,船橋市,35.722225,140.042435,047-464-3097,047-464-3098,274-0063,船橋市習志野台2-1-6 新京成線北習志野駅前ビル1F,月~土9:00~18:00 (日・祝休み),無,,
薬局日本メディカル北習2号店,122041,千葉県,船橋市,35.72216,140.042023,047-404-6475,047-404-6476,274-0063,船橋市習志野台2-1-3 アゼリアビル102,月~水・金9:00~19:00 木9:00~17:00 土9:00~17:30,有,070-6512-7123,
薬局日本メディカル北習店,122041,千葉県,船橋市,35.721283,140.042206,047-404-2539,047-404-2540,274-0063,船橋市習志野台3-1-1 エキタきたなら2F,月・金9:00~19:00 火・土9:00~18:00 水・木9:00~20:00,有,047-404-2539,
ウエルシア薬局習志野台5丁目店,122041,千葉県,船橋市,35.718933,140.053253,047-496-7015,047-496-7010,274-0063,船橋市習志野台5-40-36,月~土9:00~21:00 日・祝日9:00~14:00・15:00~18:00,有,047-496-7015,
ウエルシア薬局船橋習志野台店,122041,千葉県,船橋市,35.727043,140.040314,047-490-1063,047-490-1065,274-0063,船橋市習志野台2-14-17,月~土9:00~19:30 祝日9:00~13:00・14:00~19:30,有,047-490-1063,
ドイ薬局アネックス,122041,千葉県,船橋市,35.730541,140.031433,047-468-7776,047-468-7775,274-0065,船橋市高根台1-2-P115,月~土9:00~18:00,無,,
みずほ薬局,122041,千葉県,船橋市,35.731365,140.035172,047-461-3233,047-469-0468,274-0065,船橋市高根台6-27-3,月・火・木・金・土:9:00-18:00、水・日:9:00-17 :00,無,,
スワン薬局,122041,千葉県,船橋市,35.72916,140.040192,047-497-8713,047-497-8714,274-0065,船橋市高根台4-23-19,月~水・金8:45~18:00 木9:00~17:00 土9:00~13:00,有,080-8472-4717,
サンリツ薬局大穴店,122041,千葉県,船橋市,35.74353,140.041656,047-490-0808,047-490-0900,274-0068,船橋市大穴北8-2-31,月~金9:00~18:00 土9:00~12:00,無,,
みもみ薬局,122041,千葉県,船橋市,35.697842,140.062363,047-406-3352,047-406-3356,274-0071,船橋市習志野5-8-18,月~水・金9:00~18:00 土9:00~17:00,有,090-8035-2313,
ウエルシア薬局船橋田喜野井店,122041,千葉県,船橋市,35.704929,140.047455,047-456-6577,047-456-6571,274-0073,船橋市田喜野井6-23-2,月・水~土 8:30~21:00 火9:00~21:00 日・祝9:00~14:00・15:00~18:00,無,,
アイセイ薬局薬園台店,122041,千葉県,船橋市,35.713085,140.037537,047-496-1311,047-467-6331,274-0077,船橋市薬円台6-6-2,月・火・木・金:8時30分~18時30分、水:8時30分~17時30分土:8時30分~13時00分,有,047-496-1311,
いちご薬局,122041,千葉県,船橋市,35.710995,140.037888,047-489-1593,047-489-1594,274-0077,船橋市薬円台6-3-6,月~水・金9:00~18:00 木9:00~17:00 土9:00~12:00 ,無,,
そうごう薬局薬円台店,122041,千葉県,船橋市,35.714951,140.043365,047-496-5181,047-496-5182,274-0077,船橋市薬円台5-32-1,月~土9:00~18:30 日・祝9:00~12:30,無,,
薬園堂薬局,122041,千葉県,船橋市,35.710442,140.03775,047-467-1375,047-467-1333,274-0077,船橋市薬円台6-1-1 薬園台駅ビル1階,月・金9:00~20:00 火~木9:00~19:00 土9:00~15:00,有,070-2261-1375,
わかば薬局船橋,122041,千葉県,船橋市,35.769768,140.032318,047-490-7102,047-490-7103,274-0801,船橋市高野台5-30-2,月~金9:00~18:00 土9:00~13:00,無,,
すこやか薬局2号店,122041,千葉県,船橋市,35.751389,140.020462,047-404-5551,047-404-5556,274-0805,船橋市二和東5-1-13,月~木9:00~16:00 金9:00~14:30,無,,
二和調剤薬局,122041,千葉県,船橋市,35.754608,140.023361,047-449-3003,047-449-7717,274-0805,船橋市二和東6-17-17,月~水・金9:00~18:00 木9:00~17:00 土9:00~13:00,有,090-8035-2064,
すこやか薬局,122041,千葉県,船橋市,35.751389,140.020462,047-448-2220,047-449-1664,274-0805,船橋市二和東5-1-6,月~金9:00~20:00 土・日9:00~16:30,有,090-4052-3555,
薬局くすりの福太郎三咲店,122041,千葉県,船橋市,35.751415,140.028137,047-490-7056,047-490-7056,274-0805,船橋市二和東6-44-5,月~水・金9:00~19:00 土9:00~14:00 ,無,,
はまなす薬局,122041,千葉県,船橋市,35.759277,140.01535,047-468-8943,047-468-8942,274-0807,船橋市咲が丘1-33-31,月~金9:00~17:00 土9:00~14:00,有,047-468-8943,
薬局メディクス二和向台店,122041,千葉県,船橋市,35.756912,140.023895,047-440-5170,047-440-5160,274-0807,船橋市咲が丘3-25-3 1F,月~金9:00~18:00 土9:00~12:00 日9:00~12:00,有,070-6975-9273,
ウエルシア船橋咲が丘薬局,122041,千葉県,船橋市,35.755878,140.025299,047-400-9001,047-407-8057,274-0807,船橋市咲が丘4-1-1,月~土9:00~22:00 日9:00~18:00 祝日9:00~14:00・15:00~18:00 ,無,,
三咲ダルマ薬局,122041,千葉県,船橋市,35.750061,140.031418,047-448-8608 ,047-448-8604,274-0812,船橋市三咲3-1-15,月~土9:00~19:00,無,,
A.S.O調剤薬局株式会社三咲グリ-ン薬局店,122041,千葉県,船橋市,35.736408,140.021332,047-497-8493,047-497-8494,274-0813,船橋市南三咲2-7-2,月~水・金8:30~12:30・14:30~18:00 木・土8:30~12:30,無,,
さくら薬局滝不動駅前店,122041,千葉県,船橋市,35.736706,140.024933,047-490-7772,047-490-7773,274-0813,船橋市南三咲1-22-16,月~日9:00~18:30,有,047-490-7772,
日本調剤滝不動の薬局,122041,千葉県,船橋市,35.736877,140.027344,047-448-1780,047-448-1790,274-0813,船橋市南三咲4-13-10,月~土9:00~18:00,有,080-1296-5405,
ウエルシア薬局船橋新高根店,122041,千葉県,船橋市,35.723701,140.025558,047-496-3170,047-496-3172,274-0814,船橋市新高根6-19-19,月~金9:00~20:00土9:00~13:00、14:00~20:00,無,,
レモン薬局,122041,千葉県,船橋市,35.728855,140.019791,047-464-6302,047-464-6307,274-0814,船橋市新高根2-14-3,月~金9:00~18:00 土9:00~13:00,無,,
ならしの駅前薬局,122041,千葉県,船橋市,35.716049,140.042694,047-401-9685,047-413-0515,274-0815,船橋市西習志野4-20-15-1F,月~金9:00~13:00、14:00~18:30土9:00~13:00,無,,
ヤックスドラッグ船橋習志野薬局,122041,千葉県,船橋市,35.716274,140.042236,047-496-2101,047-496-2102,274-0815,船橋市西習志野4-20-10,月~水・金・9:00~20:00 木9:00~18:00 土9:00~19:00,有,047-496-2101,
カネマタ薬局芝山在宅センタ-,122041,千葉県,船橋市,35.717052,140.019974,047-404-7782,047-404-7783,274-0816,船橋市芝山3-10-2-109,月~金9:00~17:00,無,,
ヒロ薬局,122041,千葉県,船橋市,35.714722,140.021683,047-404-1605,047-404-1607,274-0816,船橋市芝山3-14-3,月~金9:30~18:00土9:30~13:00,有,047-404-1605,
芝山グリ-ン薬局,122041,千葉県,船橋市,35.718662,140.018341,047-496-1005,047-496-1006,274-0816,船橋市芝山3-1-7,月・火・木・金8:45~18:00 水8:45~17:00 土8:45~13:00・14:30~18:00,有,080-1290-5705,
ファ-コス薬局船橋,122041,千葉県,船橋市,35.707306,140.024338,0474963515,0474963516,274-0822,船橋市飯山満町2-627,月 火 木 金 8時30分~19時00分 水 9時00分~17時00分 土 8時30分~12時30分,有,047-496-3515,
ライオン薬局はざま店,122041,千葉県,船橋市,35.708923,140.012177,047-422-9588,047-422-9587,274-0822,船橋市飯山満町1-836-5,月~土9:00~18:00,有,047-422-9588,
ことぶき薬局新津田沼店,122041,千葉県,船橋市,35.692833,140.026093,047-403-0045,047-403-0046,274-0824,船橋市前原東1-9-1 前原コ-ポ1階,月~金9:00~18:00 土9:00~13:00,有,080-6874-6406,
前原東薬局,122041,千葉県,船橋市,35.700138,140.028183,047-477-8522,047-477-8522,274-0824,船橋市前原東4-13-3,月~水・金9:00~17:30 木9:00~17:00 土9:00~16:30,無,,
あいケア薬局前原店,122041,千葉県,船橋市,35.69632,140.01535,047-409-7331,047-409-7332,274-0825,船橋市前原西4-10-17-103,月・火・木・金8:45~18:00水9:00~17:00土8:45~13:45日・祝休み,有,047-409-7331,
うさぎ薬局,122041,千葉県,船橋市,35.698666,140.019318,047-411-7428,047-411-7428,274-0825,船橋市前原西6-1-2 レグルス近藤105号室,月~金9:00~18:30 土9:00~13:00,有,090-8515-6749,
オレンジ薬局津田沼店,122041,千葉県,船橋市,35.693493,140.022491,047-470-4193,047-470-4560,274-0825,船橋市前原西2-33-10,月~金9:00~18:00 土9:00~13:00,無,,
ことぶき薬局津田沼店,122041,千葉県,船橋市,35.692608,140.019821,047-473-2305,047-473-2306,274-0825,船橋市前原西2-9-10,月・水・金9:00~13:00・14:00~20:00 火9:00~13:00・14:00~19:00 木9:00~12:00 土9:00~13:00,有,070-3625-6450,
シオン薬局,122041,千葉県,船橋市,35.69294,140.021362,047-479-2011,047-479-1758,274-0825,船橋市前原西2-13-2,月・水・金9:00~19:00  火9:00~18:00 木・土9:00~17:00,有,080-8098-1515,
ステラ薬局,122041,千葉県,船橋市,35.692684,140.019394,047-471-7411,047-471-7471,274-0825,船橋市前原西2-7-6,月~土9:00~18:30,有,047-471-7411,
ウエルシア薬局船橋前原駅前店,122041,千葉県,船橋市,35.701767,140.028275,047-490-1737,047-490-1738,274-0825,船橋市前原西8-1-1,月~金9:00~20:00 土9:00~19:00 日9:00~13:00・14:00~18:00 祝9:00~13:00・14:00~19:00,無,,
前原グリ-ン薬局,122041,千葉県,船橋市,35.699257,140.018982,047-402-4128,047-402-4129,274-0825,船橋市前原西6-1-22,月~金8:30~12:00・13:30~18:30 土8:30~13:00,無,,
あゆみ薬局東習志野店,122165,千葉県,習志野市,35.692726,140.067764,047-411-4368,047-411-4369,275-0001,習志野市東習志野2-7-9,月火木金9:00~18:15 水9:00~17:30 土9:00~12:45,有,047-411-4368,
ウエルシア薬局習志野実籾店,122165,千葉県,習志野市,35.690578,140.070374,047-403-9952,047-403-9953,275-0001,習志野市東習志野3-1-24,月~金9:00~20:00 土・日9:00~19:00 祝9:00~13:00・14:00~19:00,有,047-403-9952,
アイン薬局習志野店,122165,千葉県,習志野市,35.691151,140.055191,047-470-1291,047-470-1292,275-0006,習志野市泉町3-1-15 ファ-ストエイド24-1階,月火木金8:30~18:30 水9:00~18:00 土8:30~17:00,有,047-470-1291,
薬局くすりの福太郎京成大久保駅前店,122165,千葉県,習志野市,35.686127,140.047318,047-403-1029,047-407-0826,275-0011,習志野市大久保1-22-4,月・水・金9:00~19:30 木・土9:00~17:00火9:00~18:30,無,,
いずみ薬局,122165,千葉県,習志野市,35.688553,140.05542,047-471-5871,047-471-5871,275-0011,習志野市大久保2-14-19 フィオ-レ大久保,月~水・金9:00~18:30 木9:00~17:00 土9:00~13:00,有,090-7715-6110,
オオクボ薬局,122165,千葉県,習志野市,35.688103,140.050537,047-475-0006,047-471-4117,275-0011,習志野市大久保1-26-18,月~土9:00~18:00 祝日休業,無,,
フラワ-薬局,122165,千葉県,習志野市,35.691849,140.047104,047-471-0015,047-471-0035,275-0011,習志野市大久保3-2-11,月~金9:00~18:00 土9:00~13:00,無,,
和光薬局大久保店,122165,千葉県,習志野市,35.686058,140.048767,047-470-2015,047-470-2016,275-0012,習志野市大久保1-23-16,月~水・金9:00~19:00 木9:00~18:00 土9:00~13:00,有,080-2051-5465,
みずき薬局 大久保店,122165,千葉県,習志野市,35.685402,140.049164,047-402-3622,047-402-3623,275-0012,習志野市本大久保3-9-16 東光ビル102号室,月~金9:00~18:00 土9:00~12:30,有,090-5190-7744,
コクミン薬局習志野店,122165,千葉県,習志野市,35.681694,140.025787,047-455-1593,047-455-1593,275-0016,習志野市津田沼5-14-4 水上ビル1階,月~金8:30~18:00土8:30~14:00,無,,
さくら薬局津田沼駅前店,122165,千葉県,習志野市,35.69059,140.021637,047-455-7131,047-455-7132,275-0016,習志野市津田沼1-2-9 第2織戸ビル1階,月・火・木・金9:00~19:00 水・土9:00~17:00,有,047-455-7131,
スワン薬局津田沼店,122165,千葉県,習志野市,35.679924,140.023346,047-456-8441,047-456-8442,275-0016,習志野市津田沼6-14-23,月・火・木・金9:00~18:30 水9:00~17:00 土9:00~13:00,無,,
めぐみ薬局 津田沼店,122165,千葉県,習志野市,35.681396,140.026077,047-409-2547,047-409-2548,275-0016,習志野市津田沼5丁目5番26号,月~金9:00~17:30 土8:30~14:00,有,080-8722-0658,
コクミン薬局習志野南店,122165,千葉県,習志野市,35.681561,140.025818,047-408-0593,047-408-0593,275-0016,習志野市津田沼5-5-24,月~金8:00~19:00 土7:30~16:00,無,,
ひまわり薬局,122165,千葉県,習志野市,35.68856,140.027328,047-403-4193,047-403-6680,275-0016,習志野市津田沼3-23-12,月~水・金9:00~18:00 木9:00~17:00 土9:00~13:00,無,,
ハ-ト調剤薬局習志野店,122165,千葉県,習志野市,35.694996,140.036484,047-455-8385,047-455-8386,275-0017,習志野市藤崎3-25-13,月・火・木・金9:00~18:00 水・土9:00~17:00,有,047-455-8385,
大武薬局,122165,千葉県,習志野市,35.671078,140.02652,047-452-7985,047-453-1193,275-0021,習志野市袖ケ浦5-7-6,月9:00~19:00/火9:00~19:00/水9:00~19:00/木9:00~19:00/金9:00~19:00/土9:00~17:00,有,090-4011-0313,
あけぼの薬局習志野店,122165,千葉県,習志野市,35.671375,140.027939,047-455-0271,047-555-0272,275-0021,習志野市袖ケ浦4-17-2,月火木金9:00~18:30 水9:00~17:30 土9:00~12:30,無,,
ヤックスドラッグ津田沼薬局,122165,千葉県,習志野市,35.676109,140.019272,047-452-6568,047-452-6568,275-0021,習志野市袖ケ浦3-5-3,月~土9:00~13:00・14:00~18:00,無,,
三代川薬局,122165,千葉県,習志野市,35.678543,140.014343,047-454-1033,047-542-9822,275-0021,習志野市袖ケ浦1-18-11,水10:00~17:00,無,,
あけぼの薬局香澄店,122165,千葉県,習志野市,35.666508,140.026535,047-408-3650,047-452-7572,275-0022,習志野市香澄2-10-25,月~水・金9:00~18:00 木9:00~17:00 土9:00~13:00,有,080-2111-8128,
株式会社横須賀薬局谷津薬局,122165,千葉県,習志野市,35.687172,140.018951,047-471-0800,047-471-0988,275-0026,習志野市谷津1-14-2,月~土9:00~19:00 日曜祝日・年末年始休業,無,,
桃太郎薬局新やつ店,122165,千葉県,習志野市,35.684696,140.007477,047-408-1189,047-408-1093,275-0026,習志野市谷津4-6-26,月~金9:00~18:00 土9:00~15:00,有,047-408-1189,
日本調剤谷津薬局,122165,千葉県,習志野市,35.685257,140.007034,047-408-3901,047-408-3904,275-0026,習志野市谷津4-6-19,月~金9:00~18:00土9:00~15:00日9:30~12:30,有,090-2524-1620,
ダイエ-モリシア津田沼店薬局,122165,千葉県,習志野市,35.689732,140.019104,047-403-5360,047-403-5370,275-0026,習志野市谷津1-16-1,年中無休10:00~20:00,無,,
つぐみ薬局,122165,千葉県,習志野市,35.687172,140.018951,047-470-8320,047-470-8321,275-0026,習志野市谷津1-14-2,月~金9:00~18:00 土9:00~16:00,有,047-470-8320,
津田沼ザ・タワ-薬局,122165,千葉県,習志野市,35.689186,140.018448,047-456-8717,047-456-8727,275-0026,習志野市谷津1-15-22 津田沼ザ・タワ-1階,月~金9:00~18:00 土9:00~13:00,有,047-456-8717,
あけぼの薬局津田沼店,122165,千葉県,習志野市,35.688095,140.015213,047-470-1812,047-470-1827,275-0028,習志野市奏の杜3-3-13,月~金9:00~18:30 土9:00~14:00,有,080-2111-8127,
ファ-コス薬局なしのき,122211,千葉県,八千代市,35.763767,140.090195,047-488-8132,047-488-8186,276-0004,八千代市島田台字島田道858-5,火~土9:00~17:30,有,047-488-8132,
アイン薬局新八千代店,122211,千葉県,八千代市,35.750927,140.113541,047-480-5630,047-480-5670,276-0015,八千代市米本1545-21,月~土9:00~18:00,無,,
あやめ薬局勝田台店,122211,千葉県,八千代市,35.716812,140.125366,047-455-8503,047-455-8553,276-0020,八千代市勝田台北1-2-7 プランド-ル勝田台101号,月・金9:00~19:00 火~木9:00~17:35 土9:00~17:30,有,047-455-8503,
すずらん薬局,122211,千葉県,八千代市,35.716145,140.124146,047-483-5628,047-483-5628,276-0020,八千代市勝田台北1-7-12,月・火・木・金9:00~19:00  水・土9:00~18:00,有,090-3542-9470,
ダイワ薬局ふれあい店,122211,千葉県,八千代市,35.717678,140.126373,047-482-8931,047-482-8269,276-0020,八千代市勝田台北3-5-4,月~水・金9:00 ~18:30 木9:00~18:00 土9:00~12:30,無,,
勝田台フレンド薬局,122211,千葉県,八千代市,35.715317,140.122971,047-487-8970,047-487-8970,276-0020,八千代市勝田台北1-20-1,月・金9:30~12:00・15:30~18:00 火・木・土9:30~12:00,無,,
ウエルシア薬局勝田台店,122211,千葉県,八千代市,35.711456,140.128967,047-487-1702,047-487-1724,276-0023,八千代市勝田台2-12-2,月~日9:00~24:00,有,090-6181-4794,
勝田台薬局,122211,千葉県,八千代市,35.713085,140.127197,047-407-4970,047-407-4971,276-0023,八千代市勝田台1-37-6,月・水・金9:00~19:30 火・木9:00~18:00 土9:00~16:00,有,080-9552-3556,
みずき薬局 勝田台店,122211,千葉県,八千代市,35.713306,140.130005,047-411-7053,047-411-7054,276-0023,八千代市勝田台7丁目26-38,月・火・木・金9:00~18:30 水9:00~17:00 土9:00~12:30,有,080-9979-9001,
友愛薬局勝田台店,122211,千葉県,八千代市,35.705845,140.125656,047-486-1611,047-486-6611,276-0023,八千代市勝田台3-44-2,月~金9:00~18:00 土9:00~13:00,無,,
さくら薬局八千代村上南店,122211,千葉県,八千代市,35.720509,140.119308,047-405-7177,047-405-7178,276-0029,八千代市村上南5-5-18,月・火9:00~18:30 水9:00~17:00 木~土9:00~18:30,無,,
タカダ薬局村上店,122211,千葉県,八千代市,35.723492,140.117722,047-481-4189,047-481-4193,276-0029,八千代市村上南1-5-25 カセイビル1階,月~水・金8:00~18:30 木9:00~18:30 土8:00~17:00,無,,
薬局メディクス村上店,122211,千葉県,八千代市,35.723492,140.117722,047-480-2703,047-480-2707,276-0029,八千代市村上南1-5-28 SYMTHEBUILDING1-1,月~水・金9:00~19:00 木・土9:00~17:00,無,,
あきの薬局,122211,千葉県,八千代市,35.705353,140.089828,047-487-5556,047-487-5330,276-0031,八千代市八千代台北5-8-16,月・水~金9:00~18:00 火9:00~17:00 土9:00~12:30,有,090-4674-8983,
オオトモ薬局 八千代台店,122211,千葉県,八千代市,35.701916,140.090195,047-483-5874,047-483-5874,276-0031,八千代市八千代台北1-2-5,月9:00~18:00/火9:00~18:00/水9:00~18:00/木9:00~18:00/金9:00~18:00/土9:00~12:30,nan,,
オリビエ薬局八千代台店,122211,千葉県,八千代市,35.70525,140.089401,047-407-3175,047-407-3176,276-0031,八千代市八千代台北6-11-14,月・水・金9:00~20:00  火・木・土9:00~17:00,無,,
チバ薬局,122211,千葉県,八千代市,35.70525,140.089401,047-482-1843,047-482-8336,276-0031,八千代市八千代台北6-11-20,月・水・金9:00~20:00 火・木9:00~18:00 土9:00~17:00,有,047-482-1843,
鈴薬局八千代台店,122211,千葉県,八千代市,35.702644,140.091736,047-487-6838,047-487-6828,276-0031,八千代市八千代台北1-7-6 八千代台MKビル1階,月・木8:40~19:00 火・金・土8:00~19:00 水8:00~16:00,有,080-2074-4343,
八千代調剤薬局,122211,千葉県,八千代市,35.704525,140.092819,047-483-6663,047-483-4956,276-0031,八千代市八千代台北3-3-12,月・水・金9:00~18:00 火9:00~17:00 土9:00~13:00,無,,
エンゼル薬局,122211,千葉県,八千代市,35.701374,140.088547,047-405-4888,047-405-4889,276-0032,八千代市八千代市八千代台東1-21-22,月・火・木・金9:00~18:00 水9:00~17:00 土9:00~14:00,有,047-405-4888,
千寿堂薬局,122211,千葉県,八千代市,35.703556,140.097733,047-481-3258,047-481-3258,276-0032,八千代市八千代台東3-5-2,月~土9:00~19:00,有,080-6569-6769,
ウエルシア薬局八千代台東店,122211,千葉県,八千代市,35.699657,140.094681,047-480-6181,047-480-6182,276-0032,八千代市八千代台東2-7-1,月~金9:00~20:00 土9:00~19:00,無,,
あきの薬局南店,122211,千葉県,八千代市,35.697678,140.092896,047-480-2063,047-480-2062,276-0033,八千代市八千代台南2-2-17,月~金9:00~18:00 土9:00~17:00,有,090-6041-0417,
オレンジ薬局,122211,千葉県,八千代市,35.700119,140.091339,047-486-0583,047-486-0584,276-0033,八千代市八千代台南1-3-4,月・水・木・土9:00~19:00 火・金9:00~18:00,有,080-7284-1286,
アイセイ薬局八千代台店,122211,千葉県,八千代市,35.697296,140.082916,047-481-3655,047-484-1185,276-0034,八千代市八千代台西9-2-20,月・金9:00~20:00 火・木9:00~19:00 水9:00~18:00 土9:00~13:30,有,047-481-3655,
ウエルシア八千代台薬局,122211,千葉県,八千代市,35.69762,140.083145,047-484-2252,047-484-2253,276-0034,八千代市八千代台西9-1-16,月~土9:00~19:00 日祝9:00~13:00・14:00~19:00,有,080-7620-3781,
あけぼの薬局高津店,122211,千葉県,八千代市,35.717117,140.072952,047-480-3701,047-480-3703,276-0036,八千代市高津850-92,月・水・金9:00~18:30 火・木9:00~17:00 土9:00~13:00,有,080-2111-8122,
薬局くすりの福太郎八千代高津店,122211,千葉県,八千代市,35.718658,140.085983,047-458-7929,047-458-7929,276-0036,八千代市高津694-1,月・火・木・金9:00~18:00水・土9:00~13:00,無,,
八千代緑が丘薬局,122211,千葉県,八千代市,35.739498,140.07045,047-456-8709,047-456-8708,276-0040,八千代市緑が丘西4-10-1-101,月~金9:00~18:00 土9:00~13:00,有,047-456-8709,
I&H八千代中央薬局,122211,千葉県,八千代市,35.728748,140.102036,047-406-3620,047-406-3621,276-0042,八千代市ゆりのき台3丁目5番2号ユウセイモ-ル1階,月9:00~19:00/火9:00~19:00/水9:00~19:00/木9:00~19:00/金9:00~19:00/土9:00~13:00,nan,,
あおぞら薬局,122211,千葉県,八千代市,35.726761,140.104568,047-486-2520,047-486-2521,276-0042,八千代市ゆりのき台1-2-3,月9:00~19:00/火9:00~19:00/水9:00~19:00/木9:00~18:00/金9:00~19:00/土9:00~17:00,有,047-486-2520,
なの花薬局八千代中央店,122211,千葉県,八千代市,35.728424,140.104965,047-480-6094,047-480-6093,276-0042,八千代市ゆりのき台4-1-8,月~水・金9:00~19:00木9:00~18:00土9:00~13:00,無,,
オリ-ブ薬局ゆりのき店,122211,千葉県,八千代市,35.730553,140.104172,047-480-8588,047-480-8588,276-0042,八千代市ゆりのき台5-1-4 アルパ1F,月・火・木・金9:00~20:00 水・土9:00~19:00,有,090-4452-1742,
わかば薬局,122211,千葉県,八千代市,35.724125,140.104813,047-407-3715,047-407-3718,276-0043,八千代市萱田2247-14,月9:00~18:00/火9:00~17:00/水9:00~18:00/木9:00~18:00/金9:00~17:00/土9:00~14:00,有,047-407-3715(転送にて対応),
薬局タカサ八千代中央店,122211,千葉県,八千代市,35.727295,140.098022,047-489-4645,047-459-6488,276-0044,八千代市萱田町535-11,月~土9:00~18:00,有,047-489-4645,
こだま薬局,122211,千葉県,八千代市,35.715004,140.105087,047-481-5088,047-481-5087,276-0045,八千代市大和田1002-3,月~金9:00~13:00、14:00~18:00火9:00~13:00、14:00~20:00土9:00~12:00,無,,
ヤックスドラッグ大和田薬局,122211,千葉県,八千代市,35.722267,140.09787,047-455-3038,047-455-3039,276-0046,八千代市大和田新田326-6,月~土9:00~18:00,無,,
つつじ薬局八千代店,122211,千葉県,八千代市,35.722805,140.094315,047-480-3005,047-480-3078,276-0046,八千代市大和田新田375-2,月・火・木・金8:30~18:30 水8:30~16:30 土8:30~13:00,有,080-7009-3413,
めぐみ薬局 アルファ-店,122211,千葉県,八千代市,35.721989,140.074753,047-450-2342,047-429-8040,276-0046,八千代市大和田新田59番地128,月~水・金9:00~18:00 木・土9:00~17:00,有,080-8722-0657,
日本調剤八千代薬局,122211,千葉県,八千代市,35.732067,140.097397,047-459-6831,047-459-6832,276-0046,八千代市大和田新田501-2,月~金9:00~18:00土9:00~13:00第3土9:00~12:00日・祝休み,有,090-1115-9457,
有限会社オリ-ブ薬局,122211,千葉県,八千代市,35.724487,140.075562,047-480-3388,047-480-3388,276-0046,八千代市大和田新田975-3,月~水・金9:00~20:00 木・土9:00~18:00(日祝休み),有,090-4452-1742,
ウエルシア薬局八千代緑が丘店,122211,千葉県,八千代市,35.722141,140.070648,047-480-3560,047-480-3561,276-0046,八千代市大和田新田1031-1,月~土9:00~19:00,無,,
小澤薬局,122211,千葉県,八千代市,35.72612,140.08197,047-458-1400,047-458-1400,276-0046,八千代市大和田新田917-1,月~金9:00~19:00 土9:00~17:30,有,047-458-1400,
八千代中央薬局,122211,千葉県,八千代市,35.727715,140.095078,047-458-8951,047-458-8953,276-0046,八千代市大和田新田477-145,年中無休8:00~24:00,無,,
薬局くすりの福太郎緑が丘店,122211,千葉県,八千代市,35.730675,140.076553,047-458-7829,047-458-7829,276-0049,八千代市緑が丘1-1104-3,月・火・木・金9:00~19:00水10:00~18:00土9:00~17:00,無,,
緑が丘中央薬局,122211,千葉県,八千代市,35.726353,140.070374,047-480-0530,047-480-0531,276-0049,八千代市緑が丘2-2-10 秋葉緑が丘ビル101号室,月・火・木・金9:00~18:00 水・土9:00~17:30 日祝日9:00~12:30,有,070-6948-5820,
リ-セントヒルズ薬局,122211,千葉県,八千代市,35.72768,140.075699,047-489-4360,047-489-4370,276-0049,八千代市緑ヶ丘3-1-1,月・火・金・土10:00~19:00 水10:00~13:00・15:00~19:00 木10:00~17:00,無,,
アイン薬局北柏店,122173,千葉県,柏市,35.868954,139.984558,04-7168-8911,04-7168-8912,277-0004,柏市柏下153-2,月~土9:00~18:00,無,,
あさひ薬局,122173,千葉県,柏市,35.871387,139.984055,04-7160-1011,04-7163-1193,277-0004,柏市柏下276-5,月~土8:30~17:30,有,04-7160-1011,
オレンジ薬局,122173,千葉県,柏市,35.871387,139.984055,04-7165-1650,04-7165-1651,277-0004,柏市柏下278-1,月~土9:00~17:30,有,04-7165-1650,
さくら薬局柏下店,122173,千葉県,柏市,35.870007,139.983795,04-7160-2530,04-7160-2520,277-0004,柏市柏下字東155,月~金9:00~18:00 土9:00~17:30,無,,
ヤックスドラッグ北柏薬局,122173,千葉県,柏市,35.868954,139.984558,04-7197-5570,04-7197-5571,277-0004,柏市柏下158,月~土9:00~18:00,有,04-7197-5570,
アイン薬局慈恵柏病院前店,122173,千葉県,柏市,35.868954,139.984558,04-7168-8180,04-7168-8183,277-0004,柏市柏下154,月~土9:00~18:00,有,04-7168-8180,
ハ-ブランド薬局柏3丁目店,122173,千葉県,柏市,35.860477,139.974792,04-7166-1515,04-7166-1182,277-0005,柏市柏3-6-21柏ビル101,月・火・木・金9:00~19:00水・土9:00~18:00,無,,
ハ-ブランド薬局本店,122173,千葉県,柏市,35.860798,139.970459,04-7163-2532,04-7163-4500,277-0005,柏市柏1-1-7,月・水9:00~19:00火・木・金9:00~20:00土:9:00~18:00,無,,
ファ-コス薬局イルカ,122173,千葉県,柏市,35.863586,139.974197,04-7160-4477,04-7162-4478,277-0005,柏市柏4-6-25YKビル1階,月~土 9:00~18:00,有,04-7160-4477,
フロ-ラ薬局柏駅前店,122173,千葉県,柏市,35.863136,139.973846,04-7166-7311,04-7166-7397,277-0005,柏市柏4-4-17,月・火・木・金9:00~18:00 水9:00~17:00 土9:00~14:00,無,,
薬局メディクス柏店,122173,千葉県,柏市,35.859245,139.974823,04-7160-2323,04-7160-2322,277-0005,柏市柏3-3-19,月・火・金・土8:30~18:00 水8:30~19:00 木9:00~17:00,有,070-6421-7980,
よろづ屋薬局柏店,122173,千葉県,柏市,35.857468,139.9767,04-7167-2075,04-7167-2079,277-0014,柏市東1-2-4 ワコ-マンション1-A号,月・火・木・金9:00~18:00 水9:00~17:00 土9:00~12:30,有,090-4757-5859,
ハ-ブランド薬局中央店,122173,千葉県,柏市,35.856647,139.970856,04-7165-0123,04-7162-1223,277-0023,柏市中央2-2-8,月~土9:00~18:00,有,090-2627-0598,
若葉薬局,122173,千葉県,柏市,35.853821,139.970108,04-7166-7765,04-7166-7895,277-0024,柏市若葉町6-2 みずきハイツ1階,月~金9:00~18:00 土9:00~13:00,有,04-7166-7765,
薬局タカサ オアシス柏店,122173,千葉県,柏市,35.8535,139.97641,047-167-6351,047-167-6352,277-0025,柏市千代田3-8-7,月~金9:00~18:00 土9:00~13:00,有,047-167-6351,
薬局タカサオアシス柏店,122173,千葉県,柏市,35.8535,139.97641,04-7167-6351,04-7167-6352,277-0025,柏市千代田3-8-7 ヴィヌス柏1階,月~金9:00~18:00 土9:00~13:00,有,04-7167-6351,
きっこう台薬局,122173,千葉県,柏市,35.848343,139.982162,04-7160-3063,04-7160-3062,277-0031,柏市亀甲台町1-6-23,月~金8:30~18:00 土8:30~14:00,有,090-3538-0135,
アイン薬局柏名戸ヶ谷店,122173,千葉県,柏市,35.845005,139.982666,04-7197-1852,04-7197-1853,277-0032,柏市名戸ケ谷689-1,月~金9:00~17:30 土日祝:休,有,04-7197-1852,
ウエルシア薬局柏名戸ケ谷店,122173,千葉県,柏市,35.84256,139.982147,04-7165-7776,04-7165-7778,277-0032,柏市名戸ケ谷857-4,月~日9:00~24:00,無,,
こばと薬局,122173,千葉県,柏市,35.801788,139.974579,04-7174-8936,04-7128-8255,277-0043,柏市南逆井4-10-2,月~水・金9:00~18:00 木9:00~17:00 土9:00~13:00 時間外は応相談,有,04-7174-8936,
サンフラワ-薬局,122173,千葉県,柏市,35.824715,139.985062,04-7169-6200,04-7169-6201,277-0045,柏市東逆井1-22-1,月~水・金9:00~18:30 木9:00~17:00 土9:00~12:30,有,090-1281-1073,
加賀調剤薬局,122173,千葉県,柏市,35.830624,139.974915,04-7175-3150,04-7136-2766,277-0051,柏市加賀3-19-4,月~水・金9:00~18:00 木9:00~17:00 土9:00~14:00,有,04-7175-3150,
ウエルシア薬局柏酒井根,122173,千葉県,柏市,35.82082,139.971558,04-7170-5146,04-7170-5147,277-0053,柏市酒井根2-37-5,月~土9:00~22:00 日・祝9:00~14:00・15:00~18:00,無,,
ウエルシア薬局柏南増尾店,122173,千葉県,柏市,35.811501,139.958054,04-7160-7620,04-7160-7620,277-0054,柏市南増尾8-3-31,月~土9:00~20:00 日・祝9:00~14:00・15:00~20:00,有,070-1428-5012,
フォレスト薬局,122173,千葉県,柏市,35.828831,139.957565,04-7171-4901,04-7171-4902,277-0062,柏市光ケ丘団地4-200,月~金9:00~18:00 土9:00~14:30,有,080-7647-1367,
つくし薬局光ケ丘店,122173,千葉県,柏市,35.82822,139.957352,04-7170-5112,04-7170-5113,277-0065,柏市光ケ丘2-18-18,月~金9:00~18:00 土9:00~15:00,無,,
ヤックスドラッグ柏光ヶ丘薬局,122173,千葉県,柏市,35.826912,139.954041,04-7189-8891,04-7189-8892,277-0065,柏市光ケ丘2-23-1,月~土9:00~13:00・14:00~18:00,無,,
光ヶ丘薬局,122173,千葉県,柏市,35.8302,139.955811,04-7197-5088,04-7197-5087,277-0065,柏市光ケ丘2-3-10,月~金9:00~18:00 土9:00~15:00,有,04-7197-5088,
みどり薬局,122173,千葉県,柏市,35.838036,139.958832,04-7171-1161,04-7171-1162,277-0071,柏市豊住1-1-4,月~水・金9:00~18:30 土9:00~16:30,無,,
つくし薬局,122173,千葉県,柏市,35.835102,139.962646,04-7172-5316,04-7174-2316,277-0072,柏市つくしが丘2-4-14,月~土9:00~18:30,有,090-1539-9576,
フロ-ラ薬局柏店,122173,千葉県,柏市,35.831112,139.967194,04-7160-5322,04-7160-5323,277-0072,柏市つくしが丘5-9-16,月~水・金9:00~17:30 木10:00~18:00 土9:00~14:00,無,,
イオックス薬局南柏店,122173,千葉県,柏市,35.841576,139.955017,04-7160-0010,04-7160-0011,277-0074,柏市今谷上町45-23,月・火・木~土9:00~18:30 水9:00~17:00 日9:00~13:00,無,,
アイセイ薬局南柏駅前店,122173,千葉県,柏市,35.843315,139.953384,04-7170-8222,04-7170-8248,277-0075,柏市南柏中央2-9,月・水~金8:30~19:00 火8:30~16:30 土8:30~12:45,無,,
ハ-ブランド薬局南柏店,122173,千葉県,柏市,35.843601,139.954025,04-7160-0082,04-7160-0086,277-0075,柏市南柏中央3-10,月~水・金9:00~19:00木・土9:00~18:00,無,,
アイセイ薬局南柏店,122173,千葉県,柏市,35.844345,139.954147,	04-	7171-	5522,nan,277-0075,柏市南柏中央1-6宇佐美ビル1F,平日;9:00-19:00土曜日;9:00-16:00日曜日;9:00-12:00祝日定休,有,	04-	7171-	5522,
さくら薬局新柏店,122173,千葉県,柏市,35.839211,139.968597,04-7160-3188,04-7160-3189,277-0084,柏市新柏1-1810-3,月~土9:00~18:00 日祝休み,有,04-7160-3188,
なの花薬局柏店,122173,千葉県,柏市,35.840088,139.967896,04-7165-1252,04-7165-1251,277-0084,柏市新柏1-13-9,月・水~金9:00~19:00火9:00~17:00土9:00~14:00,無,,
