施設_名称,施設_市区町村コード,住所_都道府県,住所_市区町村（郡）,住所_緯度,住所_経度,連絡先_電話番号,連絡先_FAX番号,連絡先_郵便番号,連絡先_住所,施設_開局時間,時間外_対応の有無,時間外_電話番号,エラー
たんぽぽ薬局羽津店,242020,三重県,四日市市,34.988655,136.627869,059-330-5530,059-334-0078,510-0016,四日市市羽津山町1118-3,月~金8:30~17:30 土13:00~17:00,有,059-330-5530,
フラワ-薬局羽津山店,242020,三重県,四日市市,34.989384,136.625198,059-330-6161,059-330-6166,510-0016,四日市市羽津山町5-1,月~金8:30~18:00 土9:00~12:00,有,090-5603-3297,
藤戸薬局,242020,三重県,四日市市,34.961353,136.616714,059-354-1292,059-354-0830,510-0066,四日市市南浜田町4-6,月~水・金9:00~18:00木土9:00~13:00,有,090-3589-4800,
エンゼル薬局四日市駅前店,242020,三重県,四日市市,34.96788,136.617554,059-350-8887,059-350-8887,510-0075,四日市市安島1-2-19W.Eビル5F,火~金9:00~18:00  土9:00~12:00,有,090-9220-2992,
フラワ-薬局四日市駅前店,242020,三重県,四日市市,34.966427,136.619766,059-351-8899,059-353-4155,510-0086,四日市市諏訪栄町6-3愛汗ビル1階,月~金8:30~18:30  土8:30~17:00,有,090-2770-4266,
おぐら薬局,242020,三重県,四日市市,34.923531,136.629059,059-358-1622,059-358-1623,510-0101,四日市市楠町小倉六之縄767-2,月~水・金9:00~19:30 木8:00~16:00  土9:00~12:30,有,059-358-1622,
ウェルネス薬局五味塚店,242020,三重県,四日市市,34.908691,136.631165,059-340-5198,059-340-5199,510-0104,四日市市楠町南五味塚1306-2,月~水・金9:00-18:00木8:30~16:30  土9:00-12:00,有,059-340-5198,
エ-ル調剤薬局鈴鹿店,242071,三重県,鈴鹿市,34.840939,136.567551,059-388-1010,059-388-0010,510-0203,鈴鹿市野村町169-3,月~金9:00~19:20 土9:00~17:20,有,059-388-1010,
スズカ調剤薬局稲生店,242071,三重県,鈴鹿市,34.840157,136.56279,059-386-0006,059-386-0008,510-0205,鈴鹿市稲生4-14-20,月~水・金9:00~18:00  木9:00~17:00  土9:00~13:00,有,059-386-0006,
ファ-マライズ薬局鈴鹿店,242071,三重県,鈴鹿市,34.850304,136.507858,059-370-3770,059-370-3780,510-0211,鈴鹿市国府町井口57-21,月~金9:00~18:00 土9:00~13:00,有,059-370-3770(転送),
旭が丘調剤薬局,242071,三重県,鈴鹿市,34.845387,136.577362,059-380-5700,059-380-5701,510-0211,鈴鹿市東旭が丘3-2-8,月~水・金8:30~18:00木8:30~17:00 土8:30~12:30,有,059-380-5700,
けやき調剤薬局,242071,三重県,鈴鹿市,34.851082,136.572266,059-380-6770,059-380-6771,510-0211,鈴鹿市東旭が丘1-6-19,月~金9:00~19:00土9:00~13:00,有,090-1945-4247,
健やか薬局野町店,242071,三重県,鈴鹿市,34.849819,136.569824,059-380-1700,059-368-0765,510-0217,鈴鹿市野町東2-4-30,月~水・金8:30~18:00 木8:30~16:30 土8:30~13:00,有,090-6386-1978,
玉村薬局若松店,242071,三重県,鈴鹿市,34.867672,136.617813,059-395-0090,059-395-0091,510-0223,鈴鹿市若松北1-36-24,月水金8:30~18:00 火木8:30~17:00  土8:30~12:00,有,090-3458-1326,
ちよざき調剤薬局,242071,三重県,鈴鹿市,34.858021,136.602524,059-384-8000,059-384-8009,510-0226,鈴鹿市岸岡町577-4,月~金8:30~18:00  土9:00~12:00,有,090-9120-5741,
岸岡調剤薬局,242071,三重県,鈴鹿市,34.850414,136.591904,059-388-0114,059-388-0797,510-0226,鈴鹿市岸岡町3437,月~水・金9:00~19:00 木9:00~17:00 土9:00~13:00,有,059-388-0114,
ジップドラッグ白子薬局,242071,三重県,鈴鹿市,34.844799,136.602112,059-388-7785,059-388-7786,510-0227,鈴鹿市南若松町237-1,月~水・金9:00~19:00木9:00~17:00 土9:00~13:00,有,080-3532-9265,
みつば調剤薬局,242071,三重県,鈴鹿市,34.838593,136.589737,059-380-2088,059-380-2089,510-0235,鈴鹿市南江島町23-2,月~水・金9:00~19:00木9:00~17:00  土9:00~13:00   日・祭日休,有,090-6597-3733,
スズカ調剤薬局,242071,三重県,鈴鹿市,34.837971,136.590607,059-388-2626,059-386-0931,510-0235,鈴鹿市南江島町14-1,月~水・金8:30~18:30 木9:00~17:00  土8:30~17:30,有,059-388-2626,
スズカ調剤薬局白子店,242071,三重県,鈴鹿市,34.839249,136.592773,059-368-3939,059-368-3929,510-0235,鈴鹿市南江島町8-5,月~金9:00-18:00 土9:00~17:00,有,059-368-3939,
フラワ-薬局白子店,242071,三重県,鈴鹿市,34.832142,136.588455,059-386-4079,059-387-7855,510-0243,鈴鹿市白子1-1-7,月~水・金8:45~18:30土8:45~17:00,有,080-1618-1070,
じけ調剤薬局,242071,三重県,鈴鹿市,34.824631,136.58223,059-368-3600,059-368-3601,510-0254,鈴鹿市寺家4-18-16,月~水・金8:30~18:30木 8:30~16:30土 8:30~12:30,有,090-1945-4247,
磯山調剤薬局,242071,三重県,鈴鹿市,34.81493,136.574448,059-380-1100,059-380-1101,510-0257,鈴鹿市東磯山3-19-27,月~水・金9:00~18:30 木9:00~17:00  土8:30~12:30,有,059-380-1100,
健やか薬局郡山店,242071,三重県,鈴鹿市,34.812626,136.538696,059-392-8300,059-392-8301,510-0263,鈴鹿市郡山町2001-35,月・火・水・金 8:30~18:00土 8:30~12:00,有,059-392-8300,
たんぽぽ薬局河芸店,242012,三重県,津市,34.781158,136.542297,059-244-2081,059-245-6402,510-0303,"津市河芸町大字東千里7-2,16-2",月~水・金9:00~19:00木・土9:00~17:00,有,059-244-2081,
なの花薬局ちさと店,242012,三重県,津市,34.802197,136.559891,059-244-1155,059-244-1156,510-0303,津市河芸町東千里字大橋259-3,月~水・金9:00~19:00 土9:00~17:30,有,059-244-1155,
あおぞら薬局,242012,三重県,津市,34.801262,136.557526,059-271-7725,059-271-7726,510-0303,津市河芸町東千里155-1,月~金9:00~18:00水9:00~17:00土9:00~13:00,有,059-271-7725,
なの花薬局河芸店,242012,三重県,津市,34.786835,136.542084,059-244-0001,059-244-0002,510-0305,津市河芸町中別保314-4,月~水・金土8:30~18:30 木9:00~16:30,有,059-224-0001,
なの花薬局清水店,242020,三重県,四日市市,34.980118,136.614792,059-331-8008,059-331-5700,510-0814,四日市市清水町1-11 サンモ-ル清水,月~水・金9:00~18:30木9:00~17:00 土9:00~12:30,有,059-331-8008,
スギヤマ薬局久保田店,242020,三重県,四日市市,34.97316,136.607101,059-350-2100,059-350-2128,510-0821,四日市市久保田1-6-56,月~土9:00~20:00,有,080-2603-8095,
ダリヤ四日市薬局,242020,三重県,四日市市,34.972557,136.607925,059-350-5252,059-350-5253,510-0821,四日市市久保田1丁目3-10,月~金9:00~18:00,有,090-6598-2866,
エンゼル薬局四日市中央店,242020,三重県,四日市市,34.965309,136.610535,059-327-5201,059-327-5202,510-0823,四日市市城北町40-2,月火9:00~19:00水木金9:00~18:00 土9:00~14:00,有,090-3582-4733,
スギヤマ薬局ときわ店,242020,三重県,四日市市,34.965202,136.601151,059-350-8878,059-350-8872,510-0829,四日市市城西町15-38,月~金9:00~19:00,有,059-350-8874,
たんぽぽ薬局四日市中央店,242020,三重県,四日市市,34.972141,136.604706,059-350-3077,059-353-4877,510-0832,四日市市伊倉1-69-1,月~金8:30~17:30土祝10:30~15:30,有,059-350-3077,
ナカムラ薬局ときわ店,242020,三重県,四日市市,34.964115,136.599625,059-355-5676,059-355-5680,510-0834,四日市市ときわ5-1-19,月・火・水・金 8:45~18:00土 8:45~17:00,有,080-4924-1835,
らいおん調剤薬局,242020,三重県,四日市市,34.969254,136.589859,059-350-1600,059-350-1605,510-0836,四日市市松本3-10-28,30,有,059-350-1600,
さんあい薬局株式会社河原田店,242020,三重県,四日市市,34.914864,136.596313,059-329-7510,059-329-7271,510-0874,四日市市河原田町2360-4,月水木金8:45~19:00火8:45~16:45土8:45~12:45,有,059-329-7510,
健やか薬局とまり店,242020,三重県,四日市市,34.941788,136.600113,059-349-0666,059-349-0667,510-0884,四日市市泊町2-31,月火金8:45~19:15 水8:45~20:15 木8:45~16:45 土8:45~14:00,有,059-349-0666,
なの花薬局日永西店,242020,三重県,四日市市,34.944271,136.596527,059-346-8989,059-346-8988,510-0891,四日市市日永西5-523,月~水・金9:00~19:00木9:00~17:00 土9:00~13:00,有,059-346-8989,
ひなが調剤薬局,242020,三重県,四日市市,34.951153,136.599838,059-347-0593,059-347-0974,510-0891,四日市市日永西3-1-20,月~水・金9:00~19:00 木8:00~16:00  土9:00~16:00,有,059-347-0593,
ファ-マライズ薬局日永店,242020,三重県,四日市市,34.95018,136.59343,059-349-0610,059-349-0611,510-0891,四日市市日永西3-17-19-2,月~水・金8:30~18:00 木土8:30~16:30 第三土曜8:30~12:30,有,059-349-0610,
なの花薬局日永北店 ,242020,三重県,四日市市,34.956806,136.601715,059-320-0088,059-320-0080,510-0891,四日市市日永西1-4546-6,月・水・金9:00~13:00、15:00~19:00 火・木9:00~13:00、15:00~18:30土9:00~13::00,有,059-320-0088,
フラワ-薬局あさがお店,242020,三重県,四日市市,34.940582,136.587234,059-348-1193,059-349-0022,510-0894,四日市市大字泊村字内村1102-1,月~金8:30~17:30,有,059-348-1193,
スギヤマ薬局笹川店,242020,三重県,四日市市,34.951988,136.582779,059-322-8112,059-322-8113,510-0943,四日市市西日野町1595,10:00~21:00,有,090-3150-8264,
ウサミ薬局,242020,三重県,四日市市,34.946159,136.573105,059-321-3980,059-321-2369,510-0944,四日市市笹川5-64-16,月~土 9:00~20:00,有,059-321-3980,
近藤団地薬局,242020,三重県,四日市市,34.954292,136.549561,059-321-1205,059-321-1205,510-0945,四日市市高花平3-1-62,月~金8:30~20:30 土8:30~19:00,有,059-321-1205,
ちかこ薬局,242020,三重県,四日市市,34.965092,136.62442,059-347-5757,059-347-5780,510-0953,四日市市采女が丘1-159,月~水・金9:00~18:30木9:00~16:00  土9:00~12:30,有,070-2351-3678,
ふじハ-ト調剤薬局,242020,三重県,四日市市,34.930248,136.566483,059-320-3300,059-320-3310,510-0956,四日市市貝家町303-4,月~金8:30~19:20  土8:30~13:00,有,059-320-3300,
ファ-コス薬局うつべ,242020,三重県,四日市市,34.926033,136.586655,059-349-2883,059-346-5114,510-0958,四日市市小古曽3-5-32,月水木土日8:30~17:30火金8:30~16:30,有,059-349-2883,
スギヤマ薬局菰野店,243418,三重県,三重郡菰野町,35.008766,136.46936,059-391-0561,059-391-0562,510-1233,三重郡菰野町菰野978-1,月~土9:00~19:00,有,080-2161-9220,
エンゼル薬局 大羽根店,243418,三重県,三重郡菰野町,35.014645,136.499878,0593-58-2889,0593-58-2890,510-1233,三重郡菰野町菰野2302-4,月・火・金 8:30~18:00水・木 8:30~16:30土 8:30~12:00,有,080-5298-4370,
ファ-マライズ薬局菰野店,243418,三重県,三重郡菰野町,35.007938,136.521179,059-391-0871,059-391-0872,510-1234,三重郡菰野町大字福村64-6,月~金9:00~17:30土14:00~16:30,有,059-391-0871,
けやき薬局,243418,三重県,三重郡菰野町,35.022259,136.504532,059-391-0836,059-391-0837,510-1253,三重郡菰野町潤田1197-1,月~水・金9:00~19:00 木土9:00~17:00,有,059-391-0836,
さんあい薬局朝上店,243418,三重県,三重郡菰野町,35.074413,136.49939,059-340-3977,059-340-3978,510-1324,三重郡菰野町田光4465-2,月~水・金8:15~19:00木8:15~16:15土8:15~12:15,有,059-340-3977,
らくだ薬局,242020,三重県,四日市市,35.016113,136.668671,059-366-7272,059-366-7273,510-8001,四日市市天カ須賀4-7-18,月~水・金9:00~19:30 木土9:00~17:00,有,059-366-7272,
ナロ-調剤薬局,242020,三重県,四日市市,35.015816,136.669235,059-361-6007,059-361-6008,510-8001,四日市市天カ須賀4-6-8,月~金8:30~13:30 15:00~18:30土8:30~12:30,有,059-361-6007,
一色こまち調剤薬局,242020,三重県,四日市市,35.007008,136.663773,059-329-5101,059-329-5102,510-8004,四日市市富田一色町30-58,月火木金8:30~12:30 14:30~19:00 水8:30~16:30 土8:30-12:30,有,059-329-5101,
平岡回生堂薬局富田店,242020,三重県,四日市市,35.004486,136.651733,059-364-3333,059-364-3334,510-8014,四日市市富田1-20-10,月~金10:00~19:00 土10:00~15:00,有,059-364-3333,
こぶた薬局,242020,三重県,四日市市,35.011696,136.656815,059-361-7878,059-361-7877,510-8015,四日市市松原町15-16,月~金7:45~18:30 土7:45~12:30,有,059-361-7878,
フラワ-薬局富州原店,242020,三重県,四日市市,35.00972,136.660675,059-363-9341,059-363-9340,510-8016,四日市市富州原町16-3,月~水・金8:00~18:00 木8:00~16:00土8:00~12:00,有,090-2770-3790,
平岡回生堂薬局大矢知店,242020,三重県,四日市市,35.014835,136.637985,059-364-3933,059-363-0533,510-8028,四日市市下之宮町30-1,10:00~19:00,有,090-6074-3798,
フラワ-薬局カトレヤ店,242020,三重県,四日市市,35.018677,136.646774,059-361-3030,059-364-7210,510-8031,四日市市川北1-12-13,"月~水・金9:00~19:00 土9:00~17:00 第1,3,5木9:00~12:30",有,090-2770-3723,
みすぎ薬局,242020,三重県,四日市市,35.003593,136.652969,059-361-5121,059-361-5122,510-8034,四日市市富田1-9-12,月~水・金8:30~19:00 木9:00~17:00 土8:30~12:30,有,059-361-5121,
フラワ-薬局寿店,242055,三重県,桑名市,35.066242,136.687241,0594-25-9311,0594-25-9341,511-0061,桑名市寿町3-9,月~金8:30~18:00  土9:00~12:00,有,0594-25-9311,
桑名薬局,242055,三重県,桑名市,35.065975,136.688644,0594-84-6652,0594-84-6653,511-0061,桑名市寿町3-25,月~金9:00~18:00 土9:00~13:00,有,0594-84-6652,
小林薬局寿支店,242055,三重県,桑名市,35.065289,136.687286,0594-27-2080,0594-27-2081,511-0061,桑名市寿町3-11太平洋桑名ビル1階,月~金8:30~18:00 土9:00~13:00,有,0594-27-2080,
さんあい薬局京橋店・在宅支援センタ-,242055,三重県,桑名市,35.063442,136.692184,0594-25-3988,0594-25-0062,511-0063,桑名市京橋町34,月~土9:00~18:00,有,0594-25-3988,
さんあい薬局中央町店,242055,三重県,桑名市,35.063992,136.684189,0594-41-2701,0594-41-2702,511-0068,桑名市中央町1-51-4,月火木金8:45~18:30 水8:45~12:00 土8:45~12:30,有,080-7233-7985,
あおぞら薬局,242055,三重県,桑名市,35.13678,136.63504,0594-49-3633,0594-49-3635,511-0101,桑名市多度町柚井1698-1,月~金9:00~17:30土9:00~16:00,有,060-6612-1544,
エンゼル薬局多度駅前店,242055,三重県,桑名市,35.135216,136.639694,0594-41-3232,0594-41-3231,511-0105,桑名市多度町小山1874-4,月~水・金8:30~18:00木土8:30~12:30,有,090-1286-5127,
パンプキン薬局,242144,三重県,いなべ市,35.097076,136.568893,0594-84-0100,0594-84-0500,511-0224,いなべ市員弁町大泉2512-3,木土9:00~17:00 木土以外の平日9:00~18:30,有,090-7684-1872,
エンゼル薬局大安店,242144,三重県,いなべ市,35.083199,136.553864,0594-87-0077,0594-87-0078,511-0281,いなべ市大安町門前591,月~水・金9:00~19:00 木9:00~17:00 土9:00~12:30,有,090-4441-8078,
アイン薬局いなべ店,242144,三重県,いなべ市,35.146221,136.513992,0594-41-3171,0594-41-3172,511-0428,いなべ市北勢町阿下喜771三重北医療センタ-いなべ総合病院別館1F,8:30~18:00,有,0594-41-3171,
東方調剤薬局,242055,三重県,桑名市,35.076622,136.680374,0594-23-1777,0594-25-3637,511-0811,桑名市東方字打上田265-5,月~水・金8:30~18:30木8:30~16:30土8:30~12:00,有,0594-23-1777,
エンゼル薬局はりま店,242055,三重県,桑名市,35.080383,136.671646,0594-87-6877,0594-87-6866,511-0819,桑名市北別所1841-5,月8:30~16:30 火~金8:30~17:30 土8:00~16:00,有,090-3957-6877,
フラワ-薬局桑名北別所店,242055,三重県,桑名市,35.071056,136.674164,0594-25-1193,0594-25-1194,511-0819,桑名市北別所福地416-1,月火木金8:30~18:30 土8:30~15:30,有,090-5457-2988,
水谷薬局,242055,三重県,桑名市,35.07312,136.674835,0594-21-0341,0594-21-7826,511-0819,桑名市大字北別所1197-1,月~金8:30~20:00土8:30~18:00,有,0594-21-0341,
ひび薬局,242055,三重県,桑名市,35.051411,136.686005,0594-41-3350,0594-41-3351,511-0834,桑名市大字大福字寺跡437-3,月7:50~18:30/火7:50~17:00/水7:50~18:30/木7:50~18:30/金7:50~18:30/土7:50~12:30,無,,
ペイン薬局,242055,三重県,桑名市,35.052086,136.679886,0594-41-2826,0594-41-2827,511-0839,桑名市安永823-5,月~水・金9:00~19:00 木9:00~17:00 土9:00~12:30,有,070-5335-2826,
さんあい薬局株式会社蓮花寺店,242055,三重県,桑名市,35.056477,136.646347,0594-24-6474,0594-24-6421,511-0853,桑名市増田馬渕597-3,月~水・金9:00~18:30木9:00~17:00 土9:00~13:00,有,090-9935-0489,
ソ-ラ-薬局,242055,三重県,桑名市,35.072895,136.656677,0594-24-8055,0594-24-8075,511-0863,桑名市新西方3-206,月~金9:00~19:00 土日祝9:00~13:00,有,090-6614-2700,
さんあい薬局坂の下店,242055,三重県,桑名市,35.074005,136.665192,0594-84-6026,0594-84-6027,511-0864,桑名市西方梅ノ木戸1569-1,月火木金8:45~19:00水8:45~17:00土8:45~14:00,有,0594-84-6026,
フラワ-薬局蓮花寺店,242055,三重県,桑名市,35.076271,136.653702,0594-23-8118,0594-23-8122,511-0865,桑名市藤が丘9-101,月~水・金9:00~18:30 木9:00~17:00 土9:00~15:30,有,090-1980-2431,
さんあい薬局株式会社陽だまりの丘店,242055,三重県,桑名市,35.087543,136.635666,0594-31-7400,0594-31-7402,511-0867,桑名市陽だまりの丘7-1513,月~金9:00~18:30 土8:45~13:00,有,0594-31-7400,
たんぽぽ薬局さくらの丘店,242055,三重県,桑名市,35.06741,136.654114,0594-41-2260,0594-41-2261,511-0868,桑名市さくらの丘1,月~金9:00~19:00土9:00~18:00,有,0594-41-2260,
シモザト薬局桑名店,242055,三重県,桑名市,35.074352,136.631302,0594-33-2874,0594-33-2875,511-0912,桑名市星見ヶ丘3-901,月~水・金9:00~19:00木土9:00~17:00,有,0594-33-2876,
フラワ-薬局すずらん店,242055,三重県,桑名市,35.068844,136.627197,0594-32-3232,0594-32-3233,511-0912,桑名市大字星川字宇賀1011-5,月~金8:30~18:15 土8:30~12:15,有,090-2770-3831,
エンゼル薬局星川店,242055,三重県,桑名市,35.06823,136.624359,0594-33-0555,0594-33-0556,511-0914,桑名市中山町40-1,月~水・金9:00~19:00木9:00~17:00土9:00~12:00,有,090-9173-6555,
ハ-ト調剤薬局,242055,三重県,桑名市,35.050953,136.629364,0594-31-0001,0594-31-0008,511-0934,桑名市赤尾2031-2,月~水・金9:00~19:00木9:00~17:00土9:00~13:00,有,0594-31-0001,
フラワ-薬局中部店,,,,34.968933,136.625305,059-354-5161,059-353-3813,512-0082,四日市市中部8-15,月~水・金土9:00~18:30木9:00~17:00,有,090-2770-4287,郵便番号
エ-ル調剤薬局四日市店,242020,三重県,四日市市,34.986595,136.607574,059-333-8900,059-333-8901,512-0902,四日市市小杉町474-4,月~水・金9:00~19:20 木9:00~17:00 土9:00~17:20,有,059-333-8900,
さんあい薬局株式会社小杉新町店,242020,三重県,四日市市,34.998913,136.606995,059-327-5330,059-327-5331,512-0903,四日市市小杉新町153-3,月~水9:00~18:40木・土9:00~17:00,有,059-327-5330,
フラワ-薬局小杉店,242020,三重県,四日市市,34.998295,136.608109,059-331-3535,059-332-6868,512-0903,四日市市小杉新町64,月~金8:00~18:00土8:00~12:00,有,059-331-3535,
さんあい薬局生桑店,242020,三重県,四日市市,34.979946,136.596313,059-327-5140,059-327-5141,512-0911,四日市市生桑町826-1,月水金 9:00~19:00火木9:00~17:00 土9:00~13:00,有,059-327-5140,
エンゼル薬局生桑店,242020,三重県,四日市市,34.985897,136.599609,059-330-1331,059-333-3305,512-0911,四日市市生桑町196-4,月~水・金9:00~18:00土9:00~13:00、,有,090-4441-8087,
フラワ-薬局生桑店,242020,三重県,四日市市,34.982536,136.600784,059-330-4193,059-330-4194,512-0911,四日市市生桑町582-2,月~水・金8:30~19:00 土8:30~16:30,有,080-2624-4350,
エ-ル調剤薬局Fuji,242020,三重県,四日市市,34.986462,136.557281,059-326-7100,059-326-7101,512-0923,四日市市高角町1564-6,月~金9:00~19:20 土9:00~12:30,有,059-326-7100,
エンゼル薬局高角店,242020,三重県,四日市市,34.983608,136.567276,059-329-6101,059-329-6102,512-0923,四日市市高角町735-1,月火金土9:00~18:00,有,090-4210-4898,
ふたば薬局川島店,242020,三重県,四日市市,34.972855,136.569061,059-320-2737,059-320-2738,512-0934,四日市市川島町7359,月~水・金9:00~18:30木9:00~17:00土9:00~12:00 ,有,090-6397-9294,
みらい調剤薬局,242020,三重県,四日市市,34.978474,136.557007,059-320-3700,059-320-3707,512-0934,四日市市川島町6000-175,月~水・金9:00~19:00木8:30~16:30土9:00~13:00,有,059-320-3700,
エンゼル薬局四日市南店,242020,三重県,四日市市,34.945164,136.52681,059-329-7705,059-329-7706,512-1111,四日市市山田町5570-10,月~金9:00~18:00 土9:00~13:00,有,080-5106-7403,
エンゼル薬局かみえび店,242020,三重県,四日市市,35.034786,136.565659,059-325-4833,059-325-4855,512-1201,四日市市上海老町1633-164,月火木金9:00~18:30 水9:00~17:00土9:00~12:00,有,090-9264-7499,
アイセイ薬局下海老店,242020,三重県,四日市市,35.016075,136.574677,059-325-2233,059-327-2788,512-1203,四日市市下海老町平野108-12,月~金9:00~18:10 土9:00~13:00,有,080-9217-7091,
フラワ-薬局はまゆう店,242020,三重県,四日市市,34.987961,136.506241,059-326-1199,059-326-1299,512-1211,四日市市桜町字南垣内127-3,月~水・金8:00~18:15土8:00~13:00,有,090-1980-2071,
さんあい薬局桜台店,242020,三重県,四日市市,34.986191,136.533707,059-325-6576,059-325-6577,512-1214,四日市市桜台1-31-12,月水金9:00~19:00   火木9:00~17:00 土9:00-13:00,有,059-325-6576,
フラワ-薬局わかば店,242020,三重県,四日市市,34.988735,136.529495,059-327-1193,059-327-1231,512-1216,四日市市桜花台1-35-5,月~水・金8:30~18:15 土8:30~12:30,有,059-327-1193,
かさど調剤薬局,242071,三重県,鈴鹿市,34.893536,136.532883,059-370-5900,059-370-5901,513-0004,鈴鹿市加佐登2-20-48,月~水・金9:00~19:00、木9:00~17:00、土8:30~12:30,有,059-370-5900,
さんあい薬局石薬師店,242071,三重県,鈴鹿市,34.906136,136.543564,059-367-7633,059-367-7634,513-0012,鈴鹿市石薬師町2069-2,月~水・金8:30~18:30木8:30~16:30土8:30~12:30,有,059-367-7633,
スズカ調剤薬局高岡店,242071,三重県,鈴鹿市,34.897537,136.593887,059-381-0700,059-381-0701,513-0014,鈴鹿市高岡町632-1,月~金9:00~19:00土9:00~13:00,有,059-381-0700,
おかだ調剤薬局,242071,三重県,鈴鹿市,34.879894,136.552353,059-367-3377,059-367-3378,513-0027,鈴鹿市岡田3-20-31,月~水・金9:00~18:50木・土9:00~12:30,有,059-367-3377,
トミヤ薬局,242071,三重県,鈴鹿市,34.889683,136.579529,059-382-6090,059-383-1262,513-0037,鈴鹿市十宮3-22-23,8:00~19:00,有,059-382-6090,
スズカ調剤薬局長太店,242071,三重県,鈴鹿市,34.892883,136.62973,059-395-3800,059-395-3801,513-0042,鈴鹿市長太旭町4-22-18,月~水・金9:00~19:00木9:00~17:00 土9:00~13:00,有,059-395-3800,
かんべ駅前薬局,242071,三重県,鈴鹿市,34.883629,136.582336,059-367-7540,059-367-7539,513-0801,鈴鹿市神戸1-11-36,月~水・金8:30~18:30木8:30~16:30土8:30~18:00,有,059-367-7540,
けいと薬局,242071,三重県,鈴鹿市,34.881187,136.583023,059-381-1888,059-381-1889,513-0801,鈴鹿市神戸1-8-7,月~木・土9:00~18:00 金9:00~17:00,有,059-381-1888,
さくら薬局鈴鹿神戸店,242071,三重県,鈴鹿市,34.877544,136.574524,059-381-3800,059-384-3820,513-0802,鈴鹿市飯野寺家町829-1,月・火・水・金9:00~18:30第1・3・5木14:00~17:30土9:00~13:00,有,059-381-3800,
三日市南薬局,242071,三重県,鈴鹿市,34.865917,136.555786,059-383-0310,059-383-0311,513-0803,鈴鹿市三日市町1963,月火木金 9:00~18:30 水9:00~17:00 土 9:00~13:00,有,059-383-0310,
さんあい薬局株式会社ハンタ-店,242071,三重県,鈴鹿市,34.874111,136.545776,059-373-6177,059-373-6178,513-0806,鈴鹿市算所2-5-1鈴鹿ハンタ-1F,月~金9:00~17:45 土9:00~12:45,有,059-373-6177,
三日市調剤薬局,242071,三重県,鈴鹿市,34.877647,136.561493,059-389-6011,059-389-6012,513-0807,鈴鹿市三日市3-3-2,月~水・金8:30~17:00,有,090-2945-4247,
あさひ調剤薬局,242071,三重県,鈴鹿市,34.877846,136.56604,059-381-5959,059-381-5955,513-0809,鈴鹿市西条7-28,月~金 8:30~19:00 土 8:30~17:00,有,059-381-5959,
さんあい薬局株式会社鈴鹿店,242071,三重県,鈴鹿市,34.879364,136.5728,059-382-5850,059-382-5439,513-0809,鈴鹿市西条4-48 西条ビル,月~水・金8:45~18:30 木8:45~16:45 土8:45~13:00,有,059-382-5850,
西条調剤薬局,242071,三重県,鈴鹿市,34.877232,136.567856,059-382-7751,059-382-7752,513-0809,鈴鹿市西条6-13,月~水・金土9:00~19:00 木9:00~17:00,有,059-382-7751,
ふじ調剤薬局,242071,三重県,鈴鹿市,34.871876,136.597809,059-381-3331,059-381-3332,513-0811,鈴鹿市柳町字森1657-2,月~水・金9:00~19:20木9:00~17:00土9:00~13:00,有,080-3078-5123,
健やか薬局やなぎ店,242071,三重県,鈴鹿市,34.871876,136.597809,059-381-2700,059-381-2701,513-0811,鈴鹿市柳町1675-4,月火木金8:30~18:30 水土8:30~13:00,有,080-9494-8780,
たまがき調剤薬局,242071,三重県,鈴鹿市,34.855705,136.585358,059-381-7766,059-381-7788,513-0816,鈴鹿市南玉垣町6814-11,月~土 8:45~17:15 休(隔週土)13:00~17:15,有,059-381-7766,
さんあい薬局ひとみ店,242071,三重県,鈴鹿市,34.868843,136.572647,059-381-4771,059-381-4774,513-0818,鈴鹿市安塚町1654-1,月~金8:30~17:00 土:8:30~12:30,有,059-381-4771(営業時間外転送),
鈴鹿センタ-薬局,242071,三重県,鈴鹿市,34.866856,136.57222,059-381-2298,059-381-2299,513-0818,鈴鹿市安塚町638-21,月~金8:30~19:00,有,059-381-2298,
ファ-マライズ薬局鈴鹿住吉店,242071,三重県,鈴鹿市,34.861504,136.539383,059-375-1566,059-375-1567,513-0826,鈴鹿市住吉2-17-3,月~水・金9:00~18:30 木9:00~17:00 土9:00~12:30,有,059-375-1566,
フラワ-薬局すみれ店,242071,三重県,鈴鹿市,34.863621,136.537338,059-370-5599,059-370-5353,513-0826,鈴鹿市住吉1-23-10,月~土8:30~18:30,有,090-2770-4185,
エンゼル薬局平野店,242071,三重県,鈴鹿市,34.867985,136.51889,059-375-2500,059-392-6800,513-0835,鈴鹿市平野町7743-1,月~水・金9:00~18:00木土8:30~16:30,有,090-4408-2500,
鈴鹿みなみ薬局,242071,三重県,鈴鹿市,34.850304,136.507858,059-370-6637,059-370-6638,513-0836,鈴鹿市国府町字保子里175,月~金9:00~18:00 土9:00~13:00,有,059-370-6637,
まめのき薬局,242071,三重県,鈴鹿市,34.885193,136.541702,059-384-8523,059-384-8524,513-0841,鈴鹿市弓削町1160-4,月火木金8:30~12:30 14:30~18:30 水土 8:30~16:30,有,059-384-8523,
ふたば薬局平田店,242071,三重県,鈴鹿市,34.876568,136.541504,059-375-5123,059-375-5123,513-0843,鈴鹿市平田東町2-10,月~水・金9:00~18:30 木9:00~17:00 土9:00~13:00,有,059-375-5123,
スマイル調剤薬局三重大学病院前,242012,三重県,津市,34.74395,136.518677,059-233-3410,059-233-3411,514-0001,津市江戸橋1-152-2,月~金8:30~17:30,有,059-233-3410,
日本調剤江戸橋薬局,242012,三重県,津市,34.742001,136.519913,059-253-7220,059-253-7221,514-0001,津市江戸橋1-143-2,月~金8:30~17:30、土8:20~10:20,有,080-1060-9399,
日本調剤三重大前薬局,242012,三重県,津市,34.742889,136.518982,059-236-1055,059-236-1056,514-0001,津市江戸橋1-125,月~金8:30~17:30土8:30~12:30,有,090-5316-2520,
一般社団法人三重県薬剤師会会営津調剤薬局,242012,三重県,津市,34.743073,136.518143,059-231-1134,059-232-7918,514-0001,津市江戸橋1-113,月~金8:30~17:30土8:30~12:30,有,090-3152-8453,
阪神調剤薬局三重大前店,242012,三重県,津市,34.741779,136.520462,059-271-9480,059-271-9481,514-0001,津市江戸橋2-27,月~金8:30~17:30,有,090-3862-5269,
セイムス三重大前薬局,242012,三重県,津市,34.742462,136.519318,	059-	236-	3131,	059-	236-	3141,514-0001,津市江戸橋1-126-1,月-金 8:30-17:30,有,,
健やか薬局津駅西口店,242012,三重県,津市,34.734684,136.509247,059-253-2278,059-253-2279,514-0007,津市大谷町254エンデバ-ビル2F,月~土9:00~17:00,有,090-6391-3072,
コスモス薬局なぎさ店,242012,三重県,津市,34.716377,136.520508,059-253-6018,059-253-6058,514-0013,津市海岸町5-10,月火水金9:00~19:00 木9:00~17:00 土9:00~17:30,有,059-253-6018,
健やか薬局津生協病院前店,242012,三重県,津市,34.715984,136.517456,059-253-7580,059-253-7581,514-0015,津市寿町19-11,月~金9:00~17:00   土9:00~13:00,有,059-253-7580,
フラワ-薬局西丸之内店,,,,34.717678,136.501572,059-213-9341,059-213-9340,514--003,津市西丸之内11-15,8:30~17:30,有,090-2341-7819,郵便番号
たんぽぽ薬局丸之内店,242012,三重県,津市,34.722729,136.509064,059-222-7891,059-222-7892,514-0031,津市北丸之内113,月~土・祝9:00~19:30,有,059-222-7891,
フラワ-薬局中央店,242012,三重県,津市,34.719372,136.502289,059-213-9311,059-213-9312,514-0035,津市西丸之内27-6,月~金8:30~17:30,有,090-2341-8196,
コスモス薬局大門フェニックス店,242012,三重県,津市,34.717709,136.514603,059-253-8852,059-253-8078,514-0041,津市大門1-9,月~土9:00~17:30木9:00~11:30,有,059-253-8852,
健やか薬局津新町店,242012,三重県,津市,34.719181,136.493088,059-264-7882,059-264-7885,514-0042,津市新町2-11-18,月~水・金9:00~18:30 木9:00~12:00土9:00~17:00,有,059-264-7882,
たんぽぽ薬局遠山病院前店,242012,三重県,津市,34.713543,136.498428,059-221-6281,059-221-6282,514-0043,津市南新町8番28号,"月~金8:30~17:30 第2,4 土8:30~14:00",有,059-221-6281,
フラワ-薬局新町店,242012,三重県,津市,34.713505,136.498535,059-222-1193,059-222-1195,514-0043,津市南新町8-29,月~金8:30~18:00,有,090-2340-0568,
メディモ調剤薬局,242012,三重県,津市,34.746578,136.498993,059-233-2800,059-233-2801,514-0061,津市一身田上津部田1817,月~水・金9:00~19:00   木土9:00~18:00 ,有,059-233-2800,
健やか薬局上津部田店,242012,三重県,津市,34.746578,136.498993,059-253-1173,059-253-1174,514-0061,津市一身田上津部田1578-7,月~金9:00~18:00 土9:00~13:00,有,059-253-1173,
なの花薬局観音寺店,242012,三重県,津市,34.727093,136.504395,059-221-0008,059-221-0005,514-0062,津市観音寺町445-15,月~水・金9:00~18:30土9:00~17:30,有,059-221-0008,
西が丘薬局,242012,三重県,津市,34.73774,136.499435,059-226-0102,059-226-0688,514-0062,津市観音寺町799-7,月~水・金土9:00~18:30木曜のみ9:00~13:30 15:00~18:30,有,059-226-0102,
コスモス薬局長岡店,242012,三重県,津市,34.741772,136.488541,059-213-3068,059-213-5030,514-0064,津市長岡町800-286,月-水9:00~13:30 15:30~19:00木9:00~17:00金9:00~13:30  15:00~19:00土9:00~13:30,有,059-213-3068,
白塚薬局,242012,三重県,津市,34.762177,136.53067,059-273-6450,059-273-6451,514-0101,津市白塚町3385-1 平和ビル102号,月~木9:00~17:00金9:00~18:00土9:00~13:00,有,059-273-6450,
フラワ-薬局白塚店,242012,三重県,津市,34.764919,136.536057,059-233-4193,059-233-4194,514-0101,津市白塚町2086,月~水・金8:30~19:00土8:30~12:00,有,080-2610-0850,
ハロ-薬局津北店,242012,三重県,津市,34.757992,136.521744,059-236-4489,059-236-4490,514-0103,津市栗真中山町249-6,9:00~20:00,有,090-5106-1102,
フラワ-薬局栗真店,242012,三重県,津市,34.756794,136.523666,059-236-1193,059-236-1194,514-0103,津市栗真中山町89-1,月~金8:30~19:00 土8:30~18:00,有,080-2610-3705,
一身田薬局,242012,三重県,津市,34.762043,136.506836,059-236-7755,059-236-7766,514-0114,津市一身田町485-1,月~金 9:00~18:30,有,059-236-7755,
こうなん薬局,242012,三重県,津市,34.643902,136.539703,059-292-7011,059-292-7012,514-0315,津市香良洲町1874-4,月~水・金9:00~19:00木8:00~16:00土9:00~13:00,有,059-292-7011,
コスモス薬局つおき店,242012,三重県,津市,34.710777,136.516586,059-273-5880,059-273-6883,514-0802,津市三重町津興433-228,月~金9:00~12:30 14:30~19:00 木9:00~17:00 土9:00~12:30 14:00~17:30,有,059-273-5880,
つおき薬局,242012,三重県,津市,34.700764,136.510849,059-253-6870,059-253-6871,514-0812,津市津興2913-4,月~水・金9:00~18:45 木9:00~17:00 土9:00~18:15,有,059-253-6870,
ココカラファイン薬局垂水店,242012,三重県,津市,34.700706,136.51004,059-222-1202,059-213-6722,514-0812,津市津興2900-1,月~水・金9:00~18:30木9:00~17:00土9:00~18:00,有,080-3532-9266,
コスモス薬局津城山店,242012,三重県,津市,34.677181,136.503647,059-253-2800,059-253-2801,514-0818,津市城山3-4-26,月~水・金9:00~19:00土9:00~17:30,有,059-253-2800,
フラワ-薬局城山店,242012,三重県,津市,34.676735,136.507065,059-235-1193,059-235-4193,514-0818,津市城山1丁目24-13,月~金8:30~17:30土9:00~12:00,有,090-7435-6675,
コスモス薬局南が丘店,242012,三重県,津市,34.690872,136.506851,059-253-6638,059-253-6628,514-0821,津市垂水西青谷2871-8,月~水・金8:30~13:30 16:00~19:00、木8:30~16:30土8:30~13:30,有,059-253-6638,
さくら薬局津市南が丘店,242012,三重県,津市,34.691555,136.504547,059-253-8611,059-253-8612,514-0821,津市垂水2797-9,月~水・金9:00~19:00木9:00~12:00土9:00~13:00,有,059-253-8611,
セイムス津垂水薬局,242012,三重県,津市,34.690872,136.506851,	059-	253-	2033,	059-	253-	2088,514-0821,津市垂水法ヶ広1889-24,月曜・火曜・水曜・金曜:9:00-18:30木曜:9:00-17:00土曜:9:00-18:00,有,,
健やか薬局半田店,242012,三重県,津市,34.70153,136.494537,059-269-7780,059-269-7781,514-0823,津市半田字平木209-1,月火木金9:00~18:30 土9:00~17:00,有,080-6935-5586,
つばめ薬局,242012,三重県,津市,34.713692,136.473282,059-253-2888,059-253-2889,514-0826,津市野田778-1,月~水・金9:00~19:00木9:00~17:00土9:00~12:30,有,059-253-2888,
コスモス薬局本店,242012,三重県,津市,34.721378,136.467987,059-237-5278,059-237-5219,514-0826,津市野田33-5,月~水・金9:00~19:00  木8:30~16:30 土9:00~18:00,有,059-237-5278,
久居センタ-薬局,242012,三重県,津市,34.684696,136.462875,059-254-1193,059-254-1188,514-1101,津市久居明神町字風早2091-1,月~水・金8:30~19:00木8:30~17:30土8:30~17:00,有,090-5009-1999,
健やか薬局明神店,242012,三重県,津市,34.685711,136.462601,059-253-2650,059-253-2651,514-1101,津市久居明神町2327-1,月~水・金9:00~19:00 木9:00~17:00 土9:00~13:00,有,059-253-2650,
薬局アイファ-マシィ-明神店,242012,三重県,津市,34.686749,136.462341,059-259-0555,059-259-0557,514-1101,津市久居明神町2222-4,月~金8:30~17:30土9:00~12:00,有,090-4466-0758,
一般社団法人三重県薬剤師会会営久居調剤薬局,242012,三重県,津市,34.688015,136.464935,059-256-6717,059-255-0771,514-1101,津市久居明神町2093-1,月~金9:00~18:00土9:00~12:30,有,090-7609-5506,
一志調剤薬局・中町店,242012,三重県,津市,34.678413,136.467743,059-256-4313,059-255-0707,514-1107,津市久居中町176-2,月~水・金・土9:00~18:30 木8:00~16:00,有,059-256-4313,
ドレミ薬局,242012,三重県,津市,34.674625,136.489365,059-254-1300,059-254-1301,514-1114,津市久居井戸山町864-6,月~水・金9:00~19:00 木9:00~17:00土9:00~18:00,有,080-2656-4956,
たんぽぽ薬局久居店,242012,三重県,津市,34.675495,136.4776,059-254-1350,059-254-1351,514-1118,津市久居新町3006近鉄久居駅ポルタひさい2F,月~水・金9:00~19:00   木・土9:00~17:00,有,059-254-1350,
ハロ-薬局久居駅メディカルフロア店,242012,三重県,津市,34.675495,136.4776,059-254-3701,059-254-3702,514-1118,津市久居新町3006 ポルタひさい2階,月火水金9:00~19:00  木9:00~13:00  土9:00~13:30,有,080-3677-7467,
健やか薬局久居みゆき店,242012,三重県,津市,34.680027,136.446091,059-253-3678,059-253-3679,514-1138,津市戸木町5058,月~金8:30~17:00 土8:30~12:30,有,059-253-3678,
たんぽぽ薬局榊原店,242012,三重県,津市,34.706676,136.355804,059-254-2055,059-252-2501,514-1251,津市榊原町字石ノ戸1035-1,月~土・祝9:00~18:00,有,059-254-2025,
健やか薬局美里やまびこ店,242012,三重県,津市,34.721115,136.392471,059-261-4167,059-261-5093,514-2106,津市美里町足坂字石田165-2,月~水・金9:00~18:45木・土9:00~13:00,有,059-261-4167,
明薬局,242012,三重県,津市,34.832397,136.427048,059-266-0030,059-266-0031,514-2202,津市芸濃町林356-1,月~金9:00~18:00土9:00~13:00,有,059-266-0030(転送),
こころ調剤薬局,242012,三重県,津市,34.811752,136.43248,059-266-1800,059-266-1801,514-2211,津市芸濃町椋本5069-7,9:00~19:00,有,059-266-1800,
むくもと薬局,242012,三重県,津市,34.806431,136.426178,059-266-1300,059-266-1301,514-2211,津市芸濃町椋本906-6,月~水・金9:00~18:30木9:00~17:00土9:00~13:00,有,059-266-1300,
セイムス芸濃椋本薬局,242012,三重県,津市,34.807121,136.441605,	059-	266-	1170,nan,514-2211,津市芸濃町椋本2933,平日9:00-16:00土曜9:00-13:00日・祝 休日,無,,
健やか薬局芸濃インタ-店,242012,三重県,津市,34.800755,136.452591,059-253-6830,059-253-6831,514-2221,津市高野尾町1897-76,月~水、金9:00~18:30 木土9:00~17:00,有,059-253-6830,
健やか薬局高野尾店,242012,三重県,津市,34.784412,136.469162,059-253-7411,059-253-7412,514-2221,津市高野尾町633-105,月~水・金9:00~18:30 木8:30-16:30 土9:00-16:00,有,080-4215-1146,
フラワ-薬局ひまわり店,242012,三重県,津市,34.757938,136.451401,059-268-4193,059-268-4194,514-2308,津市安濃町川西字藤が森51-7,月~水・金8:30~17:00 木9:00~17:00 土8:30~13:00,有,059-268-4193,
センタ-薬局済生会病院前店,242047,三重県,松阪市,34.579391,136.537689,0598-50-3433,0598-50-3434,515-0003,松阪市朝日町一区10-27,月~金8:30~19:00土9:00~13:00,有,090-7318-7637,
日本調剤松阪薬局,242047,三重県,松阪市,34.579391,136.537689,0598-50-0233,0598-50-0234,515-0003,松阪市朝日町一区10-24,月~金8:30~19:00 土8:30~12:30,有,080-1295-2501,
なの花薬局鎌田店,242047,三重県,松阪市,34.581501,136.535568,0598-50-0038,0598-50-0039,515-0005,松阪市鎌田町217-16,月~水・金9:00~18:00 木9:00~17:00 土9:00~13:00,有,0598-50-0038,
鎌田薬局,242047,三重県,松阪市,34.584984,136.540833,0598-53-9066,0598-53-9077,515-0005,松阪市鎌田町651-18バレンタインB,月~水9:00~18:00 金土9:00~18:00,有,090-4407-6734,
調剤薬局キタオカ松阪店,242047,三重県,松阪市,34.582066,136.543686,0598-20-8444,0598-20-8445,515-0014,松阪市若葉町486-2,月水金9:00~18:30火木土9:00~17:00,有,080-7718-5859,
かいばな調剤薬局,242047,三重県,松阪市,34.562206,136.534729,0598-67-0998,0598-67-6031,515-0033,松阪市垣鼻町1761-23,月~水・金8:45~19:00 木8:45~16:45 土8:45~17:00,有,090-3959-0830,
とまと薬局,242047,三重県,松阪市,34.553467,136.5569,0598-61-1012,0598-61-1013,515-0041,松阪市上川町2194-16,月~金9:00~18:30,有,090-6356-9338,
健やか薬局上川店,242047,三重県,松阪市,34.551125,136.559265,0598-67-5538,0598-67-8872,515-0041,松阪市上川町2222-1,月火水金土9:00~18:00 木9:00~17:00,有,0598-67-5538,
健やか薬局虹が丘店,242047,三重県,松阪市,34.551132,136.560654,0598-31-1317,0598-31-1318,515-0041,松阪市上川町215-1,月火木金9:00~19:00水土9:00~17:00,有,0598-31-1317,
ファ-コス薬局大光,242047,三重県,松阪市,34.556442,136.547272,0598-60-1117,0598-60-1118,515-0043,松阪市下村町564-4,月~水・金9:00~18:30木9:00~17:00 土9:00~13:00,有,0598-60-1117,
セイムス梅村学園前薬局,242047,三重県,松阪市,34.547993,136.535141,	0598-	60-	2117,nan,515-0044,松阪市久保町1456-4,月-金 9:00-19:00,無,,
なの花薬局宝塚店,242047,三重県,松阪市,34.552151,136.515915,0598-25-6677,0598-25-6678,515-0056,松阪市宝塚町1508-1,月~水・金・土9:00~19:00木9:00~17:00,有,0598-25-6677,
はあと薬局,,,,34.560047,136.515869,0598-25-1811,0598-25-1812,515--006,松阪市小黒田町251-6,月~水・金9:00~19:00 木9:00~17:00   土9:00~14:00,有,0598-25-1811,郵便番号
センタ-薬局市民病院前店,242047,三重県,松阪市,34.577518,136.526291,0598-22-2355,0598-22-2357,515-0073,松阪市殿町1580-1,月~金8:30~18:30土9:00~13:00,有,090-7301-4010,
ヤスオカ薬局,242047,三重県,松阪市,34.576069,136.531143,0598-21-0934,0598-26-2166,515-0083,松阪市中町1856,月~土9:00~19:00,有,0598-21-0934,
ヒシナカ薬局,242047,三重県,松阪市,34.573845,136.532394,0598-21-0016,0598-21-0164,515-0084,松阪市日野町583,月~土9:00~18:30,有,0598-21-0016,
健やか薬局くろべ店,242047,三重県,松阪市,34.594284,136.596588,0598-67-7018,0598-67-9616,515-0101,松阪市東黒部町738-1,月~金9:00~17:15 土9:00~13:00,有,0598-67-7018,
なの花薬局松阪目田店,242047,三重県,松阪市,34.538483,136.586014,0598-61-2223,0598-61-2248,515-0216,松阪市目田町327-6,月~水・金9:00~18:30土9:00~17:15,有,0598-61-2223,
健やか薬局明和店,244422,三重県,多気郡明和町,34.538437,136.624741,0596-63-5421,0596-63-5422,515-0321,多気郡明和町斎宮北野3726-1,月~水・金9:00~18:30木9:00~17:00土9:00~13:00,有,0596-63-5421,
第一調剤(株)村田調剤薬局金剛坂店,244422,三重県,多気郡明和町,34.531506,136.60585,0596-52-7704,0596-52-7706,515-0324,多気郡明和町金剛坂 816-71,月~水・金8:30~18:30 木8:30~16:30 土8:30~12:00,有,0596-52-7704,
なの花薬局金剛坂店,244422,三重県,多気郡明和町,34.532009,136.606766,0596-53-2300,0596-53-2301,515-0324,多気郡明和町金剛坂817-30,月~水・金8:30~18:00木8:30~16:30土8:30~17:00,有,0596-53-2300,
なの花薬局斎宮店,244422,三重県,多気郡明和町,34.536999,136.609634,0596-63-8295,0596-63-8296,515-0325,多気郡明和町大字竹川宇野口39-79,月~水・金9:00~18:30土9:00~17:00,有,0596-63-8295,
みよの台薬局猟師町店,242047,三重県,松阪市,34.603161,136.543945,0598-52-5111,0598-52-5131,515-0802,松阪市猟師町72,月~土9:00~20:00 木9:00~17:30,有,080-4182-9147,
セイムス松阪船江薬局,242047,三重県,松阪市,34.588451,136.520493,	0598-	30-	4440,nan,515-0812,松阪市船江町554-2,月-金曜日 9:00-18:00,無,,
ひまわり薬局,242047,三重県,松阪市,34.583206,136.528427,0598-30-6555,0598-30-6559,515-0814,松阪市久保田町5-13,月~水・金8:00~19:15 木8:00~16:00  土8:00~14:15,有,090-7860-5302,
健やか薬局川井町店,242047,三重県,松阪市,34.584263,136.524887,0598-30-5514,0598-30-5515,515-0818,松阪市川井町969-7,月火木金8:30~18:30 水8:30~16:30 土8:30~12:30,有,0598-30-5514,
センタ-薬局中央病院前店,242047,三重県,松阪市,34.582043,136.510986,0598-25-6333,0598-25-6336,515-0818,松阪市川井町小望185-2,月~金8:30~18:00土9:00~13:00,有,090-7605-8752,
スズカ調剤薬局五反田店,242047,三重県,松阪市,34.567986,136.506454,0598-23-0515,0598-23-0690,515-0822,松阪市大足町671-4,月~水・金・土9:00~19:00木9:00~17:00,有,090-2925-7713,
アクア薬局伊勢寺店,242047,三重県,松阪市,34.564381,136.4655,0598-58-3245,0598-58-3247,515-0845,松阪市伊勢寺町481-6,月~水・金9:00~18:00 木9:00~17:00 土9:00~12:00,有,090-8154-0815,
健やか薬局みくも店,242047,三重県,松阪市,34.626156,136.51857,0598-56-9966,0598-56-9965,515-2112,松阪市曽原町811-1-2,月~水・金8:30~18:00 木8:30~16:30 土8:30~17:00,有,080-1607-8795,
小津薬局,242047,三重県,松阪市,34.614849,136.508865,0598-56-6300,0598-56-6324,515-2114,松阪市小津町253-3,月~水、金9:00~18:30木9:00~17:00土9:00~13:00,有,0598-56-6300,
コスモス薬局みくも店,242047,三重県,松阪市,34.605663,136.514572,0598-20-8805,0598-20-8806,515-2121,松阪市市場庄町1085-1,月~水・金8:30~18:30 木8:30~16:30  土8:30~15:30,有,0598-20-8805,
みよの台薬局嬉野店,242047,三重県,松阪市,34.625179,136.480515,0598-42-7726,0598-42-7818,515-2324,松阪市嬉野町1424-1,月~水・金8:30~18:30 木8:30~17:00土8:30~18:00,有,080-4181-1283,
やまゆり薬局,242047,三重県,松阪市,34.63306,136.476593,0598-42-8811,0598-48-1493,515-2325,松阪市嬉野中川新町1-8,月~水・金8:30~19:00 木・土8:30~13:00,有,0598-42-8811,
健やか薬局中川店,242047,三重県,松阪市,34.634182,136.481918,0598-20-9570,0598-20-9571,515-2325,松阪市嬉野中川新町2-17,月~水・金9:00~18:30木土9:00~17:00,有,0598-20-9570,
平野薬局中川店,242047,三重県,松阪市,34.632133,136.477982,0598-42-4987,0598-42-6684,515-2325,松阪市嬉野中川新町4-69,月~金9:00~19:00 土9:00~12:00,有,090-5850-3718,
健やか薬局うれしの店,242047,三重県,松阪市,34.615715,136.47966,0598-30-5732,0598-30-5733,515-2335,松阪市嬉野算所町514-3-2,月~水・金9:00~18:30  木9:00~17:00  土9:00~13:00,有,0598-30-5732,
一志調剤薬局高野店,242012,三重県,津市,34.660927,136.427063,059-293-1190,059-293-1191,515-2504,津市一志町高野226-7,月~金9:00~18:30土9:00~18:00,有,059-293-1190,
フラワ-薬局一志店,242012,三重県,津市,34.616268,136.326843,059-264-1193,059-264-1493,515-3133,津市白山町南家城613-5,月~金8:30~17:30,有,090-2340-0856,
大湊薬局,242039,三重県,伊勢市,34.526138,136.742188,0596-63-8063,0596-63-8064,516-0001,伊勢市大湊町812-3,月9:00~18:00/火9:00~18:00/水9:00~18:00/木9:00~17:00/金9:00~18:00/土9:00~13:00,有,0596-63-8063,
健やか薬局神社店,242039,三重県,伊勢市,34.511887,136.736084,0596-64-8370,0596-64-8371,516-0004,伊勢市神社港20-25,月~金9:00~18:00 木9:00~13:00 土9:00~12:00,有,0596-64-8370(転送),
明倫堂伊勢薬局,242039,三重県,伊勢市,34.506027,136.722549,0596-31-3377,0596-31-3378,516-0007,伊勢市小木町曽祢561-1,月~金9:00~13:30 14:30~18:00 土9:00~13:30 14:30~17:00,有,0596-31-3377,
ココカラファイン薬局日赤前店,242039,三重県,伊勢市,34.500008,136.710388,0596-21-5015,0596-21-5016,516-0008,伊勢市船江1-10-10,月~金9:00~17:30土9:00~13:00 ,有,080-3532-9267,
日本調剤ミタス伊勢薬局,242039,三重県,伊勢市,34.500992,136.710373,0596-20-8586,0596-20-8587,516-0008,伊勢市船江1-10-21,月~金9:00~18:00土9:00~13:00,有,080-7844-1445,
ココカラファイン薬局ミタス伊勢店,242039,三重県,伊勢市,34.500992,136.710373,0596-21-2061,0596-21-2062,516-0008,伊勢市船江1-10-21,月~金9:00~18:00土9:00~13:00,有,0596-21-2061,
イワオ薬局楠部店,242039,三重県,伊勢市,34.477089,136.72934,0596-20-3456,0596-20-3457,516-0014,伊勢市楠部町99,月~水・金9:00~18:00 木8:45~16:45 土9:00~13:00,有,090-1759-3450,
高村調剤薬局,242039,三重県,伊勢市,34.482262,136.725357,0596-20-2510,0596-20-2511,516-0014,伊勢市楠部町202-12,月~水・金土9:00~18:00 木9:00~17:00,有,0596-20-2510,
おかげ薬局伊勢病院前店,242039,三重県,伊勢市,34.482887,136.728973,0596-21-5188,0596-21-5187,516-0014,伊勢市楠部町3039,月~金8:30~18:00土8:30~12:30,有,0596-21-5188,
みどり調剤薬局倉田山店,242039,三重県,伊勢市,34.489395,136.72641,0596-20-0007,0596-20-0008,516-0016,伊勢市神田久志本1754-3,月~水・金9:00~18:00 木9:00~17:00 土9:00~12:00,有,0596-20-0007,
在宅医療対応型薬局ひかりファ-マシ-,242039,三重県,伊勢市,34.497883,136.722748,0596-72-8200,0596-72-8201,516-0017,伊勢市神久5-82,月~土8:30-18:30 木8:30-17:00,有,080-5247-8063,
健やか薬局神久店,242039,三重県,伊勢市,34.489254,136.720139,0596-72-8230,0596-72-8231,516-0017,伊勢市神久2-1-14,月・火・木・金9:00~18:00 水・土9:00~12:00,有,0596-72-8230,
フラワ-薬局やまとまち店,242039,三重県,伊勢市,34.484322,136.7202,0596-20-1193,0596-20-1293,516-0032,伊勢市倭町143-6,月~水・金8:30~18:30木土8:30~12:00,有,080-2661-0875,
なの花薬局勢田店 ,242039,三重県,伊勢市,34.470589,136.709946,0596-65-6451,0596-65-6452,516-0035,伊勢市勢田町車沖569-16,月~水8:30~18:30金8:30~18:30土8:30~12:15,有,0596-65-6451,
ひかりハ-ト薬局,242039,三重県,伊勢市,34.482895,136.70816,0596-65-7220,0596-65-7221,516-0036,伊勢市岡本3-285-3,月~金(水除く)9:00~18:30 土9:00~15:30,有,0596-65-7220,
健やか薬局ひじり岡本店,242039,三重県,伊勢市,34.485592,136.710602,0596-63-6965,0596-63-6964,516-0036,伊勢市岡本1-17-16,月~水・金8:30~18:30、木土8:30~12:30,有,080-3610-1144,
コスモス薬局上地店,242039,三重県,伊勢市,34.493752,136.660583,0596-20-8777,0596-20-8776,516-0051,伊勢市上地町4210-4,月~水・金9:00~19:00木8:30~16:30土9:00~14:30,有,0596-20-8777,
すこやか薬局,242039,三重県,伊勢市,34.488094,136.692566,0596-20-5025,0596-20-5026,516-0062,伊勢市浦口4-2-49,月水金9:00~18:00 火木9:00~17:00 土9:00-12:30,有,0596-20-5025,
イワオ薬局浦口店,242039,三重県,伊勢市,34.493179,136.694778,0596-20-5580,0596-20-5590,516-0064,伊勢市浦口2-2-16,月火水金土8:30~18:00  木8:30~16:30,有,090-6573-5580,
みどり調剤薬局一之木店,242039,三重県,伊勢市,34.500385,136.705338,0596-63-5151,0596-63-5150,516-0071,伊勢市一之木4-5-37,月~水・金9:00~18:30 木9:00~17:00 土9:00~13:00,有,0596-63-5151,
調剤薬局キタオカ宮後店,242039,三重県,伊勢市,34.497707,136.709427,0596-63-6441,0596-63-6442,516-0072,伊勢市宮後3-779-6,月~金8:45~18:00 土8:45~12:00,有,070-4201-5643,
みどり調剤薬局岩渕店,242039,三重県,伊勢市,34.488922,136.712341,0596-20-4411,0596-20-4433,516-0073,伊勢市吹上1-10-16,月~水・金9:00~18:30  木9:00~17:00  土9:00~13:00,有,0596-20-4411,
いせ本町薬局,242039,三重県,伊勢市,34.490944,136.706848,0596-20-8110,0596-20-8118,516-0074,伊勢市本町3-15,月~金9:00~18:30 土9:00~18:00,有,0596-20-8110,
健やか薬局外宮前店,242039,三重県,伊勢市,34.490761,136.702179,0596-29-2100,0596-29-2700,516-0076,伊勢市八日市場町5-19,月~水・金9:00~18:00  木土9:00~13:00,有,090-8541-8664,
かんひちや薬局病院前店,244724,三重県,度会郡南伊勢町,34.355484,136.702194,0599-66-1228,0599-66-2234,516-0101,度会郡南伊勢町五ヶ所浦3977,月~水金8:30~19:00木8:30~18:00土8:30~12:00,有,0599-66-1228,
コスモス薬局みその店,242039,三重県,伊勢市,34.507832,136.709747,0596-72-8220,0596-72-8133,516-0804,伊勢市御薗町長屋2004-3,月-水・金9:00~13:00 14:30~18:30。木土9:00~13:00,有,0596-72-8220,
明倫堂宮町薬局,242039,三重県,伊勢市,34.511269,136.716919,0596-20-5400,0596-20-5403,516-0805,伊勢市御園町高向小橋686-10,月-水・金9:00~12:30 15:00~18:30、土8:00~12:30 14:00~17:00,有,0596-20-5400,
うえむら薬局,242110,三重県,鳥羽市,34.475636,136.845367,0599-21-1193,0599-21-1195,517-0011,鳥羽市鳥羽4-13-2,月~水・金9:00~18:00木9:00~17:00土9:00~13:00,有,090-7914-3048,
村田薬局ハロ-店,242110,三重県,鳥羽市,34.470661,136.847549,0599-26-4312,0599-26-4368,517-0023,鳥羽市大明西町1-1,月~土9:00~18:00 日9:00~12:45,有,090-6874-5997,
ファ-マライズ薬局恵利原店,242152,三重県,志摩市,34.383648,136.802765,0599-56-0101,0599-56-0102,517-0209,志摩市磯部町恵利原1529,月~水9:00~18:00 木9:00~17:00 金土9:00~18:00,有,0599-56-0101,
ひかり調剤薬局,242152,三重県,志摩市,34.329956,136.82373,0599-44-5100,0599-44-5101,517-0501,志摩市阿児町鵜方748-1,月~水・金9:00~18:30木9:00~17:00土9:00~13:00,有,080-3075-6954,
志摩センタ-薬局,242152,三重県,志摩市,34.33453,136.819397,0599-46-0777,0599-46-0888,517-0501,志摩市阿児町鵜方1262-16,月~金8:30~18:00,有,0599-46-0777,
調剤薬局キタオカ,242152,三重県,志摩市,34.328487,136.826477,0599-43-1696,0599-78-0266,517-0501,志摩市阿児町鵜方3155-4,月~水・金9:00~18:00木9:00~17:00土9:00~12:00,有,080-8183-0312,
かんひちや薬局鵜方店,242152,三重県,志摩市,34.329956,136.82373,0599-44-1911,0599-44-1912,517-0501,志摩市阿児町鵜方5016,月~水・金8:30~18:30木8:30~18:00土8:30~12:00,有,0599-44-1911,
スマイルさなぐ薬局,242160,三重県,伊賀市,34.799713,136.16951,0595-41-1701,0595-41-1702,518-0001,伊賀市佐那具町790,月~土9:00~18:30(木8:30~16:30),有,0595-41-1701,
おはよう薬局服部店,242160,三重県,伊賀市,34.773384,136.138977,0595-24-0931,0595-24-0932,518-0007,伊賀市服部町2-96-1,月~金9:00~18:00 木8:30~16:30 土8:30~12:30,有,090-2618-9790,
フラワ-薬局服部店,242160,三重県,伊賀市,34.771736,136.142273,0595-26-4300,0595-26-4301,518-0007,伊賀市服部町3-102,月~水・金8:30~19:00 木8:30~16:30 土8:30~13:00,有,080-1608-5377,
フラワ-薬局土橋店,242160,三重県,伊賀市,34.791965,136.147446,0595-21-3993,0595-26-3994,518-0015,伊賀市土橋191-1,月~水・金土8:30~19:00 木8:30~16:30,有,080-2610-4115,
いなこ保険薬局,242160,三重県,伊賀市,34.715771,136.152557,0595-38-8555,0595-38-8550,518-0103,伊賀市沖31-2,月~水・金8:30~19:00木8:30~17:00土8:30~13:00,有,0595-36-2591,
フラワ-薬局岡波総合病院前店,242160,三重県,伊賀市,34.732857,136.114746,0595-26-1193,0595-26-1193,518-0121,伊賀市上之庄1700-1,日月水8:30~翌日8:30 火木金8:30~19:00,有,090-2613-6133,
フラワ-薬局青山店,242160,三重県,伊賀市,34.667961,136.17804,0595-53-1193,0595-53-1195,518-0226,伊賀市阿保1341-3,月~水・金8:30~18:00木8:30~16:30土8:30~12:00,有,090-3387-0344,
なの花薬局名張夏見店,242080,三重県,名張市,34.619911,136.105225,0595-62-1630,0595-62-1631,518-0441,名張市夏見3270,月~水・金9:00~18:30木・土9:00~14:00,有,0595-62-1630,
フラワ-薬局夏見店,242080,三重県,名張市,34.619911,136.105225,0595-62-1193,0595-62-1185,518-0441,名張市夏見3274-1,月~水・金8:30~18:30木8:30~16:30土8:30~14:00,有,090-1980-0896,
しらゆり薬局夏見店,242080,三重県,名張市,34.619911,136.105225,0595-62-4193,0595-62-4194,518-0441,名張市夏見3273-1,月・火・水・金8:30~18:30木:8:30~16:30土8:30~14:00,有,080-1608-5403,
なの花薬局名張市立病院前店,242080,三重県,名張市,34.609055,136.10022,0595-61-3680,0595-61-3682,518-0481,名張市百合が丘西1-151,月~金9:00~17:45 第1.5土9:00~12:00 第2.3.4日8:30~17:00,有,0595-61-3680,
赤井薬局桔梗が丘店,242080,三重県,名張市,34.649525,136.120163,0595-44-6280,0595-44-6281,518-0624,名張市桔梗が丘4-1-27,月~水・金9:00~19:00木9:00~17:00土9:00~13:00,有,090-3135-6280,
ぱんだ薬局,242080,三重県,名張市,34.640816,136.129181,0595-67-0710,0595-48-6108,518-0625,名張市桔梗が丘5-9-1812-11,"月~金8:00~20:00 土第1,3,5・水8:00~17:00",有,0595-67-0710,
フラワ-薬局桔梗が丘中央店,242080,三重県,名張市,34.638901,136.121353,0595-67-1193,0595-67-1194,518-0625,名張市桔梗が丘5-4-14,月水金8:30~19:00 火木土8:30~17:00,有,080-2627-7266,
ジップドラッグ桔梗が丘薬局,242080,三重県,名張市,34.6436,136.127167,0595-67-2225,0595-67-2226,518-0627,名張市桔梗が丘7-3-1813-8,月~水、金9:00~18:30、木9:00~17:00、土9:00~14:00,有,070-3140-7105,
フラワ-薬局桔梗が丘店,242080,三重県,名張市,34.646477,136.13031,0595-65-7557,0595-65-9397,518-0628,名張市桔梗が丘8-5-58,月~水・金8:30~19:30  木土8:30~12:30,有,0595-65-7557,
フラワ-薬局名張東店,242080,三重県,名張市,34.62949,136.106979,0595-64-1193,0595-64-1196,518-0701,名張市鴻之台1-16,月~水・金8:30~19:00、木土8:30~12:00,有,0595-64-1193,
エンゼル薬局名張店,242080,三重県,名張市,34.625088,136.105804,0595-48-7770,0595-48-7837,518-0702,名張市鴻之台2-41,月~水・金9:00~18:30  木9:00~17:00 土9:00~13:00,有,090-9269-7770,
赤井薬局鴻之台店,242080,三重県,名張市,34.625782,136.107285,0595-64-8934,0595-64-8945,518-0702,名張市鴻之台2-88,月~水・金9:00~18:30木土9:00~17:00,有,090-3243-8934,
赤井薬局中央店,242080,三重県,名張市,34.627441,136.10585,0595-62-0280,0595-62-0281,518-0703,名張市鴻之台3-31,月~水・金 09:00~19:00 木 09:00~17:00土 09:00~18:30,有,090-8961-0280,
クロ-バ-調剤薬局,242080,三重県,名張市,34.636238,136.116196,0595-48-7081,0595-48-7082,518-0752,名張市蔵持町原出1306-14,月~水・金9:00~19:00木9:00~17:00土9:00~12:00,有,090-8673-9292,
つむぎ薬局,242080,三重県,名張市,34.640427,136.108154,0595-41-1400,0595-41-1401,518-0753,名張市蔵持町里3258-1,月~水・金8:30~19:30木8:30~16:30土8:30~13:00,有,0595-41-1400,
フラワ-薬局伊賀店,242160,三重県,伊賀市,34.764526,136.167847,0595-22-1193,0595-22-1191,518-0818,伊賀市荒木字川原533-3,月~水・金8:30~19:00木8:30~16:30土8:30~13:30,有,0595-22-1193,
フラワ-薬局上野中央店,242160,三重県,伊賀市,34.752258,136.145447,0595-24-1193,0595-24-4111,518-0822,伊賀市問屋町75,月~土8:30~17:00,有,090-7435-4948,
ヒロタ薬局,242160,三重県,伊賀市,34.773502,136.12326,0595-48-6700,0595-24-6888,518-0825,伊賀市小田町215,月~金9:00~18:30,有,090-8675-0855,
長尾調剤薬局,242160,三重県,伊賀市,34.773277,136.13327,0595-24-0166,0595-24-0417,518-0830,伊賀市平野城北町124,月~水・金土8:30~18:00,有,0595-24-0166,
ココカラファイン薬局緑ヶ丘店,242160,三重県,伊賀市,34.761929,136.13945,0595-26-4081,0595-26-4082,518-0836,伊賀市緑ヶ丘本町1676,10:00~19:00,有,080-3532-9269,
くわまち薬局,242160,三重県,伊賀市,34.759705,136.134811,0595-41-2255,0595-41-2266,518-0842,伊賀市上野桑町1521-1,月水金 9:00~18:00 火木 8:30~16:30 土 9:00~12:00,有,0595-41-2255,
あすなろ薬局,242160,三重県,伊賀市,34.76918,136.130005,0595-24-9393,0595-24-9093,518-0873,伊賀市上野丸之内116-12,月~水・金9:00-18:30木9:00-17:00土8:30-12:30,有,090-6583-1430,
スズカ調剤薬局亀山店,242101,三重県,亀山市,34.871586,136.485046,0595-84-5900,0595-84-5901,519-0106,亀山市みどり町26-9,月~水・金9:00~19:00 木9:00~17:00土9:00~14:00,有,0595-84-5900,
かめやま調剤薬局,242101,三重県,亀山市,34.861023,136.4702,0595-84-5700,0595-84-5701,519-0111,亀山市栄町萩野1488-315,月~水・金9:00~19:00木9:00~17:00土9:00~14:00,有,0595-84-5700,
ココカラファイン薬局亀山店,242101,三重県,亀山市,34.85791,136.470032,0595-84-1884,0595-84-1885,519-0111,亀山市栄町1488-258,月・火・木・金9:00~19:00 水9:00~17:00土9:00~13:00,有,080-4582-4080,
十全薬局,242101,三重県,亀山市,34.856289,136.457993,0595-83-5830,0595-83-5831,519-0122,亀山市東台町283-2,9:00~19:00月~土曜,有,0595-83-5830,
有限会社すずらん調剤薬局,242101,三重県,亀山市,34.856049,136.458374,0595-83-4801,0595-83-4802,519-0122,亀山市東台町1-20,月~水・金9:00~19:00 木9:00~17:00 土9:00~16:00,有,0595-83-4801,
健やか薬局東町店,242101,三重県,亀山市,34.854893,136.454132,0595-98-4780,0595-98-4781,519-0125,亀山市東町1-2-19-1,月~水・金8:30~18:30 木8:30~16:30 土8:30~12:30,有,080-5123-4780,
健やか薬局天神店,242101,三重県,亀山市,34.845085,136.455536,0595-97-3830,0595-97-3831,519-0142,亀山市天神2-3-7,月~水・金8:30~18:00 木8:30~16:30 土8:30~13:30,有,0595-97-3830,
フラワ-薬局亀山店,242101,三重県,亀山市,34.852737,136.444809,0595-84-1193,0595-84-2077,519-0156,亀山市南野町4-13,月~水・金8:30~18:30土8:30~12:30,有,090-2340-0548,
日本調剤亀山薬局,242101,三重県,亀山市,34.86805,136.449188,0595-98-6755,0595-98-6756,519-0163,亀山市亀田町466-1,月~金8:30~18:00土8:30~12:30,有,090-8591-8194,
川崎薬局,242101,三重県,亀山市,34.887814,136.482544,0595-85-8134,0595-85-8135,519-0212,亀山市能褒野町79-21,月水金8:30~19:00 火木8:30~16:30 土8:30~12:30,有,0595-85-8134,
いふな薬局,242071,三重県,鈴鹿市,34.921803,136.484833,059-371-6667,059-371-6668,519-0323,鈴鹿市伊船町2943-2,月~水・金8:30~19:00木8:30~17:00  土8:30~12:00,有,059-371-6667時間外転送,
フラワ-薬局玉城店,,,,34.49369,136.623779,0596-58-0055,0596-58-0056,519--041,度会郡玉城町下田辺725-16,月火木金8:00~18:00 土8:00~12:00,有,090-8547-4283,郵便番号
志宝薬局桃の木店,244619,三重県,度会郡玉城町,34.48391,136.606277,0596-58-9968,0596-58-9970,519-0431,度会郡玉城町蚊野2148-3,月~水・金8:30~18:30土日祝8:30~17:00木9:00~17:00,有,0596-58-9968,
ココカラファイン薬局小俣店,242039,三重県,伊勢市,34.506561,136.676041,0596-26-0658,0596-26-0112,519-0503,伊勢市小俣町元町506,月火木金8:30~18:00   水8:30~17:00  土8:30~13:00,有,080-3532-9262,
なの花薬局小俣店,242039,三重県,伊勢市,34.508305,136.680099,0596-27-6800,0596-27-6801,519-0503,伊勢市小俣町元町1157-2,月~水・金8:30~18:30木8:30~17:00土8:30~12:30,有,0596-27-6800,
健やか薬局小俣店,242039,三重県,伊勢市,34.501812,136.667114,0596-72-8370,0596-72-8371,519-0505,伊勢市小俣町本町3532,月~水・金9:00~17:00木土9:00~13:00,有,0596-72-8370,
なの花薬局小俣本町店,242039,三重県,伊勢市,34.50172,136.663147,0596-64-8791,0596-64-8792,519-0505,伊勢市小俣町本町341-107,月~水・金9:00~18:00土9:00~17:00,有,0596-64-8791,
フラワ-薬局柘植店,242160,三重県,伊賀市,34.838989,136.240952,0595-45-1193,0595-45-1192,519-1402,伊賀市柘植町2034-1,月~水・金8:30~19:00木土8:30~12:00,有,090-1980-0167,
フラワ-薬局島ヶ原店,242160,三重県,伊賀市,34.770733,136.054337,0595-59-9311,0595-59-9312,519-1711,伊賀市島ケ原5846,月~水・金8:00~19:00木8:00~16:00土8:00~12:30,有,080-1603-9752,
ひかり薬局,242047,三重県,松阪市,34.508461,136.542725,0598-30-4600,0598-30-4601,519-2145,松阪市射和町305-1,月~水・金9:00~18:30木9:00~17:00土9:00~13:00,有,0598-30-4600,
第一調剤(株)村田調剤薬局大台店,244430,三重県,多気郡大台町,34.40406,136.401489,0598-82-2818,0598-82-2819,519-2404,多気郡大台町佐原 457-21,月~水・金8:30~18:30木土8:30-12:00 ,有,070-4795-8377,
ファ-コス薬局おおだい,244430,三重県,多気郡大台町,34.436821,136.520615,0598-85-7007,0598-85-0510,519-2423,多気郡大台町新田200-6,月~水・金8:30~18:00木9:00~17:00土8:30~13:00,有,0598-85-7007,
ココカラファイン薬局紀伊長島店,245437,三重県,北牟婁郡紀北町,34.209885,136.335175,0597-46-2062,0974-62-063 ,519-3204,北牟婁郡紀北町東長島588,月~水・金8:30~18:00木土9:00~17:00,有,080-3521-4954,
あおぞら薬局,245437,三重県,北牟婁郡紀北町,34.144318,136.145432,0597-32-4055,0597-32-4056,519-3406,北牟婁郡紀北町相賀1942-5,月~金8:30~18:00木8:30~16:30土8:30~16:00,有,0597-32-4055,
清川薬局サレド店,242098,三重県,尾鷲市,34.07003,136.190491,0597-22-4549,0597-22-6622,519-3615,尾鷲市中央町10-22,8:30~18:00,有,090-6822-0670,
セイムス尾鷲末広薬局,242098,三重県,尾鷲市,34.07708,136.189728,	0597-	37-	4480,nan,519-3651,尾鷲市末広町1037-1,平日9:00-13:00、14:00-18:00,無,,
うまどめ薬局,242128,三重県,熊野市,33.888119,136.099655,0597-88-0680,0597-88-0681,519-4324,熊野市井戸町614-6,月・火・水・金9:00~17:30 木・土9:00~14:00,有,090-7697-2539,
日本調剤御浜薬局,245615,三重県,南牟婁郡御浜町,33.802181,136.039581,0597-93-0222,0597-93-0224,519-5204,南牟婁郡御浜町阿田和4681-3,月~金8:30~17:30,有,090-7733-9598,
あたわ調剤薬局,245615,三重県,南牟婁郡御浜町,33.800663,136.037109,0597-93-0710,0597-93-0715,519-5204,南牟婁郡御浜町阿田和5189-7,月・火・木・金8:30~18:00水8:30~17:30土8:30~17:00,有,0597-93-0710,
どんぐりの森薬局,245623,三重県,南牟婁郡紀宝町,33.734627,136.007065,0735-29-7912,0735-29-7913,519-5701,南牟婁郡紀宝町鵜殿781-1,月水金9:00~18:00 木9:00~17:00 土9:00~12:30,有,090-5392-9757,
