施設_名称,施設_市区町村コード,住所_都道府県,住所_市区町村（郡）,住所_緯度,住所_経度,連絡先_電話番号,連絡先_FAX番号,連絡先_郵便番号,連絡先_住所,施設_開局時間,時間外_対応の有無,時間外_電話番号,エラー
有限会社丸山薬局,252131,滋賀県,東近江市,35.076763,136.294708,0748-27-0111,0748-27-0481,527-0231,東近江市山上町923-2,月~金8:30~19:00 土9:00~13:00,無,,
有限会社ひまわり薬局,252093,滋賀県,甲賀市,34.952789,136.155777,0748-63-3295,0748-63-3722,528-0042,甲賀市水口町虫生野中央80-2,月~金8:30~19:30土8:30~16:00 日・祝休み,有,080-2464-9897,
野の花薬局,252026,滋賀県,彦根市,35.273895,136.239532,0749-27-0860,0749-27-0861,522-0067,彦根市長曾根町5-26-5,月~金8:30~19:30 土8:30~12:30,有,090-6603-5265,
凡凡薬局東店,252085,滋賀県,栗東市,35.038757,135.974121,077-554-2368,077-554-2369,520-3035,栗東市霊仙寺1-1-46,月・火・水・金9:00~19:30 土9:00~13:00,有,077-554-2368,
凡凡薬局御園店,252085,滋賀県,栗東市,35.003044,136.024338,077-559-2121,077-558-1421,520-3005,栗東市御園1829-2,月、火、水、金9:00-19:00 木9:00-17:00土9:00-13:00,有,077-559-2121,
本宮調剤薬局,252018,滋賀県,大津市,34.999107,135.877258,077-511-5577,077-511-5578,520-0804,大津市本宮2-9-27,第1.3.5月、火、木8:45-18:00   第2.4月、水、金8:45-19:00  土9:00-12:00,有,080-9880-8361,
福澤薬局甲西店,252115,滋賀県,湖南市,35.003639,136.079819,0748-72-1070,0748-72-1080,520-3235,湖南市平松北3-70,月~金9:00~19:00土9:00~13:00,無,,
福澤薬局,252115,滋賀県,湖南市,35.009731,136.063309,0748-77-3055,0748-77-3093,520-3107,湖南市石部東2-5-37,月~金8:30~19:00土8:30~17:00,有,0748-77-3055,
福徳寿薬局,252018,滋賀県,大津市,34.987038,135.92868,077-545-7302,077-545-1016,520-2152,大津市月輪1-3-8,月~金10:00~21:00 土日祝日10:00~19:00,有,077-545-7302,
彦根かいえ薬局,252026,滋賀県,彦根市,35.261662,136.229431,0749-30-3161,0749-30-3162,522-0056,彦根市開出今町1524-4,月~金8:30~19:00 土8:30~12:00,無,,
八幡ますだ薬局,252042,滋賀県,近江八幡市,35.122044,136.105453,0748-38-0517,0748-38-8217,523-0898,近江八幡市鷹飼町南3-3-4,月~金8:30~19:00  土8:30~13:30,有,080-9602-8653,
日本調剤草津薬局,252069,滋賀県,草津市,35.022617,135.957977,077-562-4539,077-562-9468,525-0037,草津市西大路7-7ユニハイム草津ユトリオふれあい館1階,月、火、木、金9:00~19:30 水9:00~19:00 土9:00~16:00,無,,
日本調剤水口薬局,252093,滋賀県,甲賀市,34.987328,136.185242,0748-65-0131,0748-65-0132,528-0074,甲賀市水口町松尾1252-3,月~金9:00~18:00土9:00~1300,有,080-2010-2902,
日本調剤 滋賀医大前薬局,252069,滋賀県,草津市,34.972244,135.951797,077-598-6250,077-598-6251,525-0072,草津市笠山7-6-53,月~金9:00~19:00,有,090-3407-2837,
調剤薬局マリ-ン マキノ病院前店,252123,滋賀県,高島市,35.445103,136.031647,0740-20-2525,0740-20-2777,520-1823,高島市マキノ町中庄473-131,月-金9:00-20:00 土:9:00-15:00,有,090-1912-3278,
調剤薬局ツルハドラッグ大津石山店,252018,滋賀県,大津市,34.955723,135.897583,077-531-0268,077-531-0268,520-0867,大津市大平2-1-5,月~金9:00~19:00土9:00~13:00,無,,
調剤薬局ツルハドラッグ湖南岩根店,252115,滋賀県,湖南市,35.01054,136.109787,0748-71-4071,0748-71-4071,520-3252,湖南市岩根4580,月~金9:00~18:30土9:00~15:00,無,,
調剤薬局ツルハドラッグ栗東安養寺店,252085,滋賀県,栗東市,35.023075,135.997238,077-551-6270,077-551-6270,520-3015,栗東市安養寺8-2-22,月~金9:00~19:00土9:00~14:00,無,,
大津京こと薬局,252018,滋賀県,大津市,35.02972,135.864716,077-548-7312,077548-7314,520-0021,大津市二本松1-1ブランチ大津京2階,月・火・木・金9:00~19:00土・日9:00~17:00,無,,
大津ますだ薬局,252018,滋賀県,大津市,35.073017,135.883377,077-579-2436,077-579-2471,520-0104,大津市比叡辻2-11-18,月~水・金:9:00~19:30 木:9:00~19:00 土:9:00~13:30,有,090-5646-8109,
小島薬局,252077,滋賀県,守山市,35.050243,135.994934,077-583-0616,077-583-4590,524-0041,守山市勝部1-1-21-102,月~金9:00~20:00、土9:00~17:00,有,080-6226-8238,
滋賀県薬剤師会会営薬局,252069,滋賀県,草津市,34.975681,135.954407,077-567-2435,077-567-2434,525-0072,草津市笠山7-4-52,月~金9:00~17:15土9:00~13:00,有,080-2458-1298,
山本薬局,252018,滋賀県,大津市,35.065205,135.872665,077-579-3299,077-579-3353,520-0113,大津市坂本3-2-29,月~土9:00~20:00,無,,
阪神調剤薬局南彦根店,252026,滋賀県,彦根市,35.242729,136.247955,0749-22-6673,0749-22-6657,522-0054,彦根市西今町21-1,月9:00~19:00/火9:00~19:00/水9:00~19:00/木9:00~19:00/金9:00~19:00/土9:00~18:00,無,,
阪神調剤薬局東近江店,252131,滋賀県,東近江市,35.096165,136.230301,0748-23-1750,0748-22-8418,527-0045,東近江市中小路町494-4,月~金9:00~18:00,有,080-5789-0977,
阪神調剤薬局長浜店,252034,滋賀県,長浜市,35.384029,136.274979,0749-68-1785,0749-68-1786,526-0052,長浜市神前町9-37,月~金9:00~18:00,有,080-6206-5337,
阪神調剤薬局草津総合病院前店,252069,滋賀県,草津市,35.006454,135.926544,077-567-2080,077-567-2081,525-0066,草津市矢橋町狭間1629-15,月~金:9:00~17:30、土:9:00~12:00,有,080-9307-8021,
阪神調剤薬局 栗東店,252085,滋賀県,栗東市,35.033398,136.002762,077-554-8766,077-554-8767,520-3046,栗東市大橋2丁目5-36,月9:00~17:30/火9:00~17:30/水9:00~17:30/木9:00~17:30/金9:00~17:30,有,090-9280-5198,
後三条ハッピ-薬局,252026,滋賀県,彦根市,35.263493,136.247421,0749-24-3650,0749-24-3651,522-0086,彦根市後三条町495-3,月~金9:00~18:00 土9:00~12:00,有,0749-24-3650,
健幸薬局南草津LABO,252069,滋賀県,草津市,35.003254,135.949402,077-561-1881,077-561-1882,525-0059,草津市野路1-13-5,月~日9:00~18:00祝日休み,無,,
近江八幡ゆう薬局,252042,滋賀県,近江八幡市,35.124237,136.099915,0748-33-5840,0748-33-1945,523-0891,近江八幡市鷹飼町547-2 きよし堂ビル1階,月火水金9:00~19:30 木9:00~17:00 土9:00~14:00,有,0748-33-5840,
株式会社友愛見世調剤薬局,252018,滋賀県,大津市,35.042755,135.861237,077-525-2359,077-521-4483,520-0004,大津市見世2-2-22,月~金9:00~19:15土9:00~13:00,有,077-525-2359,
株式会社友愛オキ薬局,252018,滋賀県,大津市,35.010029,135.863678,077-522-2783,077-521-5770,520-0043,大津市中央1-6-25,月~金9:00~19:00土9:00~13:00,有,077-522-2783,
株式会社おくやま薬局,252018,滋賀県,大津市,34.993259,135.924576,077-545-6035,077-543-2199,520-2145,大津市大将軍1-13-7,月・火・木・金9:00~19:30 水9:00~19:00 土9:00~13:30日9:00~12:30,無,080-4396-6035,
河野薬局,252018,滋賀県,大津市,35.119877,135.915222,077-573-3252,077-573-3252,520-0242,大津市本堅田5-20-10,10:00~19:00,無,,
河瀬調剤薬局,252026,滋賀県,彦根市,35.226658,136.219376,0749-25-2771,0749-25-2779,529-1156,彦根市清崎町292-1,月・火・木・金 9:00~19:00水 9:00~17:00土 9:00~12:30,有,080-3920-7860,
下田薬局,,,,35.02721,136.129822,0748-75-8155,0748-75-8166,520-3201,湖南市下田1528,月~水・金9:00~18:00 木9:00~15:00土9:00~12:00,無,0748-75-8155,郵便番号
わたなべ調剤薬局,252018,滋賀県,大津市,34.984795,135.925415,077-547-2930,077-547-2940,520-2153,大津市一里山1-2-14,月~金9:00~20:00土9:00~14:00,無,,
ワカモリ薬局,252034,滋賀県,長浜市,35.389713,136.290237,0749-63-5515,0749-63-5536,526-0845,長浜市小堀町80-4,月火木金9:00-19:00 水9:00-17:00 土9:00-15:00 第2.4日曜9:00-13:00,無,,
れもん薬局,252018,滋賀県,大津市,35.074829,135.873749,077-536-5482,077-536-5487,520-0113,大津市坂本6-30-37,月火水金9:00-20:00木9:00-17:00土9:00-13:00,有,090-6664-8901,
ルックドイ薬局 和迩支店,252018,滋賀県,大津市,35.162502,135.923523,077-594-5566,077-594-5567,520-0522,滋賀県大津市和邇中浜444-1,月、水、金:9:00-20:00火、木:9:00-17:00土:9:00-15:00,無,,
ルックドイ薬局 安曇川店,252123,滋賀県,高島市,35.326775,136.02243,0740-32-2848,0740-32-4445,520-1214,高島市安曇川町末広3-18,月~金9:00~19:00 土9:00~13:00,無,,
りんご薬局,252123,滋賀県,高島市,35.404964,136.011658,0740-22-0411,0740-22-0412,520-1632,高島市今津町,月・火・水・金8:30~19:00 木8:30~16:30 土8:30~15:00,有,0740-22-0411,
りぼん薬局野洲店,252107,滋賀県,野洲市,35.068748,136.025497,077-586-3501,077-586-3522,520-2331,野洲市小篠原2055,月9:00~13:00、15:30~19:30 火木金9:00~19:30 水9:00~17:00 土9:00~12:30,有,077-586-3501,
リブラ薬局大路店,252069,滋賀県,草津市,35.020916,135.967285,077-562-8558,077-562-8559,525-0032,草津市大路2-10-8,月、火、木、金9:00-20:00 水9:00-17:00 土9:00-13:00,無,,
リブラ薬局一里山店,252018,滋賀県,大津市,34.982922,135.937225,077-547-2232,077-547-2233,520-2153,大津市一里山3丁目7番8号,"月,水,金9:00~19:00 火9:00~18:00 木9:00~17:00 土9:00~13:00",有,080-1425-8525,
リブラ薬局,252069,滋賀県,草津市,35.019436,135.961884,077-562-9277,077-562-9070,525-0032,草津市大路1丁目6-16,月~水金9:00~20:00 木:9:00~17:00土9:00~14:00,有,090-2359-3939,
りあん薬局,252085,滋賀県,栗東市,35.03574,136.014877,077-596-5270,077-596-5271,520-3045,栗東市高野562-7プロスペリテII-1F,月~水・金 9:00~19:00木 9:00~17:00土 9:00~12:00,有,080-1546-3185,
ラブリ-薬局,252077,滋賀県,守山市,35.052193,135.995773,077-598-1107,077-598-1108,524-0037,守山市梅田町15-8,月-水・金:9:00-19:00 木・土:9:00-17:00,有,077-598-1107,
八日市ゆう薬局,252131,滋賀県,東近江市,35.111919,136.205338,0748-34-0705,0748-34-0706,527-0022,東近江市八日市上之町9-2-2,月・火・木・金9:00~19:00,有,0748-34-0705,
ユタカ薬局木之本,252034,滋賀県,長浜市,35.503628,136.215714,0749-82-8207,0120-299-210,529-0426,長浜市木之本町黒田1075-1,月火木金9:00~19:00 水土9:00~17:00,有,080-3625-7972,
ユタカ薬局八日市,252131,滋賀県,東近江市,35.105835,136.195282,0748-20-2805,0748-20-2810,527-0013,東近江市東中野町314,"月~金9:00-14:00,15:00-18:00",無,,
ユタカ薬局日野,253839,滋賀県,蒲生郡日野町,35.019634,136.238007,0748-52-8890,0748-52-8891,529-1601,蒲生郡日野町松尾948-10,月~金9:00~19:00土9:00~13:00,無,,
ユタカ薬局長浜八幡中山,252034,滋賀県,長浜市,35.390675,136.273758,	0749-	64-	5005,nan,526-0021,長浜市八幡中山町503,月-金 9:00-19:00土 9:00-15:00日祝 休み,無,,
ユタカ薬局長浜宮司,252034,滋賀県,長浜市,35.378742,136.286987,0749-64-6051,0749-64-6055,526-0831,長浜市宮司町1200,月、火、水、金 8:30-19:00 木 9:00-18:00 土 8:30-13:00,有,0749-64-6051,
ユタカ薬局長浜,252034,滋賀県,長浜市,35.372646,136.275528,	0749-	68-	3260,	-	-	,526-0033,長浜市平方町375-4,月曜-土曜、8:30-19:00日曜、祝日休み,無,,
ユタカ薬局大津市民病院前,252018,滋賀県,大津市,35.00005,135.877686,	077-	510-	0622,nan,520-0803,大津市竜が丘1-3,平日 9:00-18:00土曜 9:00-13:00,無,,
ユタカ薬局大津月輪,252018,滋賀県,大津市,34.983536,135.93898,	077-	547-	2270,nan,520-2152,大津市月輪3-21-1,月-水、金9時-18時30分木9時-18時土9時-13時,無,,
ユタカ薬局膳所,252018,滋賀県,大津市,34.996624,135.886673,	077-	511-	9423,	077-	511-	9426,520-0816,大津市相模町4-3,午前8時30分-午後6時30分,無,,
ユタカ薬局浅井,252034,滋賀県,長浜市,35.425922,136.310638,0749-57-6190,0749-57-6191,526-0242,長浜市三田町1744-1,月~金 10:00-14:00 15:00~19:00 ,無,,
ユタカ薬局西大津,252018,滋賀県,大津市,35.028522,135.863876,	077-	511-	2622,	077-	511-	2633,520-0024,大津市松山町9-15,月、火、水、金曜日は9時-20時木曜日は9時-18時土曜日は9時-13時,無,,
ユタカ薬局西草津,252069,滋賀県,草津市,35.031494,135.945114,077-561-4080,077-561-4081,525-0028,草津市上笠2丁目33番12号,月-水・金9:00-19:00 木9:00-17:00 土9:00-13:00,無,,
ユタカ薬局瀬田西,252018,滋賀県,大津市,34.97646,135.909637,077-526-7764,077-526-7765,520-2134,大津市瀬田,月~金 9:00~13:00 14:00~18:00,無,,
ユタカ薬局瀬田,252018,滋賀県,大津市,34.975685,135.913162,	077-	547-	1051,nan,520-2141,大津市大江2-34-14,月、火、水、金曜日 9-19木曜日 9-17土曜日 9-13日、祝 休み,無,,
ユタカ薬局真野,252018,滋賀県,大津市,35.135666,135.923203,077-571-6220,077-571-6221,520-0232,大津市真野6-7-2,月~金9:30~18:30土9:30~13:00,無,,
ユタカ薬局栗東安養寺,252085,滋賀県,栗東市,35.021091,136.001923,077-574-8608,077-574-8609,520-3015,栗東市安養寺3-1-39,月~水・金:9:00~14:00/15:00~19:00 木・土:9:00~13:00,無,,
ユタカ薬局近江八幡,252042,滋賀県,近江八幡市,35.130756,136.09494,0748-31-2721,0748-31-2728,523-0893,近江八幡市桜宮町200-9,月~金9:00~19:00土9:00~13:00日祝:休,有,080-3613-0883,
ユタカ薬局安曇川,252123,滋賀県,高島市,35.324268,136.021255,	0740-	32-	6021,nan,520-1212,高島市安曇川町西万木429,月-金:9:00-18:00土:9:00-13:00日祝:休み,無,,
ユタカ薬局南草津,252069,滋賀県,草津市,35.00552,135.945206,077-569-5777,020-695-785,525-0055,草津市野路町689番地3,月~金9:00~20:00土9:00~13:00,無,,
ユタカ薬局ひえい辻,252018,滋賀県,大津市,35.06736,135.885391,	077-	577-	5005,	077-	577-	5015,520-0105,大津市下阪本6-6-16,月・火・水・金 9:00-19:00木       9:00-17:00土       9:00-13:00,無,,
ユタカ薬局365,252140,滋賀県,米原市,35.386501,136.362808,0749-53-3707,0120-373-173,521-0236,米原市間田506-2,月-金10:00-19:00,無,,
ユタカ薬局高月,252034,滋賀県,長浜市,35.470955,136.232788,0749-53-2164,0749-53-2165,529-0241,長浜市高月町高月910-1,月~金9:00~13:00、14:00~18:00土日祝:休,無,,
ユタカ薬局 栗東小柿,252085,滋賀県,栗東市,35.021801,135.969833,077-596-3625,077-596-3630,520-3024,栗東市小柿6-4-28,月~金10:00~14:00 15:00~19:00 土10:00~13:00 日、祝 休み,無,,
ユタカ調剤薬局竜王店,253847,滋賀県,蒲生郡竜王町,35.062737,136.122574,	0748-	58-	5356,	0748-	58-	5370,520-2552,蒲生郡竜王町小口1664-1,9時から20時 平日9時から17時 土曜日日祝日 休業,無,,
ユタカ調剤薬局日夏,252026,滋賀県,彦根市,35.231014,136.220566,	0749-	28-	9302,nan,522-0047,彦根市日夏町3696,9時から19時土曜日9時から14時日祝休業,無,,
ユタカ調剤薬局長浜祇園,252034,滋賀県,長浜市,35.386345,136.255127,0749-53-2495,0749-53-2496,526-0061,長浜市祇園町21,月~金10:00~19:00 (14:00~15:00は受付時間外),無,,
ユタカ調剤薬局甲西中央,,,,35.002983,136.083084,0748-71-2085,0748-71-2095,520-3225,湖南市平松北1-3,月-金9:00-19:00 土9:00-13:00,有,080-3613-1358,郵便番号
ユタカ調剤薬局安土,252042,滋賀県,近江八幡市,35.154991,136.13501,	0748-	46-	8066,	0120-	46-	8056,521-1311,近江八幡市安土町下豊浦字十七4705-1,月-土は9時-19時日は9時-13時祝日は休み,有,	070-	1621-	1382,
ユタカ調剤近江店,252140,滋賀県,米原市,35.333298,136.300262,	0749-	52-	6797,nan,521-0073,米原市箕浦字桑々田366-3,平日 9時から19時土曜日 9時から13時日曜日、祝日は休み,無,,
ゆうなみ薬局,252042,滋賀県,近江八幡市,35.134338,136.101929,0748-31-2238,0748-31-2239,523-0856,近江八幡市音羽町24-1,月~水・金9:00~19:30木9:00~17:00土9:00~13:30,有,748312238,
ヤマヤ薬局,252018,滋賀県,大津市,35.114761,135.919922,077-573-6578,077-574-2378,520-0242,大津市本堅田2-8-15,月~土9:30~19:00,有,090-2116-1193,
ヤクゴ薬局守山店,252077,滋賀県,守山市,35.094784,135.985077,077-584-3001,077-584-3002,524-0103,守山市洲本町1丁目1256-7,月水金:8:30-20:00 火木:8:30-16:30 土日8:30-15:30 祝日休み,有,090-6909-7853,
ヤクゴ薬局近江八幡駅南店,252042,滋賀県,近江八幡市,35.118439,136.109543,0748-38-4660,0748-38-4661,523-0813,近江八幡市西本郷町78-4,月火水金9:00~18:30 木9:00~17:00 土9:00~13:00,有,070-4374-5090,
ヤクゴ薬局まるやま水郷店,252042,滋賀県,近江八幡市,35.160423,136.097198,0748-36-2591,0748-36-2592,523-0805,近江八幡市円山町岩崎927-7,月-金9:00-17:00 土9:00-14:00,有,090-6909-7855,
ヤクゴ薬局ぶ-めらん店,252042,滋賀県,近江八幡市,35.126724,136.1008,0748-31-3465,0748-31-3486,523-0892,近江八幡市出町308-1,(月・水)9:00-18:00(火・金)9:00-19:00(木)9:00-17:00(土)9:00-13:00,有,090-6909-7854,
もりやま薬局,252077,滋賀県,守山市,35.047791,135.999954,077-582-8821,077-582-8822,524-0033,守山市浮気町216-1,月・火・水・金9:00-13:30、16:00-19:30 木9:00-17:00 土9:00-14:00,有,077-582-8821,
もも薬局膳所公園前店,252018,滋賀県,大津市,34.995808,135.893875,077-510-0301,077-510-0302,520-0813,大津市丸の内町9-30,月~金9:00~19:00土9:00~12:00 ,有,077-510-0301,
もも薬局穴村店,252069,滋賀県,草津市,35.04879,135.947464,077-568-8525,077-568-8526,525-0012,草津市穴村町314-1,月・火・金8:30~18:00 水・木8:30~16:30 土8:30~12:00,有,077-568-8525,
めぐみ薬局日夏店,252026,滋賀県,彦根市,35.232136,136.218323,0749-28-2610,0749-28-8190,522-0047,彦根市日夏町3661-5,月火水金9:00~19:00 木9:00~17:00 土9:00~13:00,無,,
ムラセ薬局南草津店,252069,滋賀県,草津市,35.003586,135.948364,077-563-4300,077-563-4332,525-0059,草津市野路1-14-47,月~金9:00~20:30土9:00~17:00,有,077-563-4300(転送あり),
ミント薬局 桜野町店,252018,滋賀県,大津市,35.025028,135.859818,077-518-7125,077-518-7126,520-0026,大津市桜野町2-4-7,月・火・木・金8:50~19:30水8:30~16:30土8:50~12:30,有,077-518-7125,
みらい薬局石部,252115,滋賀県,湖南市,35.009258,136.059479,0748-77-8229,0748-77-8230,520-3106,湖南市石部中央1-3-24,月-金 9:00~13:00 14:00~19:30 土 9:00~13:00,有,080-7839-4980,
みよし調剤薬局,252140,滋賀県,米原市,35.320183,136.321854,0749-54-8000,0749-54-8008,521-0023,米原市三吉556,月~金8:30~17:00 土8:30~11:00,有,0749-54-8000,
みやもと薬局草津店,252069,滋賀県,草津市,35.013123,135.959991,077-584-5849,077-584-5889,525-0023,草津市1-15-31,月~水・金9:00~20:00木9:00~17:00 土9:00~13:00,無,090-7755-3088,
みのり薬局,252085,滋賀県,栗東市,35.034901,135.986771,077-554-7644,077-554-7645,520-3027,栗東市野尻440-4,月~金9:00~19:30土9:00~13:00,有,077-554-7644,
みどり薬局草津店,252069,滋賀県,草津市,35.009476,135.92749,077-562-3148,077-562-3150,525-0066,草津市矢橋町1613-1,月~土:9:00~18:00,有,08061446951,
マロン薬局,252085,滋賀県,栗東市,35.037697,135.984451,077-516-7900,077-516-7901,520-3031,栗東市綣1-10-12,月水金9:00-19:00 火木8:00-16:00 土9:00-13:00,有,090-1226-1403,
まの薬局,252018,滋賀県,大津市,35.120972,135.915573,077-571-0765,077-571-0785,520-0232,大津市真野1-1-62,月・火・水・金9:00~19:30木9:00~19:00土9:00~13:30,有,090-4560-3177,
ますだ薬局守山店,252077,滋賀県,守山市,35.061111,135.985001,077-581-8179,077-581-8194,524-0022,守山市守山5-8-13,月~水・金8:30~19:30木9:00~18:00土8:30~13:30,有,090-5646-8109,
フロンティア薬局本宮店,252018,滋賀県,大津市,34.99921,135.877258,077-511-5730,077-511-5731,520-0804,大津市本宮2-9-26,第1・3・5月 毎週火・木9:00~19:00 第2・4月 毎週水・金9:00~18:00 土9:00~12:30,有,077-511-5730,
ふれあい薬局・富士見台,252018,滋賀県,大津市,34.986195,135.885651,077-531-1880,077-531-1881,520-0846,大津市富士見台14-16,月~金9:00~18:00 土10:00~14:00,有,077-531-1880,
ふれあい薬局・八日市,252131,滋賀県,東近江市,35.105793,136.196915,0748-20-0811,0748-20-0812,527-0039,東近江市青葉町1-45,月・火・水・金9:00~18:00 木9:00~17:00 土9:00~13:00,有,0748-20-0811,
ふれあい薬局・今津,252123,滋賀県,高島市,35.398609,136.035156,0740-24-7177,0740-24-7178,520-1621,高島市今津町今津1504-4,月・水・金 9:00-19:30 火・木 9:00-13:00,有,0740-24-7177(転送),
ふれあい薬局・金森,252077,滋賀県,守山市,35.060951,135.98291,077-581-2188,077-581-2189,524-0045,守山市金森町598-2,月・火・木・金9:00-19:00 土9:00-13:00,有,077-581-2188,
ふれあい薬局・コ-プもりやま前,252077,滋賀県,守山市,35.046711,135.988998,077-514-2007,077-514-2009,524-0041,守山市勝部3-15-31-1,月火水金9:00-19:00 木9:00-18:00 土9:00-12:00,有,077-514-2007,
ふれあい薬局,252077,滋賀県,守山市,35.061192,135.992523,077-581-2550,077-582-7620,524-0022,守山市守山4-13-2,月-金9:00-19:30 土9:00-14:00,有,070-1216-9130,
ふれあい長浜調剤薬局,,,,35.384193,136.274918,0749-64-1689,0749-68-3120,526-0052,長浜市神前町9-35,月-金8:45-17:45  土9:00-11:00,無,,郵便番号
ふれあい回天堂薬局,254410,滋賀県,犬上郡豊郷町,35.200054,136.231201,0749-35-5480,0749-35-5485,529-1169,犬上郡豊郷町石畑204-5,月~金9:00~17:30、土9:00~14:00,有,0749-35-5480,
ふれあいさふ谷薬局,252131,滋賀県,東近江市,35.045063,136.161423,0748-55-4182,0748-55-4198,529-1551,東近江市宮川町244-908,月~金9:00~19:00 土9:00~14:00,有,0748-55-4182,
ぷるす調剤薬局,252026,滋賀県,彦根市,35.24847,136.241959,0749-23-9211,0749-23-9217,522-0054,彦根市西今町419-1,8:30~17:00祝休み,有,0749-23-9211(夜間転送),
ふるさと薬局石山駅前店,252018,滋賀県,大津市,34.979393,135.901077,077-531-2236,077-531-2237,520-0832,大津市粟津町4-7 近江鉄道ビル1F,月-金9:30-19:00 土9:30-17:00,有,077-531-2236,
ふるさと薬局,252018,滋賀県,大津市,34.936867,135.927902,077-536-3410,077-536-3415,520-2276,大津市里5-2-11,月~水・金9:00~20:00、木9:00~17:00、土9:00~13:00,有,080-1553-0258,
フラワ-薬局日野店,253839,滋賀県,蒲生郡日野町,35.018391,136.239777,0748-52-9331,0748-52-9335,529-1601,蒲生郡日野町松尾5-58-1,月・火・木8:30~17:00水8:30~16:30金8:30~19:30土8:30~12:00,有,090-4110-9951,
フラワ-薬局信楽店,252093,滋賀県,甲賀市,34.875275,136.053864,0748-76-4193,0748-76-4194,529-1851,甲賀市信楽町長野479-13,月-金8:30-17:30土9:00-12:00,有,080-2638-3398,
フラワ-薬局湖東店,252131,滋賀県,東近江市,35.14547,136.256531,0749-45-4193,0749-45-0555,527-0134,東近江市平松町30-1,月-金8:30-17:30  土(1.3.5週)9:00-12:00 (2.4週)8:30-15:30,有,0749-45-4193,
フラワ-薬局 近江八幡店,252042,滋賀県,近江八幡市,35.118141,136.105087,0748-31-1193,0748-31-4193,523-0891,近江八幡市鷹飼町,月-土 8時30分-17時30分,有,090-2340-0450,
フタバ薬局新旭店,252123,滋賀県,高島市,35.355217,136.036728,0740-25-8270,0740-25-8271,520-1501,高島市新旭町旭1030-3,月・火・水・金8:00~19:00木8:00~16:00土8:00~13:00,無,,
フジイ薬局,252042,滋賀県,近江八幡市,35.106144,136.115295,0748-37-1661,0748-37-1681,523-0016,近江八幡市千僧供町,月-金8:30-20:00 土8:30-19:00,有,050-7109-0734,
ファミリ-薬局,252018,滋賀県,大津市,34.954266,135.904663,077-533-2775,077-533-4474,520-0861,大津市石山寺3-22-10,月火水金9:00-20:00  木9:00-17:30 土9:00-13:00,有,090-3974-7447,
ファ-マライズ薬局長浜七条店,252034,滋賀県,長浜市,35.386639,136.311325,0749-68-3022,0749-68-3023,526-0817,滋賀県長浜市七条町1026-4,月火水金9:00~19:00 木9:00~17:00 土9:00~13:00,無,,
ファ-マライズ薬局 元浜町店,252034,滋賀県,長浜市,35.383244,136.26712,0749-64-5003,0749-64-5004,526-0059,長浜市元浜町29-5,月-水、金:9:00-19:00 土:9:00-13:00,有,0749-64-5003,
ファ-スト薬局八日市店,253847,滋賀県,蒲生郡竜王町,35.094154,136.186035,0748-43-2190,0748-43-2191,520-2501,東近江市蛇溝町120-3,月火金9:00-18:00 木土9:00-13:00,有,0748-43-2190,
ファ-スト薬局,253847,滋賀県,蒲生郡竜王町,35.088612,136.120087,0748-57-8100,0748-57-8103,520-2501,蒲生郡竜王町弓削1825-2,月~水・金8:30~19:30 木8:30~16:30土8:30~13:00,有,0748-57-8100,
ファ-スト調剤薬局 大津堅田店,252018,滋賀県,大津市,35.117054,135.917786,077-571-0707,077-571-0703,520-0242,大津市本堅田4-6-21,月~水・金8:30~13:00、16:00~19:30、木8:30~17:00、土8:30~13:00,有,077-571-0707,
ひまわり薬局南林口店,252093,滋賀県,甲賀市,34.971428,136.159927,	0748-62-7001,	0748-62-7002,528-0029,甲賀市水口町南林口47,月・火・水・木・金9:00~19:00 土9:00~16:30,有,080-8530-3567,
ひまわり薬局虫生野店,252093,滋賀県,甲賀市,34.95097,136.166061,0748-63-7481,0748-63-7482,528-0041,甲賀市水口町虫生野1100-1,月・火・水・金9:00~19:30木9:00~17:00土9:00~13:00        ,有,090-3354-2755,
ひまわり薬局水口店,,,,34.975067,136.160736,0748-63-6781,0748-63-6782,528.0025,甲賀市水口町西林口440,月-水、金9:00-18:00木8:30-16:30土9:00-13:00,有,080-2464-9899,郵便番号
ひまわり薬局近江八幡店,252042,滋賀県,近江八幡市,35.124187,136.109589,0748-38-1590,0748-38-1591,523-0818,近江八幡市西本郷町東6-6,月、水、金8:30-19:00 火、木8:30-16:30 土8:30-13:00,有,080-2464-9902,
ひまわり薬局大津長等店,252018,滋賀県,大津市,35.00951,135.860504,077-526-1751,077-526-1752,520-0046,大津市長等2-8-38,月~水・金9:00~18:45木9:00~17:00土9:00~13:00,有,090-3354-2755,
ひまわり薬局 東名坂店,252093,滋賀県,甲賀市,34.97998,136.170563,0748-63-3701,0748-63-3702,528-0036,甲賀市水口町東名坂189-1,月火水金9:00-19:00 木土9:00-13:00,有,080-2464-9898,
ひまわり薬局城南店,252093,滋賀県,甲賀市,34.967648,136.163223,0748-65-4775,0748-65-4776,528-0005,甲賀市水口町水口5962,月・火・水・金9:30~18:30土9:30~13:00,有,080-2464-9904,
ひのき薬局,253839,滋賀県,蒲生郡日野町,35.012989,136.223541,0748-26-6204,0748-26-6205,529-1644,蒲生郡日野町内池371,月~金8:30~16:30土8:30~13:30,有,0748-26-6204,
ぱんだ薬局瀬田店,252018,滋賀県,大津市,34.991489,135.927948,077-536-5038,077-536-5848,520-2145,大津市大将軍三丁目24-8,月9:00~19:00/火9:00~19:00/水9:00~17:00/木9:00~19:00/金9:00~19:00/土9:00~17:00,有,077-536-5038,
はる風薬局,252018,滋賀県,大津市,35.097549,135.892929,077-571-1238,077-571-1239,520-0107,大津市雄琴北2-2-10,月、火、木、金8:45~20:00  水9:30~12:30、14:30~17:00土8:45~12:45,無,077-571-1238,
はな薬局栗東店,252085,滋賀県,栗東市,35.015869,135.975998,077-553-3055,077-553-3035,520-3012,栗東市岡195-4,月・水・金9:00-19:30 火9:00-18:30 木9:00-17:00 土9:00-12:00,有,070-7403-2738,
はな薬局,252018,滋賀県,大津市,34.980251,135.917618,077-545-5611,077-545-5617,520-2141,大津市大江3丁目5-25,月・火・水・金8:30~20:00 木8:30~16:00 土8:30~13:00,有,077-545-5611,
はなまる薬局南草津けやき通り店,252069,滋賀県,草津市,35.005016,135.9422,077-516-1302,077-516-1303,525-0050,草津市南草津3-4-3-2,月・火・水・金8:00-19:30 木9:00~19:00 土8:00-12:00,有,077-516-1302,
はなまる薬局大津におの浜店,252018,滋賀県,大津市,35.004257,135.883789,077-510-0600,077-523-0700,520-0801,大津市におの浜3-5-13 クリニックステ-ション大津におの浜1階,月・火・水・金9:00~18:30木9:00~18:00土9:00~12:00,有,077-510-0600,
ハ-モニ-薬局追分店,252069,滋賀県,草津市,34.997158,135.964401,077-596-3680,077-596-3690,525-0048,草津市追分南4-6-24,月~水・金9:00~20:00 木・土9:00~13:00,有,077-596-3680,
ハ-モニ-薬局守山石田店,252077,滋賀県,守山市,35.070072,135.982895,077-518-7077,077-518-7099,524-0014,守山市石田町275-7,月火木金8:30-19:30 水8:30-17:00 土8:30-13:00,有,077-518-7077(転送)または080-8853-6059,
ハ-モニ-薬局かがやき店,252069,滋賀県,草津市,34.998997,135.960129,077-561-5155,077-561-5157,525-0048,草津市追分南2-11-7,月~水・金9:00~20:00 木・土9:00~18:00,無,077-561-5155,
のぞみ薬局東沼波店,252026,滋賀県,彦根市,35.248417,136.259338,0749-47-6656,0749-47-6790,522-0027,彦根市東沼波町1018,月火水金9:00~19:00 木9:00~17:00 土9:00~12:30,有,080-9740-4549,
のぞみ薬局愛知川店,254258,滋賀県,愛知郡愛荘町,35.180397,136.213455,0749-42-2340,0749426911,5291315,愛知郡愛荘町沓掛386-5,月·火·金9:00-19:00 水·木9:00-17:00 土9:00-13:00,有,08038207930,
のぞみ調剤薬局,252026,滋賀県,彦根市,35.267849,136.251724,0749-26-1345,0749-26-1349,522-0087,彦根市芹橋2-9-11,月火水金8:30-19:00 木8:30-16:30 土8:30-12:30,有,090-1076-1059,
日本調剤栗東薬局,252085,滋賀県,栗東市,35.033142,136.001923,077-554-9150,077-554-9159,520-3046,栗東市大橋2-6-18,月~金9:00~18:00土9:00~13:00,有,080-2558-1045,
ニシムラ薬局,252018,滋賀県,大津市,34.970589,135.894943,077-531-1071,077-531-1072,520-0844,大津市国分1-9-25,月~水・金9:00~20:00   木9:00~17:00   土9:00~13:00,有,090-2111-8939,
にこ薬局,252085,滋賀県,栗東市,35.036617,135.980164,077-554-8925,077-554-8926,520-3031,栗東市 綣3丁目10-22-1F-2A,月・火・水・金9:30~19:30 木・土9:30~13:00,無,,
なの花薬局中ノ庄店,252018,滋賀県,大津市,34.991245,135.893036,077-526-8805,077-526-8806,520-0837,大津市中庄1丁目14-10-3,月・火・水・金8:30~18:30木8:30~17:30土8:30~13:00 ,有,775268805,
なの花薬局大津坂本店,252018,滋賀県,大津市,35.066158,135.866867,077-578-5311,077-578-5312,520-0113,大津市坂本1-25-5,月~土9:00~17:30,無,,
なの花薬局草津野村店,252069,滋賀県,草津市,35.026554,135.954407,077-566-5011,077-566-5022,525-0027,草津市野村6-1-3,月-水・金9:00-19:30 木9:00-17:00 土9:00-13:00,無,,
なの花薬局堅田店,252018,滋賀県,大津市,35.121246,135.917587,077-573-4011,077-573-4019,520-0241,大津市今堅田2-14-1,月・水・金9:00~19:00 火・木9:00~19:30土9:00~13:00,有,077-573-4011,
なの花薬局栗東大宝店,252085,滋賀県,栗東市,35.039284,135.974564,077-553-5211,077-554-2200,520-3035,栗東市霊仙寺1-1-53,月・火・水・金8:30~20:00 木9:00~17:00土8:30~13:00,有,077-553-5211,
なの花薬局近江八幡店,252042,滋賀県,近江八幡市,35.128536,136.096085,0748-31-1711,0748-31-0311,523-0893,近江八幡市桜宮町211-5,月・水・金9:00~19:30 火9:00~17:00 土9:00~13:30,無,0748-31-1711,
なの花薬局仰木の里店,252018,滋賀県,大津市,35.108227,135.8936,077-536-5508,077-536-5509,520-0246,大津市仰木の里7-1-13,月・火・水・金8:30~19:00木8:30~16:30土8:30~17:00,有,775365508,
なの花薬局わに店,252018,滋賀県,大津市,35.1618,135.919373,077-594-2411,077-594-2417,520-0528,大津市和邇高城267-1,月・火・木・金9:00~19:30水9:00~18:00土8:30~13:00,有,077-594-2411(転送),
どんぐり薬局近江店,252140,滋賀県,米原市,35.335136,136.313141,0749-51-1736,0749-51-1737,521-0083,米原市新庄77-2,月~金9:00~18:00第1・3土9:00~13:30第2・4・5土 9:00~11:00,有,0749-51-1736,
どんぐり薬局,252034,滋賀県,長浜市,35.390675,136.273758,0749-65-2911,0749-65-2912,526-0021,長浜市八幡中山町318-41,月・火・水・金8:30~19:00土8:30~17:30,無,,
どんぐり薬局中山店,252034,滋賀県,長浜市,35.388004,136.269913,0749-50-2448,0749-50-7642,526-0025,長浜市分木町2-17,平日9:00~18:00 木・土9:00~12:00,無,,
どれみ薬局,252107,滋賀県,野洲市,35.062984,136.027496,077-576-7707,077-576-7708,520-2331,野洲市小篠原869-8,月~水・金8:30~19:00  木8:30~16:30 土8:30~13:30,有,077-576-7707(転送),
ドリ-ム薬局南草津店,252069,滋賀県,草津市,35.004967,135.949112,077-569-5630,077-569-5631,525-0059,草津市野路1-6-5,月-金8:45-19:45土8:45-13:00,有,077-569-5630,
ドリ-ム薬局手原店,252085,滋賀県,栗東市,35.026928,135.999924,077-551-3510,077-551-3520,520-3047,栗東市手原3-11-4,"月、火、木、金、土9:00~19:00,水9:00~17:00,土9:00~12:00,16:30~19:00",無,,
ドリ-ム薬局安曇川店,252123,滋賀県,高島市,35.331451,136.027222,0740-32-8066,0740-32-8067,520-1212,高島市安曇川町西万木1264-3,月・水・金9:00~19:30 火・木9:00~17:00 土9:00~12:30,有,0740-32-8066,
とまと薬局和迩店,252018,滋賀県,大津市,35.15926,135.911194,077-594-8839,077-594-8838,520-0529,大津市和邇春日2-868-35,月~金9:00~18:00日9:00~17:00,有,090-7118-4914,
とうじゅ薬局,252123,滋賀県,高島市,35.355579,136.034134,0740-25-5117,0740-25-5117,520-1501,高島市新旭町旭1-8-5,月火水金9:00-19:00 木9:00-17:00 土9:00-13:00,有,090-4643-4025,
ティエス調剤薬局矢橋店,252069,滋賀県,草津市,35.009476,135.92749,077-566-7707,077-566-7708,525-0066,草津市矢橋町1565-1,月-金9:00-18:00 土9:00-13:00,有,077-566-7707,
ティエス調剤薬局野路店,252069,滋賀県,草津市,35.027611,135.957108,077-567-1050,077-567-1031,525-0059,草津市野尻5-4-1,月-金9:00-17:30土9:00-13:30,有,077-567-1050,
ティエス調剤薬局南草津店,252069,滋賀県,草津市,35.004967,135.949112,077-561-7425,077-561-7463,525-0059,草津市野路1-6-5,月-金8:45-20:00土8:45-13:30,有,077-561-7425,
ティエス調剤薬局甲西店,252115,滋賀県,湖南市,35.024494,136.07399,0748-71-4440,0748-71-4410,520-3253,湖南市正福寺1316-1,月-金8:00-19:30 土日祝8:00-18:00,有,0748-71-4440,
ティエス調剤薬局 野村店,252069,滋賀県,草津市,35.031429,135.955811,077-566-2313,077-566-2317,525-0027,草津市野村8-9-38,月~金 9:00~20:00 土 9:00~13:30,有,,
テイエス調剤薬局 草津駅前店,252069,滋賀県,草津市,35.023464,135.964615,077-561-2509,077-561-2519,525-0026,草津市渋川,月-金9:00-19:30  土9:00-13:00,有,077-561-2509,
ティエス調剤薬局 守山店,252077,滋賀県,守山市,35.050266,135.997681,077-581-1085,077-581-1176,524-0033,守山市浮気町300-15-102,月-金9:00-19:15 土9:00-13:00 日祝休み,有,077-581-1085,
ティエス調剤薬局 三雲店,252115,滋賀県,湖南市,34.968178,136.106277,0748-69-6321,0748-69-6331,520-3221,湖南市三雲398-1,月~水、金9:00~19:15 木9:00~17:00 土9:00~12:15,有,090-8882-4667,
ティエス調剤薬局 湖南中央店,252115,滋賀県,湖南市,35.005024,136.081848,0748-69-6530,0748-69-6531,520-3234,湖南市中央2丁目119-5,月-水・金8:45-19:15 木8:45-17:15 土8:45-12:45,無,,
ティエス調剤薬局 くろづ店,252018,滋賀県,大津市,34.944229,135.912216,077-546-7923,077-546-7924,520-2279,大津市黒津,月水金9:00~19:30 火木9:00~18:00土9:00~14:00 *,無,,
つばさ薬局野洲店,252107,滋賀県,野洲市,35.07246,136.024811,077-518-0111,077-518-0122,520-2353,野洲市久野部194-3,月-水 金9:00-19:45  木9:00-17:00 土8:30-12:45,有,077-518-0111,
つばさ薬局 緑町店,252131,滋賀県,東近江市,35.114494,136.205765,0748-20-2880,0748-28-2881,527-0023,東近江市八日市緑町5-26,月・火・木・金:9:00~19:00  水・土 9:00~13:00,無,,
つばさ薬局 中沢店,252085,滋賀県,栗東市,35.027527,135.975784,077-599-1068,077-599-1028,520-3025,栗東市中沢,月~木9:00~19:00 金9:00~17:00 土9:00~13:00,有,077-599-1068,
つばさ薬局,252034,滋賀県,長浜市,35.500462,136.223053,0749-82-3511,0749-82-3811,529-0425,長浜市木之本町木之本2015生活館内,月~金9:00~19:00 土9:00~15:00,無,,
つなぐ薬局栗東店,252085,滋賀県,栗東市,35.024891,135.996155,077-552-8968,077-553-9120,520-3047,栗東市手原5-6-14,月~金9:00-19:00 土9:00-12:30,有,077-552-8968,
つじく薬局,252131,滋賀県,東近江市,35.186478,136.159149,0748-42-0667,0748-42-4599,521-1205,東近江市躰光寺町610-4,月、火、金:8:30~20:00 木:8:30~16:30 水、土:8:30~17:30,有,080-5711-4435,
たんぽぽ薬局木之本店,252034,滋賀県,長浜市,35.503014,136.213394,0749-82-8231,0749-82-8232,529-0426,長浜市木之本町黒田1090-1,月火木金土9:00~18:00 水9:00~17:00,有,0749-82-8231,
たんぽぽ薬局大津店,252018,滋賀県,大津市,34.986214,135.885178,077-537-7301,077-537-7302,520-0846,大津市富士見台14-21,月~金9:00~18:00 土9:00~11:00,有,077-537-7301,
たんぽぽ薬局草津店,252069,滋賀県,草津市,35.001896,135.957886,077-599-3101,077-599-3102,525-0054,草津市東矢倉3-33-34,月~金:9:00~20:00 土:9:00~13:00,無,,
たんぽぽ薬局守山店,252077,滋賀県,守山市,35.054306,135.992477,077-514-0401,077-583-9732,524-0022,守山市守山,月~金 9:00~18:00 土 9:00~13:00,有,077-514-0401,
たんぽぽ薬局 長浜店,252034,滋賀県,長浜市,35.369106,136.287064,0749-62-2831,0749-62-2832,526-0043,長浜市大戌亥町255番地,月-金9:00-18:00  土9:00-11:00 ,有,0749-62-2831,
たんぽぽ薬局 新高島店,252123,滋賀県,高島市,35.292225,136.009247,0740-36-8211,0740-36-8212,520-1121,高島市勝野2254-28,月~金9:00~18:00 土9:00~11:00,有,0740-36-8211,
たんぽぽ薬局 高島店,252123,滋賀県,高島市,35.292973,136.010941,0740-36-8131,0740-36-2492,520-1121,高島市勝野2240-1,月~金9:00~18:00 土9:00~11:00,無,,
タケシタ薬局,252140,滋賀県,米原市,35.315746,136.28624,0749-52-0003,0749-52-0138,521-0016,米原市下多良1-59,月-土 9-19時,有,050-5328-2012,
そよかぜ薬局,252034,滋賀県,長浜市,35.419666,136.279678,0749-73-8177,0749-73-8188,529-0112,長浜市宮部町3029-2,月~水9:00~19:00 木9:00~17:00 土9:00~14:00,有,0749-73-8177,
そうごう薬局彦根日夏店,252026,滋賀県,彦根市,35.233467,136.218002,0749-30-9811,0749-30-9812,522-0047,彦根市日夏町2881-1,月9:00~19:30/火9:00~19:30/水9:00~17:00/木9:00~19:30/金9:00~19:30/土9:00~14:00,有,0749-30-9811,
そうごう薬局長浜店,252034,滋賀県,長浜市,35.443203,136.212479,0749-79-0451,0749-79-0452,529-0354,長浜市湖北町山本1201,月8:00~18:00/火8:00~18:00/水8:00~18:00/木8:00~16:00/金8:00~18:00/土8:00~18:00/備考:祝日休み,有,0749-79-0451,
そうごう薬局高月店,252034,滋賀県,長浜市,35.468437,136.236496,0749-53-2401,0749-53-2402,529-0241,長浜市高月町高月291,月-水、金:9:00-18:30 木:9:00-17:00 土:9:00-12:30,有,0749-53-2401,
そうごう薬局膳所駅前店,252018,滋賀県,大津市,34.999844,135.881287,077-510-0531,077-510-0532,520-0802,大津市馬場2-9-1 IBOTSU1階,月、火、木、金9:00-19:30水9:00-18:30土9:00-13:00,有,077-510-0531,
すみれ薬局,252018,滋賀県,大津市,35.043442,135.858337,077-521-6103,077-521-6113,520-0006,大津市滋賀里1-8-29,月・水・金9:00~20:00火・木9:00~19:00土9:00~16:00,有,077-521-6103,
スマイル薬局野洲店,252107,滋賀県,野洲市,35.069416,136.018982,077-586-0527,077-586-0527,520-2362,野洲市市三宅2732,月~水、金・土8:45~19:00木9:00~17:00,有,077-586-0544,
スマイル薬局,252085,滋賀県,栗東市,35.023148,135.971024,077-552-6923,077-552-6944,520-3024,栗東市小柿6-1-41-1-1,月~金8:30~20:30 土8:30~18:00 日祝8:30~13:00,無,,
スマイル平方薬局,252034,滋賀県,長浜市,35.3778,136.282471,0749-64-3922,0749-64-3933,526-0033,長浜市平方町1188,月~金9:00~19:00  土9:00~13:00,有,0749-57-6993,
スマイル祇園薬局,252034,滋賀県,長浜市,35.387299,136.259033,0749-62-6300,0749-62-6320,526-0061,長浜市祇園町132-9,月~水・金・土9:00~19:00,有,0749-57-6993,
すまいる薬局草津店,252069,滋賀県,草津市,35.027222,135.958923,077-584-5606,077-584-5616,525-0025,草津市西渋川1-21-14エルミナMCビル1階,月~金9:00~18:30土9:00~13:00,有,070-1796-9933,
スマイルひこね薬局,252026,滋賀県,彦根市,35.288818,136.260925,0749-47-6670,0749-47-6680,522-0002,彦根市松原町3614,月火木金9:00~19:00 水8:30~16:30 土9:00~13:00,有,0749-47-6670,
すばる薬局,252018,滋賀県,大津市,34.992271,135.891937,077-510-7505,077-510-7506,520-0814,大津市本丸町3-8-1,月~水・金9:00~19:00木9:00~16:00土9:00~13:00,無,,
スズキ薬局栗東店,252085,滋賀県,栗東市,35.023457,135.998642,077-553-8122,077-552-7779,520-3015,栗東市安養寺1-1-20-102 ラフィ-ネ栗東1階,月・火・水・金 9:00~19:00 / 木 9:00~17:00 / 土 9:00~13:00,有, 080-5315-8122,
スズキ調剤薬局栗東駅前店,252085,滋賀県,栗東市,35.037289,135.981461,077-516-4222,077-516-4223,520-3031,栗東市綣2-4-5ウイングプラザ1F,月火木金9:00~20:00 水9:00~19:00 土9:00~13:00,有,080-5337-4222,
スズキ調剤薬局,252018,滋賀県,大津市,34.986065,135.925644,077-543-3331,077-543-3332,520-2144,大津市大萱1-16-1,月~金9:00~20:30 土9:00~17:00,無,,
すこやか薬局・長浜,252034,滋賀県,長浜市,35.3731,136.279312,0749-64-5522,0749-64-5536,526-0034,長浜市弥高町180,月~金9:00~19:00 土9:00~13:00,有,0749-64-5522,
すこやか薬局,252077,滋賀県,守山市,35.062603,135.989059,077-514-0507,077-514-0508,524-0022,守山市守山5-6-53,月-金9:00-18:00   土9:00-11:00,有,077-514-0507,
スギ薬局長浜インタ-店,252034,滋賀県,長浜市,35.39666,136.287399,0749-68-1045,0749-62-0137,526-0014,長浜市口分田町466,10:00-21:00 (年末年始以外無休),有,090-6766-4080,
スギ薬局近江八幡北店,252042,滋賀県,近江八幡市,35.141968,136.085342,0748-29-3992,0748-29-3993,523-0828,近江八幡市宮内町字道ノ下187番地,月~金9:00-14:00/15:00-18:00 土日祝休み,無,,
スギ薬局近江八幡店,252042,滋賀県,近江八幡市,35.130775,136.093109,0748-31-1151,0748-31-1152,523-0894,近江八幡市中村町49-13,月-日曜9:00-22:00 祝日も同様,無,,
スギ薬局 八日市店,252131,滋賀県,東近江市,35.110275,136.205704,0748-43-2244,0748-43-2245,527-0025,東近江市八日市東本町6-48,月-金9:30-19:00 土9:30-16:00,無,,
スギ薬局 草津店,252069,滋賀県,草津市,35.019115,135.949921,077-566-6915,077-566-6916,525-0036,草津市草津町1520-1,月-金9:00-20:00 土9:00-17:00,有,090-9818-2272,
スギ薬局 近江八幡西店,252042,滋賀県,近江八幡市,35.121376,136.094086,0748-31-3685,0748-32-4687,523-0031,近江八幡市堀上町127-1,月-金9:00-20:00 土9:00-14:00,無,,
スギ薬局 河瀬店,252026,滋賀県,彦根市,35.22834,136.225647,0749-28-7511,0749-28-7512,522-0223,彦根市川瀬馬場町1080-1,月~土9:00~21:00 日・祝9:00~18:00(祝のみ14:00~15:00閉局),有,070-3153-1297,
ジップドラッグ 唐崎薬局,252018,滋賀県,大津市,35.043839,135.862701,077-510-0655,077-510-0656,520-0004,大津市見世2丁目19-55,月~水・金 9:00~19:30木 9:00~17:00土 9:00~13:00,有,070-3138-8711,
じげん薬局浜大津店,252018,滋賀県,大津市,35.01157,135.862854,077-527-0780,077-527-0788,520-0047,大津市浜大津2-1-23,月火水金9:00~19:00木9:00~17:00土9:00~12:00,有,090-6901-3283,
じげん薬局大江店,252018,滋賀県,大津市,34.981655,135.926239,077-548-2842,077-548-2099,520-2141,大津市大江4丁目19-14,月、火、水、金8:30-19:00 木8:30-16:30 土8:30-12:30,有,090-6901-3283,
サン調剤薬局えんま堂店,252077,滋賀県,守山市,35.048553,135.982269,077-596-5536,077-596-5538,524-0042,守山市焔魔堂町115-1,月~水、金9:00~19:30 木9:00~17:00 土9:00~13:00,有,080-3823-1729,
さん調剤薬局,252026,滋賀県,彦根市,35.253525,136.241974,0749-47-5329,0749-47-5328,522-0042,彦根市戸賀町38-4,月~水・金9:00~19:00木9:00~17:00 土9:00~13:00,有,080-5218-1500,
サン調剤薬局,252077,滋賀県,守山市,35.058826,135.995178,077-514-0337,077-514-0347,524-0021,守山市吉身2-6-23,月火木金9:00~20:00 水9:00~18:00 土9:00~13:00,有,077-514-0337,
さわだ薬局八日市店,252131,滋賀県,東近江市,35.112072,136.20137,0748-22-0802,0748-22-0803,527-0022,東近江市八日市上之町4-28,月~水・金9:00~18:00、木9:00~17:00、土9:00~13:00,有,0748-22-0802,
さわだ薬局,252069,滋賀県,草津市,35.045219,135.957657,077-568-3910,050-3321-3113,525-0013,草津市新堂町49-5,月-金9:00-18:00 土9:00-13:00,有,077-568-3910,
さくら薬局 彦根川瀬馬場店,252026,滋賀県,彦根市,35.228039,136.22467,0749-28-2566,0749-28-2563,522-0223,彦根市川瀬馬場町1082-4,月・火・金9:00~20:00  水・木9:00~19:00  土9:00~13:00,有,0749-28-2566,
さくら薬局 長浜川道店,252034,滋賀県,長浜市,35.396919,136.237686,0749-72-8282,0749-72-8091,526-0111,長浜市川道町513-5,月火水金9:00~19:00 木9:00~17:00 土9:00~13:00,有,090-8081-7791,
さくら薬局 草津店,252069,滋賀県,草津市,35.034363,135.957565,077-574-8939,077-574-8938,525-0021,草津市川原,月~水、金9:00~19:00 土9:00~14:00,有,077-574-8939,
さかのいち調剤薬局,252018,滋賀県,大津市,35.070164,135.878815,077-579-8521,077-579-8527,520-0113,大津市坂本三丁目32-21,月・火・水・金8:45~19:30木8:30~16:30土8:45~12:30,無,,
サカイ薬局,252077,滋賀県,守山市,34.950691,136.152985,0748-63-3263,0748-62-2251,524-0041,甲賀市水口町虫生野1031,月~土8:30~19:00,有,0748-63-3263,
さいとう調剤薬局石部店,252115,滋賀県,湖南市,35.003342,136.064301,0748-77-8121,0748-77-8131,520-3107,湖南市石部東5-4308-6,月・水9:00~19:30 火・木・金9:00~17:00土9:00~12:00,有,080-8939-9040,
さいとう調剤薬局 菩提寺店,252115,滋賀県,湖南市,35.034649,136.062073,0748-74-9163,0748-74-9176,520-3248,湖南市菩提寺西1-9-23-102,月・水・金9:00~19:00  火・木9:00~17:00 土9:00~12:30,有,0748-78-0939,
こまいざわ薬局,252069,滋賀県,草津市,35.044285,135.958344,077-584-4081,077-584-4082,525-0014,草津市駒井沢町405-2,月・火・木・金8:30~13:30、16:00~19:00、水8:30~17:00、土8:30~13:00,有,077-584-4081,
こころ薬局,252018,滋賀県,大津市,35.122341,135.917679,077-572-9764,077-572-9765,520-0241,大津市今堅田2-16-1,月・火・木・金9:00~20:00水9:00~17:00土9:00~13:00,有,070-1767-1236,
くるみ調剤薬局,252034,滋賀県,長浜市,35.422195,136.256729,0749-73-4513,0749-73-2525,529-0142,長浜市田町62-1,月・火・水・金9:00~19:30木9:00~17:00土9:00~13:00,有,090-1952-5695,
くぼ薬局,252140,滋賀県,米原市,35.386688,136.376007,0749-58-8000,0749-58-8022,521-0314,米原市春照1121-2,"月8:30-18:00,火木8:30-17:30,水金8:30-14:00/16:00-19:30",有,0749-58-8000,
クオ-ル薬局膳所駅前店,252018,滋賀県,大津市,34.996288,135.888641,077-524-1740,077-524-1741,520-0802,大津市膳所二丁目7-5,月-水9-21時木-土9-17時,有,080-8939-6531,
クオ-ル薬局甲西店,252115,滋賀県,湖南市,34.986351,136.079681, 0748-71-3110, 0748-71-3111,520-3231,湖南市針252-1,月水金9:00~200:00 火木9:00~17:00 土9:00~13:00,有,080-8939-6358,
クオ-ル薬局こびらい店,252085,滋賀県,栗東市,35.036079,135.965378,077-554-8501,077-554-8502,520-3034,栗東市小平井3-2-24,月・水・金9:00-20:00 火・木9:00-17:00 土9:00-13:00,有,080-2476-2389,
クオ-ル薬局 水口店,252093,滋賀県,甲賀市,34.978951,136.177551,0748-65-0500,0748-65-0511,528-0074,甲賀市水口町松尾744-126,月~金8:45~18:00 土9:00~13:00,有,080-8939-6357,
キリン堂薬局東近江店,252131,滋賀県,東近江市,35.10775,136.200378,0748-25-1530,0748-25-1531,527-0039,東近江市青葉町3-1-2,平日9:00~19:00土9:00~13:00,有,070-1455-6829,
キリン堂調剤薬局近江八幡西店,252042,滋賀県,近江八幡市,35.127098,136.093918,0748-31-3470,0748-31-3471,523-0894,近江八幡市中村町28-2,月~金9:00~18:00,有,8096925812,
キリン堂 南彦根店,252026,滋賀県,彦根市,35.248966,136.241058,0749-21-3088,nan,522-0054,彦根市西今町435-1,月・火・水・金9:00~18:00 土・日09:00~17:00,無,,
キリン堂調剤薬局長浜店,252034,滋賀県,長浜市,35.369106,136.287064,0749-68-2450,0749-68-2451,526-0043,長浜市大戌亥町254番1,月~金9:00~18:00,無,,
キノシタ薬局,252018,滋賀県,大津市,34.977283,135.901993,077-534-8830,077-534-8899,520-0832,大津市粟津町17-11,月-水・金9:00~20:30 木9:00~17:00 土9:00~14:00,有,090-3355-8830,
きしむら調剤薬局,253839,滋賀県,蒲生郡日野町,35.015335,136.244141,0748-52-8150,0748-52-8152,529-1601,蒲生郡日野町松尾二丁目88番地の3,月~木9:00~19:00金8:30~16:30土9:00~14:30,有,080-5633-8152,
キクヤ調剤薬局緑町店,252131,滋賀県,東近江市,35.112553,136.208069,0748-24-1616,0748-25-0009,527-0023,東近江市八日市緑町,月~水9:00~19:00 木9:00~17:00 土9:00~13:00,有,090-3853-4193,
キクヤ調剤薬局東本町店,252131,滋賀県,東近江市,35.108486,136.203995,0748-24-0200,0748-20-3600,527-0025,東近江市八日市東本町3-10,月-金9:00-17:00 土9:00-14:00,有,080-4393-4193,
キクヤ調剤薬局小脇店,252131,滋賀県,東近江市,35.107212,136.18689,0748-23-0008,0748-23-0009,527-0015,東近江市中野町800-1,月~水・金8:30~19:00土8:30~13:00,無,,
キクヤ調剤薬局春日店,252131,滋賀県,東近江市,35.105221,136.207016,0748-22-0555,0748-22-0606,527-0033,東近江市東沖野2-2-1,月・水・金9:00~19:00 火・木9:00~17:00 土9:00~12:00,有,080-4027-4193,
キクヤ調剤薬局札の辻店,252131,滋賀県,東近江市,35.101967,136.215668,0748-23-0800,0748-23-0801,527-0033,東近江市東沖野4丁目16-17,月~水金9:00~19:00 木9:00~17:00 土9:00~12:30,有,090-6063-4193,
キクヤ調剤薬局建部店,252131,滋賀県,東近江市,35.114475,136.208893,0748-22-0008,0748-22-0009,527-0023,東近江市八日市緑町2-8,月~水、金9:00~19:00 木9:00~17:00 土9:00~12:30,有,080-4493-4193,
キクヤ調剤薬局愛知川店,252131,滋賀県,東近江市,35.168396,136.205887,0749-42-8558,0749-42-6551,527-0101,愛知郡愛荘町愛知川,月・火・水・金9:00-18:00 土9:00-12:30,有,090-6678-4193,
きいろ薬局,252018,滋賀県,大津市,35.122044,135.912766,077-572-9226,077-572-9227,520-0232,大津市真野1-3-48,月・水・金9:00~19:00 火9:00~17:00 木・土9:00~13:00,有,080-4435-7462,
カルム薬局,252107,滋賀県,野洲市,35.072117,136.025513,077-599-5845,077-599-5846,520-2353,野洲市久野部198-1,月・火・木・金8:45~19:00 水・土8:45~13:00,無,070-1810-0628,
かも調剤薬局,252042,滋賀県,近江八幡市,35.124706,136.06694,0748-36-7827,0748-36-7828,523-0058,近江八幡市加茂町3660-6,月~水・金9:00~18:30木9:00~17:00土9:00~13:00,無,,
かのん薬局,252018,滋賀県,大津市,35.007751,135.860184,077-526-5822,077-526-5823,520-0046,大津市長等1-4-1,月-金9時-18時土 9時-12時,有,090-2288-3238,
カナ-ル調剤薬局唐崎店,252018,滋賀県,大津市,35.050468,135.868088,077-572-6627,077-572-6628,520-0106,大津市唐崎2-11-3,月水金9:00~18:00木土9:00~12:00,無,,
かすが調剤薬局,252018,滋賀県,大津市,35.156151,135.913895,077-594-5652,077-594-5682,520-0526,大津市和邇中316-1,月~金8:30~17:30土9:00~12:00,無,,
かえる薬局大津京店,252018,滋賀県,大津市,35.025402,135.862793,077-548-7281,077-548-7282,520-0024,大津市松山町1-24,月・火・水・金9:00-19:00木・土9:00-15:00,無,,
オリ-ブ薬局,252018,滋賀県,大津市,35.029404,135.861237,077-522-5005,077-522-5006,520-0027,大津市錦織3-16-20,月・火・木・金9:00~20:00水9:00~17:00土9:00~13:00,有,080-9121-8502,
おひさま薬局 目川店,252085,滋賀県,栗東市,35.017853,135.981155,077-599-0395,077-599-0397,520-3013,栗東市目川1402,月・火・水・金9:00~19:00木・土9:00~13:00,有,077-599-0395,
エン薬局 長浜風の街店,,,,35.392845,136.277771,0749-53-4105,0749-53-4106,526-0021,長浜市八幡中山町361,月火水金9:00~19:00 木9:00~17:00 土9:00~13:00,有,090-4567-1578,郵便番号
エン薬局 堅田店,252018,滋賀県,大津市,35.117352,135.908401,0775486070,0775486080,520-0242,大津市本堅田6-8-37,月・火・水・金/9:00~19:00土/9:00~15:30,有,077-548-6070,
エリ-薬局南草津店,252069,滋賀県,草津市,35.004002,135.938736,077-584-4620,077-584-4622,525-0050,草津市南草津5-6-1,月~水・金8:30~19:00  火・木8:30~17:00  土8:30~12:30,有,077-584-4620,
エムハ-ト薬局北土山店,252093,滋賀県,甲賀市,34.93964,136.293411, 0748-66-0187,0748-66-0188,528-0211,甲賀市土山町北土山1678番地,月、火、木、金8:30~19:00水11:00~16:00土8:30~12:00,有, 0748-66-0187,
エムハ-ト薬局 水口店,252093,滋賀県,甲賀市,34.969444,136.17691,0748-63-3677,0748-63-3678,528-0031,甲賀市水口町本町,月~土:9:00~17:30,有,0748-63-3677,
うさぎ調剤薬局浜大津店,252018,滋賀県,大津市,35.011356,135.859894,077-521-7775,077-521-7776,520-0047,大津市浜大津3-2-1,月~金8:45~17:00土8:45~12:30,有,080-4702-7775,
うさぎ調剤薬局南草津店,252069,滋賀県,草津市,35.003296,135.944504,077-561-5152,077-561-5158,525-0050,草津市南草津2-4-3,月~水・金 9:00~19:00 木 9:00~17:00 土 9:00~12:00,有,080-3832-5152,
うさぎ調剤薬局,252018,滋賀県,大津市,34.977196,135.90094,077-537-8884,077-537-8889,520-0832,大津市粟津町17-21-2,月~水金9:00~19:00木9:00~17:00土9:00~12:30,有,090-6670-8884,
ウエルシア薬局栗東手原店,,,,35.025166,136.003326,077-554-9588,077-554-9589,520-3047 ,栗東市手原1-9-17,月~土9:00~20:00日休業祝9:00~14:00、15:00~18:00,無,,郵便番号
いるか薬局寺田店,252034,滋賀県,長浜市,35.363785,136.288651,0749-68-2525,0749-50-1919,526-0045,長浜市寺田町247-1,月~金8:30~17:00土8:30~15:00,有,0749-68-2565,
いなえ澁谷薬局,252026,滋賀県,彦根市,35.224461,136.173874,0749-43-7250,0749-43-7255,521-1143,彦根市上西川町385-3,月火水金8:30~19:00 木8:30~16:30 土8:30~12:30,有,0749-43-7250,
いづつ薬局篠原店,252042,滋賀県,近江八幡市,35.104595,136.069672,0748-31-1801,0748-31-1802,523-0056,近江八幡市古川町1192-79,"月火金8:30-19:30 水木8:30-16:30 土第2,4,5日8:30-12:30",有,0748-31-1801,
いづつ薬局,252042,滋賀県,近江八幡市,35.122726,136.105133,0748-37-7476,0748-37-7910,523-0898,近江八幡市鷹飼町南3-4-3,月、火、木、金 9:00-19:00  水 9:00-17:00  土 9:00-12:00,有,0748-37-7476,
いちえ薬局中小森店,252042,滋賀県,近江八幡市,35.115101,136.088104,0748-43-1104,0748-43-1105,523-0041,近江八幡市中小森町339-1,月・火・木・金9:00~19:00 水9:00~17:00 土9:00~13:00,無,,
いちえ薬局,252042,滋賀県,近江八幡市,35.138603,136.133392,0748-46-3939,0748-46-5588,521-1351,近江八幡市安土町常楽寺60,月~水・金 9:00~19:00 木 9:00~17:00 土 9:00~13:00,有,0748-46-3939,
いずみ薬局,252042,滋賀県,近江八幡市,35.12038,136.099411,0748-32-3522,0748-36-7335,523-0891,近江八幡市鷹飼町450-12,月~金9:00~19:30土9:00~13:00,無,,
イオン薬局 草津店,252069,滋賀県,草津市,34.99818,135.912125,077-565-0913,077-565-0914,525-0067,草津市新浜町300,年中無休 9:00-20:00,無,,
アルファ-薬局,252107,滋賀県,野洲市,35.072514,136.041489,077-587-3805,077-586-5453,520-2331,野洲市小篠原111-1,月~金9:00~20:00土10:00~17:00 日・祝10:00~16:30,無,,
アピス薬局野洲店,252107,滋賀県,野洲市,35.089302,136.021133,077-589-1107,077-589-1108,520-2433,野洲市八夫2077-2,月~金9:00~18:00 土9:00~17:00,有,080-6155-6513,
アピス薬局 大津店,252018,滋賀県,大津市,35.006676,135.860519,077-511-4074,077-511-4084,520-0045,大津市札の辻4-6,日-金9:00-18:00,無,,
アピス薬局 沼波店,252026,滋賀県,彦根市,35.257637,136.263031,0749-21-3935,0749-21-3936,522-0038,彦根市西沼波町269-23,月火水金9:00~19:00 木9:00~17:00 土9:00~13:00,有,090-3628-8073,
アピス薬局 稲枝店,252026,滋賀県,彦根市,35.209553,136.178238,0749-47-8073,0749-47-8079,521-1104,彦根市出路町351-1,月・水・木・金9:00~19:00 火・土9:00~13:00,無,,
あづち調剤薬局,252042,滋賀県,近江八幡市,35.14336,136.131714,0748-46-8700,0748-46-8701,521-1351,近江八幡市安土町常楽寺416,月~土8:30~19:30,有,090-1155-7847,
アイ薬局,252131,滋賀県,東近江市,35.101334,136.210861,0748-23-9985,0748-23-9989,527-0033,東近江市東沖野3-8-73,月~水・金9:00~18:00木・土9:00~13:00,有,090-3263-5195,
アイン薬局 木之本店,252034,滋賀県,長浜市,35.513573,136.213593,0749-82-8052,0749-82-8053,529-0426,長浜市木之本町黒田1086-5,月火木金土9:00~18:00水9:00~17:00,有,0749-82-8052,
アイン薬局 大津石山店,252018,滋賀県,大津市,34.980171,135.898209,077-537-7227,077-537-7228,520-0832,大津市粟津町3-2 JR石山駅NKビル301,月・火・水・金:9:00-20:00  木:8:30-16:30  土:9:00-15:00,無,,
アイリス薬局,252018,滋賀県,大津市,35.047966,135.863922,077-577-3362,077-577-3382,520-0106,大津市唐崎3-1-10,月~金9:00~19:00土9:00~13:30,有,090-3970-7900,
アイランド薬局守山店,252077,滋賀県,守山市,35.058456,135.984985,077-582-0006,077-582-0007,524-0022,守山市守山3-10-11,月、火、水、金:9:00~20:00、木:9:00~18:00、土:9:00~12:00,無,,
アイセイ薬局南草津店,252069,滋賀県,草津市,35.002773,135.943314,077-567-6121,077-567-6122,525-0050,草津市南草津2-7-22,月火木金9:00~18:30 水9:00~17:30 土9:00~12:00,有,077-567-6121,
アイセイ薬局 唐崎店,252018,滋賀県,大津市,35.046402,135.864822,077-526-8166,077-524-1515,520-0001,大津市蓮池町14-25,月火水金8時半から19時15分 木8時半から17時 土8時半から13時,有,077-526-8166,
アイセイ薬局 近江八幡店,252042,滋賀県,近江八幡市,35.115341,136.098083,0748-31-3311,0748-32-3341,523-0033,近江八幡市日吉野町673,月火木金8:00-19:00    水9:00-17:00   土8:00-12:00,有,0748-31-3311,
アイセイハ-ト薬局 草津店,252085,滋賀県,栗東市,35.019676,135.969788,077-552-2301,077-552-2302,520-3024,栗東市小柿7-9-11,月、火、木、金:9:00~19:00 水、土:9:00~12:00,無,077-552-2301,
あいこうか薬局,252093,滋賀県,甲賀市,34.987328,136.185242,0748-65-6636,0748-65-6637,528-0074,甲賀市水口町松尾,月-金8:30-18:00   土8:30-14:00,有,0748-65-6636,
I&H滋賀甲南薬局,252093,滋賀県,甲賀市,34.929195,136.179642,0748-86-8280,0748-86-8281,520-3321,甲賀市甲南町葛木1004-1,月-金:9:00-18:00、土:9:00-15:00,有,080-5708-4089,
(株)友愛 北大津調剤薬局,252018,滋賀県,大津市,35.122608,135.921066,077-571-1200,077-573-8139,520-0241,大津市今堅田2-23-19,月~水・金9:00~20:00  木9:00~13:00、16:30~20:00 土9:00~13:00,無,077-571-1200,
