施設_名称,施設_市区町村コード,住所_都道府県,住所_市区町村（郡）,住所_緯度,住所_経度,連絡先_電話番号,連絡先_FAX番号,連絡先_郵便番号,連絡先_住所,施設_開局時間,時間外_対応の有無,時間外_電話番号,エラー
きらら調剤薬局,,,,35.411793,136.79718,058-259-3511,058-245-1711,500-5227,岐阜市北一色10-11-12,月・火・水・木・金9:00~17:30土・日・祝日休み,無,,郵便番号
太陽堂薬局,212016,岐阜県,岐阜市,35.42881,136.763092,058-267-7511,058-267-7581,500-8082, 岐阜市 矢島町2-54,月~金9:00~18:30 土9:00~15:30,有,058-267-7511,
ホップ金華薬局,212016,岐阜県,岐阜市,35.430218,136.760818,058-262-0410,058-262-0599,500-8088, 岐阜市 四屋町41,月~金8:00~17:00 土8:00~13:00,有,058-262-0410,
アピス薬局金竜店,212016,岐阜県,岐阜市,35.415512,136.764084,058-267-0251,058-267-0250,500-8114, 岐阜市 金竜町1-8,月~金9:00~19:00 土9:00~13:00,有,058-267-0251,
有限会社岐東薬局,212016,岐阜県,岐阜市,35.416618,136.784439,058-246-1676,058-246-1628,500-8137, 岐阜市 東興町17,月~土 8:30~20:00,有,090-9701-8007,
ファ-スト調剤薬局 つきおか店,212016,岐阜県,岐阜市,35.415833,136.782288,058-240-6511,058-240-6522,500-8141, 岐阜市 月丘町4-25,月火水金 8:30~12:45 15:15~19:15 木 8:30~16:30  土 8:30~12:30,無,,
華陽しいのみ薬局,212016,岐阜県,岐阜市,35.40572,136.769043,058-271-1640,058-275-1949,500-8156,岐阜市祈年町1-19-2,月・火・木9:00~17:00水・金9:00~19:00土9:00~12:30,有,058-271-1640(転送),
ナナ調剤薬局祈年町店,212016,岐阜県,岐阜市,35.404442,136.773392,058-249-0303,058-249-0304,500-8156, 岐阜市 祈年町10-15-1,月火木金8:45~18:45 水8:45~16:45 土8:45~12:30,有,058-249-0303,
ファ-スト調剤薬局新岐阜店,212016,岐阜県,岐阜市,35.411743,136.76265,058-265-0810,058-265-0811,500-8175, 岐阜市 長住町1-21,月火水金8:45~12:30  15:30~19:30  木8:45から17:00 土8:45~12:30,無,,
ハ-ト調剤薬局,212016,岐阜県,岐阜市,35.414406,136.762238,058-242-9822,058-242-9823,500-8177, 岐阜市 長旗町2-10-1,月火水金9:00~19:30 木9:00~17:00 土9:00~16:00,無,,
まみや調剤薬局清住店,212016,岐阜県,岐阜市,35.410828,136.762238,058-263-2121,058-263-2122,500-8178,岐阜市清住町2-15安西ビル1階,月・火・木・金9:00~19:00 水9:00~17:00土9:00~13:00日・祝休業,有,058-263-2121,
なの花薬局駒爪店,212016,岐阜県,岐阜市,35.415901,136.763229,058-263-1611,058-263-1612,500-8184, 岐阜市 西駒爪町19,月・水8:30~19:00 火・金8:30~20:00 木8:30~17:00 土8:30~12:00,有,058-263-1611,
平成調剤薬局日野店,212016,岐阜県,岐阜市,35.431976,136.815369,058-214-8722,058-214-7621,500-8211,岐阜市日野東3-12-14,月~金8:30~17:30土8:30~9:30,有,080-5111-4150,
ユタカ薬局長森,212016,岐阜県,岐阜市,35.4076,136.813095,	058-	249-	2150,nan,500-8223,岐阜市水海道5-2-5,月・火・水・金:9:00-19:00木・土:9:00-18:00日・祝:休,無,,
ピノキオ薬局中央店,212016,岐阜県,岐阜市,35.409859,136.796738,058-247-8676,058-247-8678,500-8226,岐阜市野一色4-7-2,月~金8:30~18:00土8:30~12:30日祝:休業土は研修終了薬剤師が不在の場合あり,無,,
ファミリ-薬局ながもり店,212016,岐阜県,岐阜市,35.410767,136.806198,058-240-5522,058-240-5535,500-8226, 岐阜市 野一色5-6-25,月~金8:30~13:00、16:00~19:30 土8:30~13:00,有,058-240-5522,
平成調剤薬局茜部店,212016,岐阜県,岐阜市,35.486946,136.568207,058-278-2788,058-278-2789,500-8263,揖斐郡揖斐川町茜部新所4丁目133,月・火・水・金9:00~19:15木9:00~17:00土9:00~12:15,有,058-278-2788,
マイ調剤薬局,212016,岐阜県,岐阜市,35.383533,136.734146,058-275-3016,058-275-3017,500-8288, 岐阜市 中鶉3-12,月~土9:00~17:30 日曜祝日休,無,,
マイ調剤薬局中鶉店,212016,岐阜県,岐阜市,35.383533,136.734146,058-276-3016,058-276-3017,500-8288, 岐阜市 中鶉3丁目12,月~金9:00~17:30 土9:00~17:30,無,,
なにわ薬局,212016,岐阜県,岐阜市,35.423069,136.750137,058-215-7111,058-253-1002,500-8301, 岐阜市 浪花町2-6,月火木金9:00~19:00 水8:00~16:00 土9:00~12:00,無,,
なかま薬局島田東店,212016,岐阜県,岐阜市,35.416161,136.742111,058-252-7672,058-252-7673,500-8315, 岐阜市 島田東町44,月~金:9:00~19:00   土:9:00~12:00,有,080-4545-3292,
ケイ調剤薬局鹿島店,212016,岐阜県,岐阜市,35.414722,136.738846,058-255-3020,058-255-3021,500-8323, 岐阜市 鹿島町5-13,月~土9:00~18:30 木8:00~16:00,有,058-255-3020,
ルル六条南薬局,212016,岐阜県,岐阜市,35.396622,136.740936,058-213-1512,058-213-1513,500-8358, 岐阜市 六条南2-8-18,月~金9:00~22:00 土日祝祭日9:00~17:00,有,090-5725-3897,
まみや調剤薬局鏡島店,212016,岐阜県,岐阜市,35.409908,136.723236,058-252-3456,058-252-3455,500-8362,岐阜市西荘2-5-47,月~金9:00~19:00 土9:00~14:00日・祝休業,有,058-252-3456,
ドラッグユタカ 鏡島調剤,212016,岐阜県,岐阜市,35.409386,136.723053,058-255-4009,058-255-4020,500-8362, 岐阜市 西荘3-1-11,月~金9:00~19:00 土9:00~13:00,無,,
ユタカ薬局鏡島,212016,岐阜県,岐阜市,35.409386,136.723053,	058-	255-	4009,	058-	255-	4020,500-8362,岐阜市西荘3-1-11,月、火、水、木、金 9時-19時土 9時-13時日、祝 休み,無,,
エムハ-ト薬局みずほ店,212016,岐阜県,岐阜市,35.414822,136.734558,058-251-7500,058-251-6200,500-8377, 岐阜市 瑞穂町33-5,月~金8:30~18:00,有,058-251-7500,
ユタカ調剤薬局本庄,212016,岐阜県,岐阜市,35.414822,136.734558,052-255-0306,052-255-0307,500-8377, 岐阜市 瑞穂町27-1,月~金8:30~17:30,無,,
ユタカ調剤薬局本荘店,212016,岐阜県,岐阜市,35.414822,136.734558,	058-	255-	0306,nan,500-8377,岐阜市瑞穂町27-1,月火水木金 8:30-17:30(土日祝日休み),無,,
ピノキオ薬局市橋店,212016,岐阜県,岐阜市,35.400715,136.725479,058-201-3616,058-201-3617,500-8381, 岐阜市 市橋3丁目4番28号,月~水、金9:00~13:30  15:30~19:00 土9:00~14:00,無,,
しょうなん調剤薬局やぶた店,212016,岐阜県,岐阜市,35.388512,136.72438,058-277-6745,058-277-6746,500-8384,岐阜市薮田南3-6-8,月~木 8:00~12:00   14:00~20:30土   9:00~12:00日祝  9:00~12:00   14:00~17:00,有,058-277-6745,
アピス薬局竜田店,212016,岐阜県,岐阜市,35.408493,136.767624,058-240-0051,058-240-7718,500-8402, 岐阜市 竜田町7丁目7-3,月、火、木、金8:30~12:30 15:15~19:15 水、土8:30~12:30,有,058-240-0051,
平成調剤薬局加納店,212016,岐阜県,岐阜市,35.403362,136.754501,058-276-1171,058-272-9339,500-8455,岐阜市加納栄町通5-16,月水金9:00~19:00火木9:00~17:00土9:00~13:00,有,058-276-1171,
コトブキ調剤薬局 ,212016,岐阜県,岐阜市,35.398129,136.759293,058-275-2866,058-275-3157,500-8486,岐阜市加納城南通1-24,月9:00~19:00/火9:00~19:00/水9:00~19:00/木9:00~17:00/金9:00~19:00/土9:00~17:00,有,090-3617-7894,
ファミリ-薬局 今川店,212016,岐阜県,岐阜市,35.422829,136.756699,058-265-7311,058-265-7313,500-8814, 岐阜市 今川町2-10,月火木金9:00~13:00・15:30~19:30 水土9:00~13:00,無,,
ユニファ-マシ-千手堂薬局,212016,岐阜県,岐阜市,35.421597,136.754944,058-216-0550,058-216-0152,500-8815, 岐阜市 梅河町2丁目5-3,月~金8:00~17:00 土8:00~13:00,有,090-5000-8794,
メディカルサロンM岐阜調剤薬局・漢方センタ-,212016,岐阜県,岐阜市,35.424591,136.752472,058-201-6058,058-203-9191,500-8818,岐阜市梅ケ枝町3-19-1,月・火・水・金9:00~19:00木9:00~17:00土9:00~17:00,有,090-5252-4897,
平成調剤薬局市役所前店,212016,岐阜県,岐阜市,35.42281,136.759964,058-212-3166,058-212-3167,500-8823,岐阜市江川町22,月・火・水・金9:00~19:00木9:00~13:30、16:00~19:30土9:00~13:00,無,,
平成調剤薬局金町店,212016,岐阜県,岐阜市,35.417072,136.756607,058-265-5503,058-265-5403,500-8842,岐阜市金町5-10-3,月~水・金・土9:00~18:30木8:00~16:00,有,058-265-5503,
たんぽぽ薬局シティタワ-店,212016,岐阜県,岐阜市,35.41074,136.754135,058-212-0211,058-212-0212,500-8856, 岐阜市 橋本町2丁目52番 岐阜シティタワ-43 3階,月~金9:00~19:00   土9:00~17:00,有,058-212-0211,
真砂町薬局,212016,岐阜県,岐阜市,35.417938,136.753006,058-265-1336,058-265-5958,500-8864, 岐阜市 真砂町9-18,月~金9:00~19:00 土9:00~13:00,無,,
しょうなん調剤薬局昭和ライン店,212016,岐阜県,岐阜市,35.415375,136.751068,058-201-5552,058-201-5553,500-8865, 岐阜市 昭和町2丁目9,月~土9:00~19:00,無,,
平成調剤薬局柳ケ瀬店,212016,岐阜県,岐阜市,35.41766,136.757843,058-265-1313,058-267-7722,500-8879,岐阜市徹明通2-18 柳ケ瀬グラッスル35 1階,月~金10:00~17:00土・日・祝休み,有,080-6954-5925,
たんぽぽ薬局寺田店,212016,岐阜県,岐阜市,35.418064,136.700012,058-255-5601,058-255-5602,501-0104, 岐阜市 寺田7-106-2,月~金9:00~17:30 土9:00~11:30,有,058-255-5601,
アピス薬局河渡店,212016,岐阜県,岐阜市,35.410866,136.699799,058-254-2300,058-254-2301,501-0105, 岐阜市 河渡3-111-1,月火水金8:30~19:30 木8:30~16:30 土 8:30~12:30,有,058-254-2300,
プラス薬局河渡店,212016,岐阜県,岐阜市,35.409843,136.698547,058-252-5300,058-252-5302,501-0105, 岐阜市 河渡3-158-2,月火木金9:00~13:00 15:00~19:00 水9:00~18:00 土9:00~13:00,有,058-252-5300,
橋本薬局,212016,岐阜県,岐阜市,35.407864,136.709534,058-253-5889,058-254-0252,501-0118,岐阜市大菅北9-23,月~金9:00~19:00 土9:00~14:00日・祝休業,有,058-253-5889,
ファミリ-薬局安江病院前店,212016,岐阜県,岐阜市,35.409798,136.716019,058-255-3188,058-255-3189,501-0123,岐阜市鏡島西2-6-41,月8:30~19:30/火8:30~19:30/水8:30~19:30/木8:30~19:30/金8:30~19:30/土8:30~13:30/備考:1/1~1/3閉局,有,058-255-3188,
杉山薬局,212016,岐阜県,岐阜市,35.40974,136.716537,058-251-9001,058-255-1278,501-0123, 岐阜市 鏡島西2-4-47,月~金9:00~20:00 土9:00~13:00,有,080-3639-2949,
本巣薬局中央調剤,212164,岐阜県,瑞穂市,35.412643,136.685303,058-329-4026,058-329-4027,501-0203, 瑞穂市 馬場上光町1-101,月・火・木・金8:30~13:00、15:00~19:00 水8:30~16:30 土8:30~12:30,無,,
瑞穂マイ調剤薬局,212164,岐阜県,瑞穂市,35.408882,136.690445,058-329-3751,058-329-3752,501-0205, 瑞穂市 馬場小城町1-84,月・火・木・金 9:00~14:30 15:30~18:30 水9:00~17:00 土 9:00~12:30,無,,
みずほ薬局,212164,岐阜県,瑞穂市,35.394516,136.684631,058-327-0832,058-327-0832,501-0222,瑞穂市別府堤内三の町724-1,月・火・木・金9:00~19:00 水土9:00~12:30日・祝休業,有,090-3565-2638,
ファ-ス調剤薬局みずほ店,212164,岐阜県,瑞穂市,35.395309,136.663895,058-326-9901,058-326-9921,501-0235, 瑞穂市 十九条247.1,月~金8:00~17:00 土8:00~13:00,無,,
パ-ル調剤薬局 みずほ店,212164,岐阜県,瑞穂市,35.415855,136.674011,058-325-0510,058-325-0515,501-0236,瑞穂市本田165-2,月火金 9:00~19:00 水 9:00~21:00 木 9:00~14:00 土 9:00~12:30,有,058-325-0510,
アピス薬局みずほ店,212164,岐阜県,瑞穂市,35.410271,136.674072,058-326-1555,058-326-1559,501-0236, 瑞穂市 本田556-1-1,月・火・木・金・土8:30~13:00 16:00~19:30 水8:30~16:30,有,058-326-1555,
太平調剤薬局緑町店,212164,岐阜県,瑞穂市,35.406178,136.675766,058-329-4332,058-329-4331,501-0236, 瑞穂市 本田1018-1,月火木金8:30~19:00 水8:00~16:00 土8:30~12:30,有,058-329-4332,
たなせ調剤薬局,212164,岐阜県,瑞穂市,35.414017,136.639984,058-328-7377,058-328-7378,501-0307, 瑞穂市 唐栗275-3,月~金8:00~17:00 土8:00~13:00,有,058-328-7377,
たかや調剤薬局,214213,岐阜県,本巣郡北方町,35.417194,136.692062,058-323-7122,058-323-9123,501-0454,本巣郡北方町高屋白木2-60,月、火、水、金8:00~18:30木、土8:00~12:00,無,,
ユタカ調剤薬局真正,212180,岐阜県,本巣市,35.42931,136.65654,	058-	323-	7182,nan,501-0465,本巣市軽海496,月火木金8:30-19:00水8:30-17:00土8:30-13:00,有,,
オオノ調剤薬局,214035,岐阜県,揖斐郡大野町,35.466625,136.635071,0585-34-3663,0585-34-3661,501-0521,揖斐郡大野町黒野646-21,月~金9:00~19:00 土9:00~12:00日・祝休業,無,,
ピノキオ薬局揖斐店,214035,岐阜県,揖斐郡大野町,35.467316,136.618896,0585-34-3810,0585-32-0196,501-0565,揖斐郡大野町中之元1114-1,月~水・金9:00~19:00木9:00~13:00土9:00~17:00,有,090-6590-4294,
サンセイ調剤薬局清水店,214019,岐阜県,揖斐郡揖斐川町,35.468891,136.59906,0585-22-1338,0585-22-1338,501-0615, 揖斐郡揖斐川町 清水1670,月火木金9:00~19:00 水9:00~17:00 土9:00~13:00,無,,
サンセイ調剤薬局揖斐病院前店,214019,岐阜県,揖斐郡揖斐川町,35.487736,136.576508,0585-22-5980,0585-22-5980,501-0619, 揖斐郡揖斐川町三輪2520,月・火・金9:00~17:00 水・木 9:00~18:30,無,,
サン調剤薬局脛永店,214019,岐阜県,揖斐郡揖斐川町,35.469891,136.577682,0585-22-5455,0585-35-5585,501-0622, 揖斐郡揖斐川町 脛永2575-2,月・火・木・金9:00~19:00 水・土9:00~12:00,無,,
柏川調剤薬局,214019,岐阜県,揖斐郡揖斐川町,35.472317,136.547699,0585-22-6464,0585-22-6455,501-0625, 揖斐郡 揖斐川町黒田442,月~火9:00~18:30 水、土9:00~12:30 木~金9:00~18:30,有,0585-22-6464,
平成調剤薬局薬局鏡島店,,,,35.411945,136.720215,058-252-6660,058-252-6760,501-0112,岐阜市鏡島精華3-7-12 ,月火水金9:00~18:30、木8:00~16:00、土9:00~16:00,有,058-252-6660,郵便番号
さんあい薬局株式会社コアラ店,,,,35.466244,136.723816,058-230-1207,058-230-1208,501-1121,岐阜市古市場321-16 ,月火木金9:00~19:30 水9:00~12:30 土9:00~17:00,有,090-7915-6802,郵便番号
アイン薬局岐阜大学店,212016,岐阜県,岐阜市,35.468918,136.731598,058-293-0567,058-293-0568,501-1113, 岐阜市 大学西1丁目108番4,月~金8:30~16:30 土8:30~13:30,有,058-293-0567,
平成調剤薬局岐大前店,212016,岐阜県,岐阜市,35.462605,136.730301,058-293-1145,058-293-1146,501-1127,岐阜市古市場神田85,月・火・木・金9:00~19:15水8:00~16:00土9:00~12:15,有,058-293-1145,
ユタカ薬局 黒野店,212016,岐阜県,岐阜市,35.457767,136.730026,058-293-1235,058-293-1239,501-1132, 岐阜市 折立873-3,月~金9:00~19:00 土9:00~14:00,無,,
ユタカ薬局黒野,212016,岐阜県,岐阜市,35.457767,136.730026,	058-	293-	1235,nan,501-1132,岐阜市折立873-3,月-金9:00-19:00土:9:00-14:00日、祝:休み,無,,
ハ-ズ黒野調剤薬局,212016,岐阜県,岐阜市,35.458111,136.727112,058-234-2003,058-234-2003,501-1136, 岐阜市 黒野南1-1-2,月・水9:00~19:00 火・木・金・土9:00~13:00 日・祝休み,有,058-234-2003,
平成調剤薬局川部店,212016,岐阜県,岐阜市,35.436749,136.709335,058-293-1217,058-293-1218,501-1151,岐阜市川部2-148,月~金9:00~18:00土9:00~13:00,有,058-293-1217,
またまる薬局,212016,岐阜県,岐阜市,35.440575,136.705032,058-230-8027,058-230-8028,501-1153, 岐阜市 又丸町畑12-1,月~金9:00~12:00 14:00~19:00 土日祝9:00~12:00 14:00~15:30,無,,
有限会社大氣 太平調剤薬局又丸店,212016,岐阜県,岐阜市,35.434364,136.70253,058-234-8558,058-234-8489,501-1155, 岐阜市 又丸宮東19-3,水 9:00~12:00,無,,
ファミリ-薬局あくたみ店,,,,35.440968,136.844467,058-241-3313,058-241-3315,501-3145,岐阜市芥見野畑2丁目53番地 ,月~木9:00~19:00、金9:00~18:00、土9:00~13:00 ,有,058-241-3313,郵便番号
クオ-ルぎなん薬局,,,,35.383907,136.799606,058-249-5135,058-249-5136,501-6004,羽島郡岐南町野中3-211 ,月火木金9:00~19:30、水9:00~17:00、土9:00~13:00,有,080-8754-5726,郵便番号
ふかせ調剤薬局,212156,岐阜県,山県市,35.511429,136.791107,0581-23-0355,0581-23-0350,501-2104, 山県市 東深瀬664-6,月・火・水・金8:30~13:00 15:00~19:00 木8:30~16:30 土8:30~12:30 休日:日・祝祭日,有,0581-23-0355,
ペンギン薬局高富本町店,212156,岐阜県,山県市,35.491463,136.785645,0581-32-9281,0581-32-9286,501-2105,山県市高富1178-8,月~金 9:00~19:00土   9:00~13:00,有,0581-32-9281,
ペンギン薬局,212156,岐阜県,山県市,35.499954,136.787125,0581-23-0323,0581-23-0325,501-2105,山県市高富2118-1,月・火・水・金8:30~18:30木8:30~16:30土8:30~14:00,有,0581-23-0323,
たかとみ薬局,212156,岐阜県,山県市,35.494022,136.790497,0581-23-0050,0581-23-0053,501-2105, 山県市 高富927-2,月~金9:00~19:15 土9:00~12:30,有,0581-23-0050,
小川薬局,212016,岐阜県,岐阜市,35.484352,136.837357,058-229-2110,058-229-6003,501-2541, 岐阜市世保 615,月~金9:00~19:30 土9:00~13:00,有,058-229-2110,
平成調剤薬局太郎丸店,212016,岐阜県,岐阜市,35.492397,136.827087,058-229-6120,058-229-6121,501-2576,岐阜市太郎丸新屋敷207-3,月火木金9:00~19:30水   9:00~17:00土   9:00~13:00,有,090-1562-3847,
大洞薬局加野店,212016,岐阜県,岐阜市,35.465279,136.827515,058-213-7313,058-213-7314,501-3109, 岐阜市 向加野3-6-12,月~水・金9:00~20:00 木9:00~17:00 土9:00~13:00,有,080-3353-6717,
しいのみセンタ-薬局,212016,岐阜県,岐阜市,35.458008,136.85408,058-241-1818,058-241-1839,501-3113,岐阜市北山1-14-27,月・水・金 9:00~20:00火・木9:00~18:00土9:00~15:00日祝:休,有,058-241-1818,
あくたみ薬局,212016,岐阜県,岐阜市,35.452801,136.847885,058-242-1161,058-242-1163,501-3132,岐阜市芥見長山3-18-1,月~金9:00~19:00 土9:00~13:00,無,,
大洞薬局,212016,岐阜県,岐阜市,35.455631,136.862183,058-241-6716,058-241-6718,501-3133,岐阜市芥見南山3-8-5,月~金9:00~20:00土9:00~15:00,有,058-241-0889,
南しいのみ薬局,212016,岐阜県,岐阜市,35.456715,136.855484,058-244-2112,058-244-2110,501-3133,岐阜市芥見南山2-8-47,月・火・水・金9:00~18:00木・土9:00~17:00,有,058-244-2112,
まみや調剤薬局芥見店,212016,岐阜県,岐阜市,35.456261,136.856155,058-213-0611,058-213-0633,501-3133, 岐阜市 芥見南山2-6-35,月、火、木、金9:00~19:00 土9:00~13:00,有,058-213-0611,
エムハ-ト薬局芥見店,212016,岐阜県,岐阜市,35.438766,136.845062,058-241-8800,058-241-8801,501-3144, 岐阜市 芥見大般若1丁目77番2,月~金9:00~18:00 土9:00~12:30,無,,
たんぽぽ薬局関店,212059,岐阜県,関市,35.495258,136.919571,0575-21-6131,0575-25-1522,501-3200, 関市 西本郷字笹島130-1,月~金8:30~18:00 土9:00~11:00,有,0575-21-6131,
海薬局,212059,岐阜県,関市,35.506428,136.910568,0575-21-1115,0575-21-1116,501-3217, 関市 下有知5227-1,月~水、金9:00~19:30 木9:00~17:00 土9:00~13:00,有,090-5856-9067,
オレンジ薬局,212059,岐阜県,関市,35.487812,136.904327,0575-29-3535,0575-29-3536,501-3243, 関市 中福野町10-2,月・火・木・金8:30~18:30 水8:30~16:30 土8:30~13:00,有,0575-29-3535,
ファ-スト調剤薬局関店,212059,岐阜県,関市,35.494698,136.898087,0575-24-9033,0575-24-9022,501-3247, 関市 池田町91,月火水金 8:15~12:15 15:15~19:15 木土8:]15~12:15,無,,
丹羽薬局,212059,岐阜県,関市,35.487373,136.911453,0575-22-0728,0575-24-4011,501-3253,関市栄町1-3-1,月~金8:00~18:30 木・土8:30~12:30日・祝休業,有,0575-22-0728,
小林薬局,212075,岐阜県,美濃市,35.544712,136.907578,0575-33-3124,0575-33-3228,501-3732, 美濃市 2932-10,月~土7:30~20:00,有,0575-33-3124,
ハ-ズ美濃調剤薬局,212075,岐阜県,美濃市,35.53904,136.901382,0575-33-2211,0575-33-2211,501-3746,美濃市中央4-3-17,月~金9:00~18:00,無,,
アイン薬局美濃店,212075,岐阜県,美濃市,35.53904,136.901382,0575-31-1620,0575-31-1621,501-3746, 美濃市 中央4-3-16,月~金8:30~18:00 土9:00~12:00,有,0575-31-1620,
ウラタ薬局仲町店,212059,岐阜県,関市,35.486309,136.928818,0575-46-8256,0575-46-8258,501-3817,関市仲町12-1,月・火・水・金:9:00~19:00、木・土:9:00~17:00,有,0575-46-8256(転送),
神明調剤薬局,212059,岐阜県,関市,35.477272,136.922394,0575-24-6617,0575-23-8679,501-3908, 関市 寿町1-1-20,月~水金9:00~18:30 木9:00~17:00 土9:00~12:30,有,0575-24-6617,
ふうせん薬局関店,212059,岐阜県,関市,35.471283,136.935287,0575-21-5512,0575-24-8295,501-3919, 関市 平成通1-3-28サンライズ21,月~金09:00~18:30 土09:00~17:30,有,090-1472-4749,
ふうせん薬局田原店,212059,岐阜県,関市,35.456394,136.942825,0575-25-0039,0575-25-0038,501-3928, 関市 西田原1322-2,月火水金9:00~19:15 木土9:00~18:00日祝休み,有,0575-25-0039,
しいのみ薬局,212059,岐阜県,関市,35.483612,136.862869,0575-27-0130,0575-27-0131,501-3947,関市上白金105-1,月8:30~18:30/火8:30~17:00/水8:30~18:30/木8:30~17:00/金8:30~18:30/土8:30~12:30,有,0575-27-0130,
古田調剤薬局,212199,岐阜県,郡上市,35.658298,136.972137,0575-79-9080,0575-79-9081,501-4106, 郡上市 美並町白山783-1,月・火・水・金9:00~18:30 木9:00~17:00 土9:00~12:00,有,0575-79-9080,
ファ-スト調剤薬局郡上八幡店,212199,岐阜県,郡上市,35.757511,136.953415,0575-65-6680,0575-65-6830,501-4211, 郡上市 八幡町中坪1-8-3,月~水・金9:00~13:00、15:00~19:00 木9:00~17:00 土9:00~16:00,有,0575-65-6680,
郡上薬局,212199,岐阜県,郡上市,35.747768,136.950272,0575-66-2237,0575-66-2238,501-4225,郡上市八幡町大正町56,月~金8:30~18:00土9:00~12:00,無,,
ユタカ調剤薬局五町,212199,岐阜県,郡上市,35.756741,136.943039,0575-66-0270,0575-66-0271,501-4234, 郡上市 八幡町五町3-1-24,月火木金9:00~19:00 水9:00~17:00 土9:00~13:00,有,080-9734-3354,
柏友堂薬局,212199,岐阜県,郡上市,35.897285,136.864365,0575-82-4470,0575-82-4467,501-5121, 郡上市 白鳥町白鳥20-1,月~金8:30~18:30 土8:30~17:30,有,0575-82-4470,
ピノキオ薬局為真店,212199,岐阜県,郡上市,35.878105,136.868362,0575-83-0350,0575-83-0351,501-5122, 郡上市 白鳥町為真1201,月~金8:30~18:30 土8:30~12:30,有,0575-83-0350,
荘川薬局,212032,岐阜県,高山市,36.032101,136.963242,05769-2-2567,05769-2-2577,501-5413,高山市荘川町新渕418-1,月~金8:30~17:30 土8:30~12:00日・祝休み,有,05769-2-2567,
ピノキオ薬局三宅店,213020,岐阜県,羽島郡岐南町,35.388836,136.80014,058-215-1656,058-215-1658,501-6002,羽島郡岐南町三宅8-138,月・火・木・金9:00~19:30水8:30~16:30土9:00~13:30,無,,
ファミリ-薬局のなか店,213020,岐阜県,羽島郡岐南町,35.385693,136.802246,058-259-4116,058-259-4117,501-6004, 羽島郡岐南町 野中3-34-4,月火水金9:00~18:30 木8:30~16:30 土9:00~12:30,有,058-259-4116,
クル-ズ薬局岐南店,213020,岐阜県,羽島郡岐南町,35.395023,136.783661,058-249-3070,058-249-3071,501-6011,羽島郡岐南町八剣北4-88,月・火・木・金 9:00~19:00水 9:00~17:00土 9:00~13:00,有,090-8600-4872,
スギ薬局岐南店,213020,岐阜県,羽島郡岐南町,35.392059,136.781296,058-249-6011,058-249-6043,501-6012, 羽島郡岐南町 八剣5丁目7-1,月~金9:00~20:00 土9:00~19:00,無,,
ピノキオ薬局岐南店,213020,岐阜県,羽島郡岐南町,35.393436,136.782257,058-247-2247,058-247-2274,501-6012, 羽島郡岐南町 八剣1丁目22番地,月、火~木、金9:00~18:30 水8:30~16:30   土9:00~13:00,有,058-247-2247,
まみや調剤薬局岐南店,213020,岐阜県,羽島郡岐南町,35.389656,136.769943,058-268-3050,058-268-3051,501-6018, 羽島郡岐南町 下印食3-14-3,月火木金9:00~18:00 水9:00~17:00 土9:00~13:00,有,058-268-3050,
かわしま調剤薬局,212130,岐阜県,各務原市,35.365662,136.833359,0586-89-7100,0586-89-7333,501-6022, 各務原市 川島松倉町2350-70,月火水金 8:30~12:30  15:30~19:15 木8:30~16:30 土8:30~12:30,有,090-3968-3932,
コメノ薬局,213039,岐阜県,羽島郡笠松町,35.380585,136.807983,058-387-1891,058-322-6011,501-6031,羽島郡笠松町米野241-1,月~土8:00~19:00,有,058-387-1891,
(有)羽島調剤薬局,213039,岐阜県,羽島郡笠松町,35.375126,136.788925,058-388-0938,058-388-1993,501-6035, 羽島郡笠松町 円城寺966,月~金 8:45-17:05 土 8:45-12:15,有,058-388-0938,
アイン薬局まつなみ健康増進クリニック店,213039,岐阜県,羽島郡笠松町,35.364525,136.757889,058-216-6234,058-216-6235,501-6061, 羽島郡笠松町 泉町10,月~金8:30~17:00 土8:30~12:00,有,058-216-6234,
アイン薬局松波総合病院店,213039,岐阜県,羽島郡笠松町,35.363129,136.757904,058-216-9036,058-216-9037,501-6062, 羽島郡笠松町 田代185-1,月~金8:30~17:30 土8:30~12:00,無,,
エ-ス薬局,213039,岐阜県,羽島郡笠松町,35.367458,136.757874,058-388-8600,058-388-8601,501-6076, 羽島郡笠松町 門前町62,月火水金9:00~19:00 木8:30~16:30 土9:00~12:30,有,090-9022-3400,
スギ薬局笠松店,212016,岐阜県,岐阜市,35.365372,136.75647,058-218-2045,058-218-2046,501-6101,岐阜市柳津町栄町202,月~金9:00~22:00 土9:00~22:00日・祝8:30~22:00,無,,
貴船薬局柳津店,212016,岐阜県,岐阜市,35.367184,136.747055,058-216-0011,058-216-0012,501-6103,岐阜市柳津町蓮池2-23-2,月・火・水・金8:30~18:30木8:30~16:30土8:30~13:00日祝休業,有,058-216-0011,
ハロ-薬局カラフルタウン岐阜店,212016,岐阜県,岐阜市,35.363968,136.728607,058-388-7631,058-388-7632,501-6115, 岐阜市 柳津町丸野3-3-6,年中無休9:00~19:30,有,090-5032-0278,
ピノキオ薬局 佐波店,212016,岐阜県,岐阜市,35.375286,136.717072,058-270-0193,058-270-0195,501-6121, 岐阜市 柳津町上佐波西3-149,"月~水、金9:00~19:15 木8:30~16:30 土(日第2,4週)8:30~12:15",有,058-270-0193,
スギヤマ調剤薬局羽島市民病院前店,212091,岐阜県,羽島市,35.319576,136.709457,058-394-6311,058-393-0333,501-6232,羽島市竹鼻町狐穴字東百石3424-1,月~金 8:30~17:30,無,,
しょうなん調剤薬局羽島店,212091,岐阜県,羽島市,35.322098,136.715836,058-394-6171,058-394-6172,501-6232, 羽島市 竹鼻町狐穴1093-4,月~水、金9:00~19:00 木9:00~17:00 土9:00~12:30,有,058-394-6171,
しょうなん調剤薬局竹鼻店,212091,岐阜県,羽島市,35.315723,136.708084,058-260-3722,058-260-3723,501-6232, 羽島市 竹鼻町狐穴250-2,月・火、木~土8:30~19:00 ,無,,
グッド調剤薬局,212091,岐阜県,羽島市,35.333622,136.706879,058-392-1810,058-392-1811,501-6264, 羽島市 小熊町島2丁目12メディカルプラザ岐阜羽島,月火木金8:30~18:30 水8:30~16:30 土8:30~12:30,有,058-392-1810,
スギ薬局粟野東店,212016,岐阜県,岐阜市,35.488998,136.785385,058-236-0586,058-237-7663,502-0002, 岐阜市 粟野東4丁目172番地,月~金9:00~19:00 土9:00~16:00,無,,
ライン調剤薬局 粟野店,212016,岐阜県,岐阜市,35.487526,136.784012,058-215-0770,058-215-0771,502-0002, 岐阜市 粟野東4-26-6,月火木金9:00~18:30 水9:00~17:00 土9:00~12:00 日・祝休業,無,,
ジップファ-マシ-白沢粟野調剤薬局,212016,岐阜県,岐阜市,35.478554,136.778336,058-236-0387,058-236-0388,502-0006, 岐阜市 粟野西1丁目397番3,月~金9:00~19:00 土9:00~13:00,有,080-3532-9252,
平成調剤薬局長良店,212016,岐阜県,岐阜市,35.444637,136.777725,058-210-3470,058-210-3480,502-0022, 岐阜市 長良東郷町1-11,月、火、水、金9:00~19:15 木9:00~18:30 土9:00~18:00,有,058-210-3480,
平成調剤薬局東長良店,212016,岐阜県,岐阜市,35.448826,136.788513,058-296-3005,058-296-3006,502-0082,岐阜市長良東3-43,月~金9:00~19:30土9:00~13:00,有,058-296-3005,
アイワ薬局かみつちい店,212016,岐阜県,岐阜市,35.455173,136.763611,058-296-6152,058-296-6153,502-0803,岐阜市上土居1-10-7,月・火・木・金8:45~13:00、15:30~19:30水8:45~16:45土08:45~13:00日・祝:休業,有,058-296-6152,
平成調剤薬局八代店,212016,岐阜県,岐阜市,35.457813,136.774857,058-214-7123,058-214-7125,502-0812,岐阜市八代1-2-28,月・火・木・金9:00~18:00水9:00~17:00土9:00~13:00,有,058-214-7123,
平成調剤薬局本店,212016,岐阜県,岐阜市,35.457176,136.774033,058-231-2113,058-232-2718,502-0812,岐阜市八代1-3-3,月~金9:00~18 :00土9:00~13:00,有,058-231-2113,
スギ薬局長良店,212016,岐阜県,岐阜市,35.457958,136.774246,058-210-3121,058-210-3122,502-0812, 岐阜市 八代1丁目6番20,月~金9:00~20:00 土9:00~17:30 日9:00~13:00,無,,
ハ-ズ八代調剤薬局,212016,岐阜県,岐阜市,35.457981,136.773911,058-231-8460,058-231-8460,502-0812, 岐阜市 八代1-6-18,月~金9:00~19:00 土9:00~18:00 日・祝休業,無,,
マイ調剤薬局 長良店,212016,岐阜県,岐阜市,35.459953,136.771103,058-213-0181,058-213-0182,502-0812, 岐阜市 八代2丁目12-1,月火木金8:45~13:15  15:45~19:15 水8:45~17:15 土8:45~13:15,無,,
スギヤマ薬局長良店,212016,岐阜県,岐阜市,35.454414,136.775284,058-210-0232,058-210-0233,502-0813,岐阜市福光東3-1-1,月9:00~21:00/火9:00~21:00/水9:00~21:00/木9:00~21:00/金9:00~21:00/土9:00~21:00/日9:00~21:00/備考:12月31日は20:00まで1月3日は19:00まで1月1日、1月2日は休み,無,,
平成調剤薬局福光店,212016,岐阜県,岐阜市,35.455875,136.770981,058-232-4868,058-232-4869,502-0813, 岐阜市 福光東3-9-11,月火木金9:00~19:00 水8:00~16:00,無,,
ハロ-薬局福光店,212016,岐阜県,岐阜市,35.456657,136.768112,058-233-6111,058-233-6112,502-0814, 岐阜市 福光西3-9-12,月~水・金9:00~19:30 土9:00~13:30,有,090-5106-7997,
ライフ在宅支援薬局,212016,岐阜県,岐阜市,35.448685,136.765976,058-231-1211,058-231-3101,502-0815, 岐阜市 福光南町12-15,月・火・木・金8:30~19:00   水8:30~16:30   土8:30~12:00,無,,
ユタカ薬局岐阜福光南,212016,岐阜県,岐阜市,35.449509,136.769516,	058-	296-	3620,	058-	296-	3621,502-0815,岐阜市福光南町22-21,月・火・木・金 8:30-19:00土 8:30-17:00水・日・祝日 休み,無,,
ほほえみ薬局,212016,岐阜県,岐阜市,35.446369,136.772949,058-232-1134,058-232-5888,502-0827, 岐阜市 平和通1の12,月、金9:00~19:00 水、木9:00~17:30 火9:00~17:00 土9:00~12:00 日、祝 休み,有,058-232-1134,
あかつき薬局,212016,岐阜県,岐阜市,35.433144,136.755157,058-232-0120,058-232-0132,502-0844,岐阜市岩倉町2-64,月~金8:45~18:00土9:00~12:00,有,058-232-0120,
ハロ-薬局さぎ山店,212016,岐阜県,岐阜市,35.451515,136.753784,058-231-5999,058-231-6391,502-0872, 岐阜市 鷺山北町8-31,月火水金9:00~19:00 木9:00~18:00 土9:00~13:00  日祝 休み,有,090-1470-9058,
ピノキオ薬局忠節店,212016,岐阜県,岐阜市,35.429424,136.740494,058-215-5170,058-215-5171,502-0904,岐阜市島栄町3-12-1,月~金9:00~19:30土9:00~12:30日祝休み,無,,
みお薬局,212016,岐阜県,岐阜市,35.43211,136.746323,058-296-4151,058-296-4152,502-0905,岐阜市山吹町6-19-1,月・木・金8:00~19:00火・水・土9:00~18:00,無,,
伊佐地薬局白菊店,212016,岐阜県,岐阜市,35.432686,136.738205,058-210-2180,058-210-2181,502-0909,岐阜市白菊町2-28,月~金8:30~19:00土8:30~12:00,有,058-210-2180,
スギ薬局島店,212016,岐阜県,岐阜市,35.429035,136.732361,058-210-1510,058-210-1511,502-0911, 岐阜市 北島7-3-8,全日 9:00~22:00,無,,
なの花薬局岐阜東島店,212016,岐阜県,岐阜市,35.426533,136.737152,058-214-3302,058-214-3306,502-0913, 岐阜市 東島2丁目14番6号 ハイム山王1階,月火水金9:00~18:30 土9:00~13:15,有,058-214-3302,
ファ-スト調剤薬局東島店,212016,岐阜県,岐阜市,35.427139,136.735855,058-294-8001,058-294-8006,502-0913, 岐阜市 東島3丁目9-24,月火木金8:45~12:00 15:15~18:30 土8:45~12:00,有,058-294-8001,
すごう薬局,212016,岐阜県,岐阜市,35.422558,136.734695,058-216-0234,058-216-0235,502-0914,岐阜市菅生1-10-3,月・火・水・金9:00~19:00土9:00~14:30,有,058-216-0234,
ファ-スト調剤薬局岐阜すごう店,212016,岐阜県,岐阜市,35.425014,136.731079,058-295-6100,058-295-5588,502-0914, 岐阜市 菅生7?5?20,月火水金8:45~12:45 15:15~19:30 木9:00~17:00 土8:45~12:45,無,,
しま調剤薬局,212016,岐阜県,岐阜市,35.430077,136.721298,058-213-7730,058-213-7731,502-0916, 岐阜市 西中島7-5-12,月~水9:00~19:00 木、土9:00~17:30 金9:00~17:00,有,058-213-7730,
きむら調剤薬局,212016,岐阜県,岐阜市,35.432262,136.726181,058-296-2130,058-296-2131,502-0926, 岐阜市 旦島1-6-13,月~水・金9:00~19:30 木・土9:00~13:00,有,058-296-2130,
ハロ-薬局則武店,212016,岐阜県,岐阜市,35.44392,136.74115,058-294-7118,058-294-7225,502-0932, 岐阜市 則武中3?5?11,月~水、金 8:30~19:00 木 8:30?16:30 土8:30~12:30,有,058-294-7118,
ユタカ薬局則武,212016,岐阜県,岐阜市,35.442211,136.743729,058-296-2115,058-296-2120,502-0932, 岐阜市 則武中4-36,月~金10:00~19:00 ,無,,
貴船薬局,212016,岐阜県,岐阜市,35.436523,136.745026,058-296-1123,058-296-1124,502-0933, 岐阜市日光町9-7-2,月火木金9:00~19:00 水9:00?17:00    土9:00~13:00,有,090-9948-1612,
しょうなん調剤薬局大福店,212016,岐阜県,岐阜市,35.438091,136.736603,058-215-9264,058-215-9274,502-0934, 岐阜市 大福町8-74-1,月火水金9:00~13:00、16:00~19:00木土9:00~13:00,有,058-215-9264,
ルナファ-マシ-かやば薬局,212016,岐阜県,岐阜市,35.434647,136.731293,058-213-5107,058-213-5108,502-0936,岐阜市萱場南2-12-18,月~金8:30~12:00、15:30~18:30土8:30~12:00日・祝休業,無,,
ピノキオ薬局三津屋店,212024,岐阜県,大垣市,35.392849,136.617401,0584-47-7960,0584-47-7961,503-0012, 大垣市 三津屋町5-1-5,月~金9:00~18:30 土9:00~13:30,無,,
ユタカ薬局林町,212024,岐阜県,大垣市,35.375874,136.618881,	0584-	77-	5360,nan,503-0015,大垣市林町10-1339-1,月-金:9:00-19:00土  :9:00-13:00日・祝:閉局,無,,
かさぬい薬局,212024,岐阜県,大垣市,35.437843,136.577255,0584-73-3100,0584-73-3101,503-0027, 揖斐郡池田町池野 笠縫町字奥屋敷459-1,月~水・金8:30~19:00 木8:30~16:00 土8:00~17:00,有,0584-73-3100,
サニ-調剤薬局,212024,岐阜県,大垣市,35.376881,136.575378,0584-93-3517,0584-93-3518,503-0035,大垣市荒尾玉池1-47,月・火・水・金8:30~18:30木8:30~17:30土8:30~12:30,有,0584-93-3517,
ながせ薬局墨俣店,212024,岐阜県,大垣市,35.366009,136.680984,058-484-3196,058-484-3197,503-0102, 大垣市 墨俣町墨俣544番地7,月、火、木、金、土9:00~19:30,有,080-4356-3033,
ト-カイ薬局 安八店 ,213837,岐阜県,安八郡安八町,35.339497,136.669113,0584-64-6906,0584-64-6907,503-0115, 安八郡安八町 南今ケ渕字中筋429-2,月・火・木・金8:30~18:30 水8:00~16:00 土8:30~12:30,有,090-5866-1511,
なもり薬局,213837,岐阜県,安八郡安八町,35.331844,136.658325,	0584-	47-	6013,nan,503-0127,安八郡安八町城2-47,月火水金 8時30分-19時木 8時-16時土 8時30分-12時,有,,
まもる薬局,213829,岐阜県,安八郡輪之内町,35.269627,136.615875,0584-68-1171,0584-68-1172,503-0216,安八郡輪之内町大吉新田1076-1,午前 月~土8:00~13:30午後月~水・金16:00~19:00          木曜日のみ8:00~16:00,有,090-7676-5459,
平田調剤薬局,212210,岐阜県,海津市,35.269108,136.66124,0584-67-3561,0584-67-3651,503-0304,海津市平田町幡長566番地,月~水・金8:30~19:00 木・土8:30~12:00,無,,
貴船薬局平田店,212210,岐阜県,海津市,35.257278,136.639038,0584-66-5122,0584-66-5123,503-0312, 海津市 平田町三郷623-1,月・火・水・金9:00~19:30 木・土9:00~13:00 ,有,0584-66-5122,
株式会社中部メディカルサ-ビスイマオ調剤薬局,212210,岐阜県,海津市,35.253948,136.63385,0584-66-4300,0584-66-4370,503-0321,海津市平田町今尾799-6,月~水・金9:00~19:00 木・土9:00~12:30,有,090-6090-1513,
クオ-ル薬局ようなん店,212210,岐阜県,海津市,35.257812,136.55777,0584-58-3089,0584-58-3190,503-0401, 海津市 南濃町津屋1491-4,月・火・木~日9:00~16:00,有,080-8754-5729,
いしづ薬局,212210,岐阜県,海津市,35.179569,136.61528,0584-59-0220,0584-59-0218,503-0532,海津市南濃町太田字南条652-3,月~水・金8:30~20:00 木土8:30~12:30,無,,
アイセイ薬局 南濃店,212210,岐阜県,海津市,35.161625,136.631058,0584-59-2311,0584-56-1505,503-0535, 海津市 南濃町松山195-1,月火水金土8:30~18:30 木8:30~16:30,有,0584-59-2311,
さくら薬局海津店,212210,岐阜県,海津市,35.173244,136.661087,0584-54-0212,0584-54-0213,503-0628,海津市海津町福江656-1,月~金9:00~18:00 第1・3・5土9:00~13:00第2・4土・日・祝休み,有,0584-54-0212,
シノダ薬局大垣店,212024,岐阜県,大垣市,35.374165,136.65181,0584-77-4447,0584-77-4448,503-0801, 大垣市 和合新町1-78-3,月~土9:00~13:00 15:00~18:30 木曜日曜祝日休業,有,0584-77-4447,
ユタカ薬局大垣旭町,212024,岐阜県,大垣市,35.359894,136.626083,	0584-	83-	7650,	0584-	83-	7651,503-0824,大垣市旭町2-2,月、火、水、金は9:00-20:00木9:00から17:00土9:00-13:00,有,,
さくら薬局大垣東前店,212024,岐阜県,大垣市,35.3489,136.634003,0584-74-4500,0584-74-4522,503-0835,大垣市東前3-4-2,月・火・木・金9:00~18:30 水9:00~12:30 土9:00~13:30日・祝休み,有,0584-74-4500,
ユタカ調剤薬局禾森,212024,岐阜県,大垣市,35.351784,136.621597,	0584-	77-	3313,nan,503-0852,大垣市禾森町4-23,月-金 9時-17時土 11時-16時,無,,
おおがき南調剤薬局,212024,岐阜県,大垣市,35.342655,136.622757,0584-71-8801,0584-71-8803,503-0854, 大垣市 築捨町2丁目4番,月9:00~14:30、16:00~22:00 火水金 9:00~14:30、16:00~18:30 木9:00~17:00 土9:00~12:00 日・祝日休業,有,0584-71-8801,
ユタカ調剤薬局新田,212024,岐阜県,大垣市,35.343651,136.626877,	0584-	87-	0303,	0584-	87-	0304,503-0856,大垣市新田町1-12,月・火・木・金 8:30-18:30水・土 8:30-12:30日・祝日 休み,無,,
ユタカ薬局大垣南,212024,岐阜県,大垣市,35.354488,136.616653,	0584-	71-	7630,nan,503-0865,大垣市寺内町2-37,平日:10:00-14:00/15:00-19:00土曜:10:00-14:00(土曜日は11月から開局予定)日・祝:休み,無,,
ハロ-薬局大垣駅前店,212024,岐阜県,大垣市,35.365826,136.615723,0584-77-3101,0584-77-3102,503-0905, 大垣市 宮町1-1 スイトテラス2階,月火水金9:00~19:30 木9:00~17:00 土9:00~13:00,有,080-2667-7656,
ハロ-薬局大垣中央店,212024,岐阜県,大垣市,35.365593,136.613998,0584-77-2151,0584-77-2152,503-0905, 大垣市 宮町1-11 宮町ビル1階,月~金9:00~19:30 土日祝9:00~13:00,有,0584-77-2151,
アイン薬局大垣南店,212024,岐阜県,大垣市,35.35125,136.604904,0584-71-6205,0584-71-6206,503-0976, 大垣市 南若森町252-2,月火水金8:00~18:00 木8:00~17:00 土8:00~16:00,有,0584-71-6205,
すずの木薬局,212024,岐阜県,大垣市,35.365524,136.586533,0584-93-3520,0584-84-8735,503-0981,大垣市桧町895-3,月・火・水・金9:00~19:00木7:00~15:00土9:00~13:00日・祝休み,有,0584-93-3520,
ファ-スト調剤薬局大垣西店,212024,岐阜県,大垣市,35.363304,136.583603,0584-47-5721,0584-47-5722,503-0981, 大垣市 桧町796-1,月・火・木・金9:00~12:45 15:00~18:45 土9:00~13:00 ,無,,
ユタカ調剤薬局養老,213411,岐阜県,養老郡養老町,35.302444,136.554703,	0584-	34-	3335,nan,503-1316,養老郡養老町押越1237-4,月-金 8:30-18:30土   8:30-12:30日・祝 定休日,無,,
ユタカ調剤薬局広幡,213411,岐阜県,養老郡養老町,35.2878,136.574844,0584-33-0115,0584-33-0116,503-1324, 養老郡養老町 大跡536,月火水金9:00~20:00 木土9:00~13:00 日祝閉局 夏季冬季臨時休業あり,無,,
瑠璃光薬局,213411,岐阜県,養老郡養老町,35.287842,136.600967,0584-36-1077,0584-36-1078,503-1382, 養老郡養老町 船附1343番地,月・水・金9:00~20:00    火・木9:00~17:00  土9:00~13:00,有,0584-36-1077,
なの花薬局関ヶ原店,213624,岐阜県,不破郡関ケ原町,35.368523,136.464996,0584-41-2850,0584-41-2855,503-1501, 不破郡関ケ原町 大字関ケ原字井ノ口2490-29,月8:30~16:30 火~土8:30~17:30,無,,
エムハ-ト薬局関ケ原店,213624,岐阜県,不破郡関ケ原町,35.369984,136.467651,0584-41-0202,0584-41-0203,503-1501, 不破郡関ケ原町 関ケ原1102-2,月~金8:30~19:00 土8:30~12:30,有,0584-41-0202,
ファ-コス薬局ひばり,213616,岐阜県,不破郡垂井町,35.370243,136.5271,0584-23-3069,0584-24-0171,503-2100, 不破郡垂井町 杢録2210-45,月~金9:00~19:00 土9:00~14:00,無,,
ごうど調剤薬局,213810,岐阜県,安八郡神戸町,35.418095,136.603607,0584-27-1820,0584-27-1821,503-2305, 安八郡神戸町 神戸167,月・火・水・金9:00~19:00 木9:00~17:00 土9:00~18:00,有,090-6090-1513,
しょうなん調剤薬局神戸店,213810,岐阜県,安八郡神戸町,35.414551,136.604126,0584-71-8990,0584-71-8991,503-2305, 安八郡神戸町 神戸1706-1,月・火・水・金 8:30~19:30 木8:30~16:30 土8:30~17:30 ,有,090-1835-2428,
サンセイ調剤薬局神戸店,213810,岐阜県,安八郡神戸町,35.421364,136.611252,0584-71-7767,0584-71-7767,503-2305, 安八郡神戸町 神戸967-1,月、火、木、金9:00~19:00 水9:00~17:00 土9:00~12:00,有,090-9091-9066,
ピノキオ薬局池田店,214043,岐阜県,揖斐郡池田町,35.437843,136.577255,0585-45-0233,0585-45-0233,503-2424,揖斐郡池田町池野字深池道上7-6,月~金9:00~19:00 土8:00~16:00日・祝休み,無,,
ファ-スト調剤薬局いび池野店,214043,岐阜県,揖斐郡池田町,35.437843,136.577255,0585-44-3001,0585-44-3005,503-2424, 揖斐郡池田町 池野300-2,月~水、金8:45~13:00、15:00~19:00 木8:30~16:30  土8:45~13:00,有,0585-44-3001,
ヤナセ薬局,214043,岐阜県,揖斐郡池田町,35.442272,136.572144,0585-45-2224,0585-45-0449,503-2425,揖斐郡池田町六之井1473-5,月~金9:00~19:00 土9:00~13:00日・祝休み,有,0585-45-2224,
いび薬局,214043,岐阜県,揖斐郡池田町,35.426258,136.577927,0585-44-3872,0585-44-0375,503-2426, 揖斐郡池田町 八幡字神明ノ木2695-2,月火水金8:30~19:00 木8:30~16:30 土8:30~12:30,有,090-6090-1513,
アイン薬局那加店,212130,岐阜県,各務原市,35.417892,136.832993,058-380-1027,058-380-1037,504-0018, 各務原市 那加西市場町7丁目288-3,月火木金9:00~19:00 水9:00~17:00 土9:00~13:30,有,058-380-1027,
ウラタ薬局新町店,212130,岐阜県,各務原市,35.407429,136.841736,058-389-3336,058-389-3603,504-0021,各務原市那加前洞新町4-179,月、火、木、金:9:00-18:30、水、土:9:00-17:00,有,058-389-3336(転送),
ピノキオ薬局各務原店,212130,岐阜県,各務原市,35.405754,136.829834,058-322-8288,058-383-8188,504-0025,各務原市那加野畑町2-105-3,月・火・水・金8:30~18:30 水・土8:30~12:00日・祝休み,無,,
たんぽぽ薬局那加店,212130,岐阜県,各務原市,35.413265,136.818115,058-201-7131,058-201-7132,504-0041, 各務原市 那加土山町2丁目229番地,月火水金 9:00~19:30 木 10:00~18:00 土 9:00~17:00,有,058-201-7131,
スマイル薬局いしやま店,212130,岐阜県,各務原市,35.407345,136.826996,058-322-4500,058-322-4501,504-0044, 各務原市 那加石山町1丁目132-1,月火水金9:00~19:00 木8:30~16:30 土:8:30~12:30,無,,
こころ調剤薬局とやま,212130,岐阜県,各務原市,35.420605,136.872787,058-371-5560,058-371-5567,504-0806, 各務原市 蘇原外山町2-71-5,月火木金8:30~18:00 水8:30~16:30 土8:30~12:30,無,,
エムハ-ト薬局蘇原店,212130,岐阜県,各務原市,35.408215,136.874588,058-213-6722,058-383-6311,504-0815,各務原市蘇原東栄町2-100-2,月9:00~19:30/火9:00~19:30/水9:00~19:30/木9:00~17:00/金9:00~19:30/土9:00~12:30,有,080-1618-2782,
いるか調剤薬局蘇原東島店,212130,岐阜県,各務原市,35.413784,136.87677,058-380-1077,058-380-1070,504-0816,各務原市蘇原東島町3-163-4,9:00~19:00水9:00~17:00 土9:00~12:00,有,058-380-1077,
かかみの中央薬局,212130,岐阜県,各務原市,35.410618,136.875748,058-322-8361,058-322-8371,504-0816,各務原市蘇原東島町4-9-2,月~金9:00~17:00,無,,
グリ-ン薬局 東海中央病院前店,212130,岐阜県,各務原市,35.408798,136.877197,058-380-2231,058-380-2232,504-0816, 各務原市 蘇原東島町4-56-1 J・ARTビル1階,月~金8:30~17:30 土8:30~12:30,有,058-380-2231,
ピノキオ薬局蘇原店,212130,岐阜県,各務原市,35.404804,136.862274,058-322-9921,058-389-6621,504-0825,各務原市蘇原柿沢町1-41-1,月・火・水・金8:30~19:00木8:30~16:30土8:30~13:30日・祝休み,有,058-322-9921,
ひだまり薬局,212130,岐阜県,各務原市,35.407265,136.855545,058-322-4936,058-322-4946,504-0829, 各務原市 蘇原希望町4-31-1,月~金9:00~19:00 土9:00~13:00,有,058-322-4936,
みずほ薬局,212130,岐阜県,各務原市,35.413925,136.848145,058-371-8880,058-371-1338,504-0831, 各務原市 蘇原瑞穂町3-76-2,月、火、水、金、土9:00~13:00 15:30~19:30 木9:00~17:00,有,058-371-8880,
はなぞの薬局,212130,岐阜県,各務原市,35.411507,136.849747,058-389-6155,058-260-4733,504-0832, 各務原市 蘇原花園町3-4,月~水・金8:30~19:30 木・土8:30~16:30,有,058-389-6155,
ファ-スト調剤薬局そはら店,212130,岐阜県,各務原市,35.411552,136.8461,058-371-7200,058-371-7211,504-0832, 各務原市 蘇原花園町1-57-2,月、火、木、金8:30~12:15   15:30~19:15 土8:30~12:15,無,,
ホップおおしま薬局,212130,岐阜県,各務原市,35.417866,136.849915,058-322-9611,058-322-9688,504-0847, 各務原市 蘇原大島町6-88-2,月火水金9:00-19:30 木9:00-17:00 土9:00-12:30,無,,
ろっけん薬局,212130,岐阜県,各務原市,35.402267,136.854858,058-322-3595,058-322-3596,504-0901, 各務原市 那加東新町2-153,月~金8:00~19:00 土8:00~12:30,無,,
くすのき薬局,212130,岐阜県,各務原市,35.397266,136.842438,058-380-2740,058-380-2741,504-0916, 各務原市 那加楠町45,月火木金9:00~19:00 水9:00~17:00 土9:00~13:00,無,,
ハロ-薬局 いなば店,212130,岐阜県,各務原市,35.385334,136.833328,058-380-7611,058-380-7612,504-0942, 各務原市 小佐野町6-84-3,月~水8:30~19:30 木8:30~17:30 金8:30~19:30 土8:30~12:30,無,,
ピノキオ薬局那加店,212130,岐阜県,各務原市,35.398563,136.834152,058-380-5750,058-380-5752,504-0968,各務原市那加西野町130,月・火・水・金9:00~19:00 木9:00~15:00 土9:00~13:30、16:00~18:30 日・祝休み,無,,
リアン薬局 各務原店,,,,35.388187,136.824554,058-216-6651,058-216-6652,504-0934,各務原市大野町4丁目156番地5 ,月・火・木・金 8:30~18:30 水8:30~16:30 土8:30~12:30,有,080-3657-6651,郵便番号
クオ-ルみどり薬局,,,,35.455044,137.014542,0574-24-5070,0574-24-5072,505-000, 美濃加茂市 蜂屋町上蜂屋3555-60,月~土 9:00~17:00 ,無,,郵便番号
たんぽぽ薬局中部国際医療センタ-店,212113,岐阜県,美濃加茂市,35.458492,137.016861,0574-66-8837,0574-66-8838,505-0010, 美濃加茂市 健康のまち一丁目2番地,月~金9:00~18:30 土日祝9:00~18:00,無,,
ひがし調剤薬局,212113,岐阜県,美濃加茂市,35.448399,137.042313,0574-24-5858,0574-24-5888,505-0027, 美濃加茂市 本郷町9-18-47,月~金8:30~19:00 土8:30~12:00,無,,
クオ-ル薬局加茂店,212113,岐阜県,美濃加茂市,35.440163,137.023331,0574-23-1225,0574-23-1226,505-0034, 美濃加茂市 古井町下古井608,月~金9:00~17:30 土9:00~14:00 日・祝日休み,無,,
ユタカ調剤薬局山手,212113,岐阜県,美濃加茂市,35.451164,137.007126,0574-24-0568,0574-24-0573,505-0037, 美濃加茂市 前平町1-100-3,月火木金9:00~19:00水土9:00~13:00,有,0574-24-0568,
グッドワン調剤薬局,212113,岐阜県,美濃加茂市,35.444519,137.020203,0574-48-8560,0574-48-8561,505-0041, 美濃加茂市 太田町2591-1,月~水・金8:30~18:30 木8:30~16:30 土8:30~13:00,有,0574-48-8560,
かえで調剤薬局,212113,岐阜県,美濃加茂市,35.436073,137.005325,090-5867-5588,0574-28-3553,505-0043, 美濃加茂市 深田町3-3-34-1,月~金8:30~19:00 木8:30~16:30 土8:30~12:30,有,090-5867-5588,
ユニファ-マシ-おんさい薬局,212113,岐阜県,美濃加茂市,35.445866,136.995514,0574-49-7037,0574-49-7038,505-0046, 美濃加茂市 西町5-337-2,月・水・金8:30~19:30 火8:30~16:30 木8:30~17:00 土8:00~17:30,無,,
ひまわり調剤薬局,212113,岐阜県,美濃加茂市,35.470222,136.964523,0574-55-1070,0574-54-1670,505-0056, 美濃加茂市 加茂野町市橋1069の2,月~金8:15~19:15 水8:15-16:15 土8:15~12:15,有,090-7859-5467,
貴船薬局坂祝店,215015,岐阜県,加茂郡坂祝町,35.446007,136.988174,0574-48-8834,0574-48-8872,505-0072, 加茂郡坂祝町 大針字尾橋748-1,月~水、金8:30~19:30 木、土8:30~13:30,有,0574-48-8834,
コ-ヨ-調剤薬局,215210,岐阜県,可児郡御嵩町,35.432217,137.125107,0574-68-1037,0574-67-1447,505-0121, 可児郡御嵩町 中2348-8,月~金9:00~18:00 土9:00~13:00,有,0574-68-1037,
V・drug ひだ冬頭薬局,212032,岐阜県,高山市,36.162533,137.240189,0577-35-3735,0577-35-3736,506-0001, 高山市 冬頭町752-1,月火木金9:00~19:00 水9:00~17:00 土9:00~13:00,有,0577-35-3735,
きらきら薬局,212032,岐阜県,高山市,36.14917,137.255264,0577-62-9182,0577-62-9183,506-0005,高山市七日町2-232-7,月・火・水・金9:00~19:00 木9:00~17:00土9:00~13:00日・祝:休業,有,080-7206-9841,
真央莉薬局花岡店,212032,岐阜県,高山市,36.144226,137.252365,0577-37-6266,0577-37-6265,506-0009, 高山市 花岡町1-6-2,月火木金9:00~19:00 水9:00~17:00 土9:00~13:00,有,0577-37-6266,
グリ-ン薬局中央店,212032,岐阜県,高山市,36.137482,137.255386,0577-34-5701,0577-34-5703,506-0021, 高山市 名田町3-86,月~金9:00~18:00 土9:00~11:00,有,0577-34-5701,
ヘルスバンクウィズハ-ト薬局西之一色店,212032,岐阜県,高山市,36.131226,137.249817,0577-37-7877,0577-37-7878,506-0031, 高山市 西之一色町3-1213-2,月~金9:00~19:00 土9:00~12:00 日祝休み,有,090-2186-8634,
大林調剤薬局上切店,212032,岐阜県,高山市,36.170719,137.227646,0577-36-3121,0577-37-1551,506-0044,高山市上切町343-1,月~金9:00~18:00,無,,
V・drug ひだ岡本薬局,212032,岐阜県,高山市,36.152489,137.250275,0577-37-1660,0577-37-1661,506-0054, 高山市 岡本町4-1-5,月火水金9:00~19:00 木9:00~17:00 土9:00~13:00,有,070-1530-5677,
V・drug 高山中央薬局,212032,岐阜県,高山市,36.14846,137.246353,0577-35-9031,0577-35-9032,506-0054, 高山市 岡本町3-43-1,月~土9:00~20:00,有,0577-35-9031,
スギ薬局 高山駅西店,212032,岐阜県,高山市,36.142319,137.247269,0577-57-9100,0577-57-9101,506-0054, 高山市 岡本町一丁目101番地,月~金9:00~19:00 土9:00~14:00,有,080-3556-2392,
スズキ薬局本店,212032,岐阜県,高山市,36.13747,137.242783,0577-35-1776,0577-35-0188,506-0055,高山市上岡本町1-88,月~金9:00~18:30 土9:00~12:30日・祝休み,有,0577-35-1776,
V・drug 高山西薬局,212032,岐阜県,高山市,36.13575,137.230682,0577-36-6281,0577-36-6282,506-0055, 高山市 上岡本町2-452-2,月~金9:00~19:00 土9:00~13:30,無,,
V・drug 高山南薬局,212032,岐阜県,高山市,36.112381,137.265503,0577-37-6167,0577-37-6168,506-0825, 高山市 石浦町2-188,月~金9:00~19:00 土9:00~13:30,有,080-3722-3536,
そらまち薬局,212032,岐阜県,高山市,36.143925,137.262253,0577-32-0760,0577-32-1246,506-0856, 高山市 大門町1,月?土9:00~13:00 月、火、木、金15:30~19:00,無,,
なごみ薬局,212172,岐阜県,飛騨市,36.333363,137.300476,0578-82-1304,0578-82-1363,506-1111,飛騨市神岡町東町512-1,月~金9:00~18:30 土9:00~13:00日・祝休業,有,090-7262-5713,
ハシモト薬局音羽店,212040,岐阜県,多治見市,35.337288,137.118134,0572-21-3160,0572-21-3165,507-0037, 多治見市 音羽町1-22,月火金9:00~19:00  水・土9:00~12:30,有,070-4214-9384,
ささゆり薬局太平店,212040,岐阜県,多治見市,35.337444,137.109177,0572-23-7272,0572-23-7750,507-0041, 多治見市 太平町6-36,月火木金9:00~19:00 水9:00~17:00  土9:00~13:00,有,0572-23-7272,
調剤薬局大樹,212040,岐阜県,多治見市,35.3354,137.10936,0572-21-1408,0572-21-1407,507-0041, 多治見市 太平町3-6,月~金9:00~19:00 土9:00~13:00,有,0572-21-1408,
エ-ル調剤薬局前畑店,212040,岐阜県,多治見市,35.330147,137.115662,0572-23-8288,0572-23-8244,507-0042,多治見市前畑町3-76-5,月~火8:30~18:30木8:30~16:30木~金8:30~18:30土8:30~12:30日祝休,有,0572-23-8288,
V・drug 多治見中央薬局,212040,岐阜県,多治見市,35.330505,137.117462,0572-21-3422,0572-22-8922,507-0042, 多治見市 前畑町3-45-1,月~金・日9:00~19:30 土9:00~21:30,無,,
スギヤマ調剤薬局多治見店,212040,岐阜県,多治見市,35.328766,137.112671,0572-24-6934,0572-24-6856,507-0042, 多治見市 前畑町5-85-2,月~金 8:30~17:30,無,,
阪神調剤薬局 多治見店,212040,岐阜県,多治見市,35.328766,137.112671,0572-24-6467,0572-24-6501,507-0042, 多治見市 前畑町5丁目108-5-101,月~金8:30~17:30(祝日 休み),有,090-3610-9765,
V・drug 多治見インタ-薬局,212040,岐阜県,多治見市,35.341682,137.115799,0572-21-5663,0572-21-5661,507-0053, 多治見市 若松町2-48,月~金9:00~19:30 土9:00~18:00,有,090-6005-9152,
ささゆり薬局宝町店,212040,岐阜県,多治見市,35.338581,137.109818,0572-21-5959,0572-21-6116,507-0054, 多治見市 宝町2-32-1,月火金8:00~18:00 水木8:00~16:00 土8:00~12:00,有,0572-21-5959,
ささゆり薬局松坂店,212040,岐阜県,多治見市,35.366127,137.093353,0572-29-5959,0572-29-1144,507-0063, 多治見市 松坂町1-1-5,月火水金9:00~19:00 木9:00~17:00 土9:00~13:00,有,0572-29-5959,
すずらん調剤薬局,212040,岐阜県,多治見市,35.35606,137.104904,0572-29-3393,0572-29-3394,507-0072, 多治見市 明和町5丁目57-7,月火水金9:00?19:00 木8:00?16:00 土9:00?13:00,有,0572-29-3393,
ジェ-シ-エス調剤薬局幸店,212040,岐阜県,多治見市,35.354828,137.089417,0572-27-1912,0572-27-1913,507-0077,多治見市幸町8-58-3,月8:45~18:30/火8:45~18:30/水8:45~17:00/木8:45~18:30/金8:45~18:30/土8:45~13:00,有,0572-27-1912,
スギヤマ薬局滝呂店,212040,岐阜県,多治見市,35.312916,137.141739,0572-21-3601,0572-22-1271,507-0813,多治見市滝呂町6-127,月~土 9:00~20:00,無,,
ささゆり薬局 大畑店,212040,岐阜県,多治見市,35.315174,137.128967,0572-21-6162,0572-21-6163,507-0817,多治見市大畑町大洞21-5,月・火・木・金 9:00~19:00水 8:00~16:00土 9:00~12:00,有,0572-21-6162,
スギ薬局多治見南店,212040,岐阜県,多治見市,35.328484,137.124557,0572-21-0071,0572-22-0216,507-0828, 多治見市 三笠町1-8-1,月~金9:00~20:00 土日祝9:00~17:00,無,,
貴船薬局広小路店,212040,岐阜県,多治見市,35.331867,137.126984,0572-26-8519,0572-26-8529,507-0833, 多治見市 広小路2-12,月火水金9:00~19:30 木9:00~17:30 土9:00~12:30,有,0572-26-8519,
V・drug 多治見錦薬局,212040,岐阜県,多治見市,35.329391,137.124634,0572-21-0286,0572-21-0287,507-0835, 多治見市 錦町1-21-1,月火水金9:00~19:30 木9:00~17:00 土9:00~13:00,無,,
めいじまち薬局,212040,岐阜県,多治見市,35.335155,137.131805,0572-21-6680,0572-21-6683,507-0841, 多治見市 明治町1-57,月火木金9:00~19:00 水9:00~17:00 土9:00~12:30,有,090-6090-1513,
エムハ-ト薬局多治見栄町店,,,,35.332298,137.121948,0572-21-2330,0572-21-2331,507-0035,多治見市栄町1丁目37-2 ,月~水・金9:00~19:30、木9:00~17:00、土9:00~13:30,無,,郵便番号
ハシモト薬局三笠店,,,,35.328316,137.123962,0572-223-538,0572-22-3516,507-0828,多治見市三笠町1-18 ,月火木金 8:30-19:00 水 8:30-16:30 土 8:30-13:00,有,070-4214-9390,郵便番号
エ-ル調剤薬局中津川バイパス店,212067,岐阜県,中津川市,35.500736,137.511627,0573-62-1030,0573-62-1031,508-0001,中津川市中津川1213-8,月・火・木・金8:30~18:00 水8:30~16:30土8:30~12:30日・祝:休業,有,0573-62-1030,
ささゆり薬局中津川店,212067,岐阜県,中津川市,35.506828,137.511826,0573-66-7822,0573-66-7823,508-0001, 中津川市中津川 964-274,月火水金9:00~18:30 木土9:00~12:30,有,090-7912-0624,
いろは薬局,212067,岐阜県,中津川市,35.511669,137.528259,0573-61-0170,0573-61-0171,508-0006, 中津川市 落合986-5,月火木金8:30~18:00 水8:00~16:00 土8:00~12:00 日.祝.祭日 休み,有,0573-61-0170,
エ-ル調剤薬局駒場店,212067,岐阜県,中津川市,35.481499,137.484283,0573-65-1026,0573-65-1027,508-0011,中津川市駒場1493-2,月・火・金8:30~18:00 水8:30~17:30木8:30~16:30土8:30~12:30日・祝休業,有,0573-65-1026,
ココカラファイン薬局駒場店,212067,岐阜県,中津川市,35.494965,137.478455,0573-65-8808,0573-65-8041,508-0011,中津川市駒場字西山1666-3741,月~金8:30~18:00土8:30~12:30,有,090-6616-6766,
エ-ル調剤薬局宮前店,212067,岐阜県,中津川市,35.505093,137.506531,0573-62-2134,0573-62-2135,508-0031,中津川市宮前町776-1,月・火・水・金8:30~18:30 木8:30~16:30 土8:30~13:00日・祝:休業,有,0573-62-2134,
有限会社びぜん屋伊藤薬局,212067,岐阜県,中津川市,35.50045,137.503922,0573-65-2742,0573-65-2742,508-0032,中津川市栄町2-17,月~金9:00~19:00 木土9:00~18:00日・祝:休業,有,080-2665-9069,
まるみはなの木薬局,212067,岐阜県,中津川市,35.497307,137.506927,0573-65-6171,0573-66-9611,508-0034,中津川市淀川町3-8,月~日、祝日10:00~20:00,無,,
ト-カイ薬局中津川中央店,212067,岐阜県,中津川市,35.49572,137.505417,0573-65-0739,0573-65-0740,508-0037, 中津川市 えびす町3-24,月水金9:00~18:00 火木9:00~17:00 土9:00~12:30,無,,
くりの木薬局,212067,岐阜県,中津川市,35.514938,137.47821,0573-62-3607,0573-62-3608,508-0101, 中津川市 苗木3720-1,月~金9:00~18:30 土9:00~13:00,有,0573-62-3607,
ハロ-薬局 田瀬店,212067,岐阜県,中津川市,35.629436,137.473358,0573-72-5333,0573-72-5334,508-0201, 中津川市 田瀬972-1,月~金 8:30~18:30 土 8:00~12:30,有,090-5105-3035,
ハロ-薬局 福岡中店,212067,岐阜県,中津川市,35.578346,137.427383,0573-72-5947,0573-72-5442,508-0203, 中津川市 福岡943-36 エスポワ-ル101,月火水金9:00~18:30 木9:00~17:00 土9:00~13:00,有,0573-72-5947,
V・drug おがせ調剤薬局,212130,岐阜県,各務原市,35.409271,136.910721,058-370-9880,058-370-9887,509-0104,各務原市各務おがせ町9-106 ,月火木金8:00~19:00、 水8:00~16:00、土8:00~12:00,有,070-1279-7435,
みなみ薬局,212130,岐阜県,各務原市,35.396385,136.940918,058-322-4075,058-322-4076,509-0125, 各務原市 鵜沼南町2-127-1,月火木金8:30~18:30 水8:00~16:00 土8:30~12:00,有,058-322-4075,
明日香調剤薬局,212130,岐阜県,各務原市,35.396534,136.942429,058-260-9677,058-260-9678,509-0125, 各務原市 鵜沼南町5丁目36番地,月火木金9:00~19:00 水8:30~16:30   土8:30~12:30,有,058-260-9677,
かとう薬局,212130,岐阜県,各務原市,35.400234,136.945129,058-370-0623,058-370-3822,509-0126,各務原市鵜沼東町6-79,月~金8:30~19:00土8:30~17:00,有,058-370-0623,
あおぞら薬局,212130,岐阜県,各務原市,35.405796,136.941101,058-385-5125,058-385-5125,509-0126, 各務原市 鵜沼東町2-2,月火木金9:00~19:00 土9:00~17:00,無,,
ピノキオ薬局 鵜沼東店,212130,岐阜県,各務原市,35.404949,136.939484,058-260-5005,058-260-5007,509-0126, 各務原市 鵜沼東町1丁目1-93-1,月~水、金9:00~19:30 木、土9:00~12:30,無,,
はば薬局,212130,岐阜県,各務原市,35.402519,136.921829,058-385-0536,058-385-4156,509-0135, 各務原市 鵜沼羽場町4-117-3,月火木金8:30~19:00 水8:30~16:00 土8:30~13:00 16:00~19:00,有,058-385-0536,
かかみの調剤薬局,212130,岐阜県,各務原市,35.398655,136.90979,058-385-0822,058-385-0806,509-0141, 各務原市 鵜沼各務原町6?106-2,月火水金9:00~19:30 木9:00~17:00 土9:00~12:30,無,,
愛進堂三ツ池薬局,212130,岐阜県,各務原市,35.398827,136.897415,058-385-2500,058-385-2511,509-0146,各務原市鵜沼三ツ池町5-239-1,月・火・木・金9:00~20:00 水9:00~18:00土9:00~13:00,有,058-385-2500,
うぬま調剤薬局,212130,岐阜県,各務原市,35.401634,136.895294,058-384-6007,058-384-6008,509-0146, 各務原市 鵜沼三ツ池町3-426-3,月火水金9:00~12:00 15:30~19:00 木土9:00~12:00,無,,
フジサワ薬局下恵土調剤センタ-,212148,岐阜県,可児市,35.425316,137.04628,0574-61-3535,0574-61-0470,509-0203, 可児市 下恵土3440-681,月火木金8:30~19:00 土8:30~13:00 水8:30~16:30,有,0574-61-3535,
可児かがやき薬局,212148,岐阜県,可児市,35.425762,137.042343,0574-66-2070,0574-66-2080,509-0203, 可児市 下恵土中西835-1,月~金9:00~20:00 土9:00~13:00,有,070-7403-3420,
たんぽぽ薬局可児店,212148,岐阜県,可児市,35.425243,137.018433,0574-24-3665,0574-27-3801,509-0206, 可児市 土田北割田1356-6,月~金9:00~18:00 土15:30~17:30,有,0574-24-3665,
V・drug広見薬局,212148,岐阜県,可児市,35.419312,137.064377,0574-60-2682,0574-60-2683,509-0214,可児市広見字中反田1999-1,月~金9:00~20:00土・日・祝9:00~18:00,有,080-9417-5140,
エ-ス薬局広見店,212148,岐阜県,可児市,35.420467,137.062378,0574-60-5407,0574-60-5408,509-0214, 可児市 広見847-10,月~金9:00~20:00 土9:00~14:00,有,0574-60-5407,
ハロ-薬局 白川店,215066,岐阜県,加茂郡白川町,35.603798,137.161728,0574-79-1031,0574-79-1032,509-1106, 加茂郡白川町 坂ノ東字御堂前5779?1,月~土9:00~18:30,有,0574-79-1031,
井桁屋えきまえ薬局,212202,岐阜県,下呂市,35.662537,137.169312,0576-20-4420,0576-20-4237,509-1614,下呂市金山町大船渡518-14,月火水金8:00~19:00木   8:00~16:00土   8:00~12:00,有,0576-20-4420,
井桁屋あさひ薬局,212202,岐阜県,下呂市,35.668674,137.13591,0576-33-2880,0576-33-2177,509-1622,下呂市金山町金山2600-2,月~金8:30~19:00 土8:30~13:00,有,090-3257-2758,
下呂薬局,212202,岐阜県,下呂市,35.80508,137.245972,0576-25-2120,0576-25-6271,509-2202,下呂市森1419-32 ,月~水金8:30~19:00、木14:30~18:00、土8:30~13:00,有,0576-25-2120,
さるぼぼ薬局,212202,岐阜県,下呂市,35.88905,137.197189,0576-52-2134,0576-52-2925,509-2506, 下呂市 萩原町羽根41-2,月火水金 8:30~19:00 木 8:30~17:30 土 8:30~13:00,有,080-3501-5572,
花池調剤薬局,212202,岐阜県,下呂市,35.864517,137.239166,0576-52-3303,0576-52-3309,509-2515, 下呂市 萩原町花池19-6,月~水・金9:00~19:00 木9:00~17:00 土9:00~13:00,無,,
萩原薬局,212202,岐阜県,下呂市,35.876125,137.209412,0576-53-2369,0576-53-2370,509-2517,下呂市萩原町萩原905 ,(月)(木)8:45~17:30、(火)(水)(金)8:45~18:00、(土)8:45~13:00、薬局薬剤師が薬局まで15分の所に住んでいるので、時間外は約30分で薬局に到着可能です。,有,0576-53-2369,
ユニファ-マシ-ほんまち薬局,212202,岐阜県,下呂市,35.876125,137.209412,0576-52-3730,0576-52-3731,509-2517, 下呂市 萩原町萩原1352-1,月~金9:00~18:00 土9:00~13:00,有,070-1263-7934,
ゆう薬局,212032,岐阜県,高山市,36.194248,137.251938,0577-72-5567,0577-72-5568,509-4124,高山市国府町村山252-1,月~金9:00~17:30 土9:00~13:00日・祝休み,有,090-1419-6182,
V・drug ひだ上気多薬局,212172,岐阜県,飛騨市,36.239117,137.190353,0577-74-2088,0577-74-2089,509-4212, 飛騨市 古川町上気多591-1,月火木金8:30~19:00 水8:30~16:30 土8:30~13:00,無,,
重山薬局,212172,岐阜県,飛騨市,36.249107,137.167679,0577-73-2726,0577-73-0990,509-4215,飛騨市古川町杉崎91-1,月~金8:30~19:00 土8:30~12:00日・祝:休み,有,090-1626-8993,
V・drug ひだ若宮薬局,212172,岐阜県,飛騨市,36.235943,137.192459,0577-74-2055,0577-74-2056,509-4221, 飛騨市 古川町若宮1-7-32,月火水金9:00~19:00 木9:00~17:00 土9:00~13:00,有,0577-74-2055,
合資会社橋本薬局,212172,岐阜県,飛騨市,36.234058,137.187042,0577-73-2856,0120-73-3074,509-4235,飛騨市古川町弐之町2-15,月・火・水・金9:00~18:00 木9:00~17:00土9:00~13:00 日・祝祭日休み,有,080-9494-3994,
貴船薬局,212172,岐阜県,飛騨市,36.22979,137.191498,0577-73-6556,0577-73-3455,509-4243, 飛騨市 古川町貴船町12-3,月~金9:00~18:30 土9:00~13:00,有,080-3615-5135,
ささゆり薬局泉店,212121,岐阜県,土岐市,35.367004,137.186539,0572-44-8071,0572-44-8072,509-5106, 土岐市 泉仲森町2丁目27-1-2,月火水金9:00~19:00 木 9:00~17:00 土 9:00~13:00,有,080-4471-1973,
ユニファ-マシ-うめのき薬局,212121,岐阜県,土岐市,35.364914,137.183609,0572-54-0678,0572-54-0556,509-5107, 土岐市 泉梅ノ木町1-22,月火木金9:00~19:00 水土9:00~13:00,無,,
ささゆり薬局土岐店,212121,岐阜県,土岐市,35.361671,137.198227,0572-53-3607,0572-53-3608,509-5112,土岐市肥田浅野笠神町2-12,月~金9:00~19:00土9:00~12:30,有,0572-53-3607,
スギヤマ薬局土岐店,212121,岐阜県,土岐市,35.344677,137.176331,0572-53-0343,0572-53-0344,509-5124,土岐市土岐口中町4-78-1,月~土 8:30~19:30,有,090-5800-0981,
エムハ-ト薬局土岐西本町店,212121,岐阜県,土岐市,35.374733,137.157394,0572-53-1138,0572-53-1139,509-5142,土岐市泉町久尻西本町11-7 ,月・火・水・金9:00~19:00 木9:00~17:00 土9:00~14:00,有,080-2628-3008,
ユニファ-マシ-土岐いずみ薬局,212121,岐阜県,土岐市,35.357735,137.179306,0572-56-0170,0572-56-0171,509-5142, 土岐市 泉町久尻480-25,"月火木金9:00~19:00 水9:00~17:00 第1,3,5土8:00~12:30 第2,4土9:00~17:30",有,0572-56-0170,
エ-ル調剤薬局瑞浪店,212083,岐阜県,瑞浪市,35.349541,137.249374,0572-26-8993,0572-26-8994,509-6104, 瑞浪市 山田町671-12,月火木金8:30~19:00 水8:30~16:30 土8:30~13:00,有,0572-26-8993,
穂並調剤薬局,212083,岐阜県,瑞浪市,35.354977,137.24614,0572-66-2755,0572-66-2756,509-6107,瑞浪市穂並2-120,月~金9:00~19:00土9:00~17:00,有,090-5635-9673,
あおい薬局瑞浪店,212083,岐阜県,瑞浪市,35.360855,137.258057,0572-44-9131,0572-44-9132,509-6108,瑞浪市益見町3-7,月火木 9:00~19:00水金  11:00~19:00,無,,
ト-カイ薬局メディカルゾ-ン瑞浪店,212083,岐阜県,瑞浪市,35.361961,137.258331,0572-67-2262,0572-67-2263,509-6108, 瑞浪市 益見町1-126,月~水、金8:30~18:30 木8:00~16:00 土8:30~14:00,無,,
フジサワ薬局瑞浪調剤センタ-,212083,岐阜県,瑞浪市,35.359325,137.243927,0572-66-1277,0572-68-1911,509-6115, 瑞浪市 北小田町2-200,月火木金9:00-18:30 水9:00-17:00 土9:00-13:00,有,0572-66-1277,
たんぽぽ薬局東濃厚生病院店,212083,岐阜県,瑞浪市,35.36499,137.254227,0572-26-7871,0572-26-7872,509-6121, 瑞浪市 寺河戸町1078-6,月~金8:30~17:30,有,0572-26-7871,
たんぽぽ薬局瑞浪店,212083,岐阜県,瑞浪市,35.36499,137.254227,0572-26-7851,0572-26-7852,509-6121, 瑞浪市 寺河戸町1077-9,月~金8:30~17:30 ,無,,
ト-カイ薬局瑞浪店,212083,岐阜県,瑞浪市,35.366951,137.241226,0572-68-1502,0572-68-1503,509-6134,瑞浪市松ケ瀬町2-58-2,月・火・木・金9:00~19:00水8:30~16:30土9:00~12:00,有,0572-68-1502,
ささゆり薬局岩村店,212105,岐阜県,恵那市,35.36018,137.439255,0573-43-0070,0573-43-0072,509-7403, 恵那市 岩村町1655-7,月~金9:00~18:00,有,0573-43-0070,
ささゆり薬局ひるかわ店,212067,岐阜県,中津川市,35.523643,137.383011,0573-45-3986,0573-45-3987,509-8301, 中津川市 蛭川2362-6,月火水金9:00~18:00 木8:00~16:00 土8:00~9:00,有,0573-45-3986,
V・drug 坂本薬局,212067,岐阜県,中津川市,35.465088,137.456558,0573-64-2117,0573-64-2118,509-9132,中津川市茄子川字前田2190-6,月・火・木・金9:00~18:00 水9:00~17:00土9:00~13:00日・祝休み,無,,
エ-ル調剤薬局坂下店,212067,岐阜県,中津川市,35.574017,137.512802,0573-70-0132,0573-70-0133,509-9232,中津川市坂下878-1,月~金8:30~18:00 土8:30~12:30日・祝休み,有,0573-70-0132,
はなの木薬局,212067,岐阜県,中津川市,35.574017,137.512802,0573-70-0130,0573-70-0131,509-9232,中津川市坂下872-1,月~金9:00~18:00土9:00~12:00日・祝休み,有,0573-70-0130,
