施設_名称,施設_市区町村コード,住所_都道府県,住所_市区町村（郡）,住所_緯度,住所_経度,連絡先_電話番号,連絡先_FAX番号,連絡先_郵便番号,連絡先_住所,施設_開局時間,時間外_対応の有無,時間外_電話番号,エラー
アイン薬局福山御幸店,342076,広島県,福山市,34.547123,133.348785,084-949-3378,084-949-3385,720-0001,福山市御幸町上岩成464-8,8:30~18:00,有,084-949-3378,
ププレひまわり薬局御幸店,342076,広島県,福山市,34.540966,133.34816,084-983-1810,084-983-1820,720-0002,福山市御幸町下岩成338番地,月・火・木・金 9:00~19:00水 9:00~18:00土 9:00~14:00,有,090-9102-1190,
にこぴん薬局千田町店,342076,広島県,福山市,34.520317,133.383545,084-961-0251,084-961-0252,720-0017,福山市千田町2-47-5,月・水・金8:15-17:30 火・木8:15-17:15       土8:15-12:30,有,080-8989-3522,
にこぴん薬局三吉町店,342076,広島県,福山市,34.492664,133.375732,084-973-7551,084-973-7552,720-0031,福山市三吉町3-3-22,平日8:45-18:00  水8:45-16:45 土8:45-13:00 日祝休み,有,080-8989-3523,
ウォンツ福山御船薬局,342076,広島県,福山市,34.488541,133.369232,084-973-6220,084-973-6221,720-0042,福山市御船町1-9-3,9:00~18:30日・祝休み,無,,
サン・メディカル薬局大黒店,342076,広島県,福山市,34.490528,133.366852,084-923-2325,084-923-2343,720-0053,福山市大黒町1-1,月~土9:00-18:00  日祝 休み,無,,
すずらん薬局,342076,広島県,福山市,34.491238,133.367996,084-921-0260,084-921-0273,720-0053,福山市大黒町2-32,平日9:00-18:00 土9:00-13:00 日祝休み,無,,
さくらんぼ薬局東桜町店,342076,広島県,福山市,34.487675,133.362579,084-991-0017,084-991-0018,720-0065,福山市東桜町1-43 備広福山駅前ビル1階,月・火・木・金9:00~18:30 土9:00~16:00,無,,
サン・メディカル薬局東桜町店,342076,広島県,福山市,34.48576,133.359055,084-973-3551,084-973-3552,720-0065,福山市東桜町11-10,平日9:00-18:00  土9:00-13:00  日祝休み,無,,
にこぴん薬局北吉津店,342076,広島県,福山市,34.497524,133.363617,084-924-0251,084-924-0256,720-0073,福山市北吉津町3丁目11-19,平日9:00-18:00 土9:00-13:00 日祝 休み,有,080-2930-2402,
ファ-マシィ薬局南本庄,342076,広島県,福山市,34.484825,133.353714,084-973-3738,084-973-3738,720-0077,福山市南本庄3-2-16,日曜平日9:00-18:30 土祝日休み,有,084-973-3738,
くるみ薬局,342076,広島県,福山市,34.498253,133.35437,084-931-4066,084-931-4074,720-0082,福山市木之庄町2-7-1,月・火・木 9:00~18:30水・金 9:00~17:00土 9:00~12:00,有,084-931-4066,
木之庄薬局,342076,広島県,福山市,34.4981,133.354324,084-925-3125,084-925-3129,720-0082,福山市木之庄町2-7-3,月火水金9:00-19:00  木8:00-16:00  土9:00-17:00,無,,
にこぴん薬局ばら公園店,342076,広島県,福山市,34.483646,133.373749,084-999-7251,084-999-7252,720-0802,福山市松浜町1-10-10,月火水金9:00-18:00 木9:00-17:00 土9:00-12:30 日祝休み,有,080-8989-3516,
そうごう薬局福山店,342076,広島県,福山市,34.480671,133.367752,084-922-9741,084-922-8580,720-0805,福山市御門町1丁目3-31,月火水金9:00-18:00  木土9:00-17:00  日祝 休み,有,084-922-9741,
そうごう薬局御門店,342076,広島県,福山市,34.478848,133.371323,084-973-1911,084-973-1912,720-0805,福山市御門町3-2-6,月火金:8:30-18:00 水:8:30-16:30 木8:30-18:30 土8:30-17:00 日祝:休み,有,084-973-1911,
ファ-マシィ薬局クレ-ル,342076,広島県,福山市,34.478035,133.370529,084-931-3368,084-931-3378,720-0805,福山市御門町3-3-9,平日9:00-19:00  土9:00-19:00 日祝休み,有,084-931-3368,
宮野薬局,342076,広島県,福山市,34.48357,133.370316,084-932-2112,084-932-2132,720-0806,福山市南町2-12,9:30~22:30,無,,
ファ-マシィ薬局すみよし,342076,広島県,福山市,34.485474,133.370514,084-920-1264,084-920-1264,720-0809,福山市住吉町6-11,平日9:00-18:30 土9:00-13:00 日祝休み,有,084-920-1264,
葦陽紅葉町薬局,342076,広島県,福山市,34.484768,133.360504,084-926-4512,084-926-4512,720-0811,福山市紅葉町3-23,月・火・木~土9:00~18:05水9:00~13:00日・祝日休み,無,,
葦陽ロ-ズ薬局,342076,広島県,福山市,34.484329,133.363434,084-932-0044,084-932-0044,720-0812,福山市霞町2丁目2-2,月火水金土9:00-18:00 木9:00-12:30   日祝 休,有,090-3743-0761,
サン・メディカル薬局道三店,342076,広島県,福山市,34.481926,133.363358,084-928-3021,084-928-0432,720-0813,福山市道三町5-15,月火水金9:00-18:00 木土9:00-13:00 日祝休み,無,,
いちご薬局,342076,広島県,福山市,34.481384,133.366562,084-999-5454,084-999-5456,720-0814,福山市光南町1-5-4,平日、土8:30-18:00. 日祝:休,無,,
葦陽ミナミ薬局,342076,広島県,福山市,34.478531,133.36676,084-925-0646,084-925-0646,720-0814,福山市光南町2-4-4,月~水・金9:00~18:05木・土9:00~13:05日・祝休み,無,,
ウォンツ福山野上薬局,342076,広島県,福山市,34.474957,133.367203,084-991-1315,084-991-1316,720-0815,福山市野上町3丁目6-5,月~金:9:00~13:00    14:30~17:45,無,,
エスマイル薬局野上店,342076,広島県,福山市,34.479633,133.363861,084-959-4210,084-959-4211,720-0815,福山市野上町1丁目5-28,月9:00~23:00/火9:00~18:00/水9:00~21:00/木9:00~18:00/金9:00~23:00/土9:00~18:00,無,,
ふれあいロ-ズ薬局,342076,広島県,福山市,34.478394,133.365738,084-973-9880,084-973-9881,720-0815,福山市野上町2-6-8,月9:00~18:30/火9:00~18:30/水9:00~18:30/木9:00~18:30/金9:00~18:30/土9:00~16:00,有,084-973-9880,
一般社団法人福山市薬剤師会野上薬局,342076,広島県,福山市,34.477139,133.363678,084-924-6625,084-924-6641,720-0815,福山市野上町3-12-1,月~金9:00~17:00,有,080-1640-1278,
サン・メディカル薬局川口店,342076,広島県,福山市,34.472275,133.387909,084-920-2131,084-920-2132,720-0822,福山市川口町1丁目8番1-105,月~金 AM 9:00~PM 6:30  土 AM 9:00~PM 1:00      土曜日午後・日曜日・祝日・お盆・年末年始休み,有,090-4145-6828,
クル-ズ薬局多治米店,342076,広島県,福山市,34.467621,133.371368,084-981-3511,084-981-3512,720-0824,福山市多治米町5-23-29,月火水金8:30-18:30、木8:30-18:00、土8:30-13:00      日祝は休み,無,,
在宅支援ザグザグ薬局多治米店,342076,広島県,福山市,34.468216,133.370575,084-920-3142,084-920-3142,720-0824,福山市多治米町5丁目23-39,9:30-18:30  日祝休み,有,090-9839-5261,
こころ薬局,342076,広島県,福山市,34.471825,133.373383,084-925-1193,084-925-1194,720-0825,福山市沖野上町3-6-27,月~金9:00-18:00土9:00-13:00日祝休み,有,084-925-1193,
ファ-マシィ薬局沖野上,342076,広島県,福山市,34.471081,133.371384,084-921-9448,084-921-9455,720-0825,福山市沖野上町4-15-23,月~金9:00~18:00土9:00~13:00,有,080-2904-5575,
ファ-マシィ薬局国立前,342076,広島県,福山市,34.470139,133.371307,084-931-0726,084-931-0728,720-0825,福山市沖野上町4-22-30,月~金8:30~17:30土9:00~13:00,無,,
今岡薬局医療センタ-前店,342076,広島県,福山市,34.470394,133.371552,084-922-1985,084-921-3698,720-0825,福山市沖野上町4-21-33,月~金9:00~18:00土9:00~12:00,無,,
なごみ薬局,342076,広島県,福山市,34.465542,133.353577,084-956-4140,084-956-4140,720-0830,福山市水呑町三新田二丁目231番地,月・水・金9:00-18:30  火・木9:00-17:00          土9:00-13:00  日祝休み,有,080-5756-7334,
にこぴん薬局三新田店,342076,広島県,福山市,34.465542,133.353577,084-968-0251,084-956-6300,720-0830,福山市水呑町三新田二丁目26番地,平日9:00-18:30   土9:00-17:30   日祝 休み,有,080-8989-3519,
ファ-マシィ薬局たけがはな,342076,広島県,福山市,34.439732,133.394836,084-968-0117,084-968-0118,720-0832,福山市水呑町3590-1,月-土9:00-18:00日祝休み,有,084-968-0117,
ファ-マシィ薬局みのみ,342076,広島県,福山市,34.446564,133.380386,084-920-5070,084-920-5071,720-0832,福山市水呑町1957-2,月火水金9:00-18:30 木9:00-18:00 土9:00-13:00 日祝休み,有,084-920-5070,
日本調剤 赤坂薬局,342076,広島県,福山市,34.472172,133.304001,084-949-2808,084-949-2810,720-0843,福山市赤坂町赤坂1283-1,平日9:00-18:00 土9:00-13:00 日祝 休み,有,080-1294-0456,
あすか薬局,342076,広島県,福山市,34.544849,133.330551,084-977-1261,084-977-1262,720-1131,福山市駅家町万能倉1111-10,月・水・木~土9:00~12:30月・水・金15:30~18:00,有,084-977-1261,
くるみ薬局 駅家店,342076,広島県,福山市,34.544643,133.340286,084-977-0781,084-977-0782,720-1131,福山市駅家町万能倉98-5,月・水・金 9:00~17:30火・木 9:00~17:00土 9:00~12:30,有,084-977-0781,
とうしん薬局,342076,広島県,福山市,34.545441,133.333969,084-999-1210,084-999-1215,720-1131,福山市駅家町万能倉786-6,月火水金8:30-18:30 木8:30-17:00 土8:30-13:00 日祝休み,有,090-4100-0837,
ももたろう薬局駅家店,342076,広島県,福山市,34.550102,133.332672,084-949-3707,084-949-3708,720-1131,福山市駅家町万能倉728-7,月水9:00-17:00  火木金9:00-13:00 14:00-18:30       土9:00-12:30  日祝 休み,有,080-3871-5147,
オ-ル薬局駅家店,342076,広島県,福山市,34.541523,133.327576,084-976-7666,084-976-7666,720-1132,福山市駅家町倉光156-3,月火水金土9:00-18:30  木日祝 休み,有,080-1941-7666,
オ-ル薬局近田店,342076,広島県,福山市,34.543816,133.318802,084-976-4468,084-976-8200,720-1133,福山市駅家町近田117-6,月火水金9:00-19:00 木9:00-17:00 土9:00-14:00 日祝休み,無,,
そうごう薬局近田店,342076,広島県,福山市,34.544552,133.312286,084-977-0677,084-977-0688,720-1133,福山市駅家町近田586-2,月・火・木・金9:00-18:30  水9:00-13:30          土9:00-13:00 日祝休み,有,084-977-0677,
みつば薬局,342076,広島県,福山市,34.540833,133.316772,084-982-6002,084-982-6003,720-1133,福山市駅家町近田233-1,月火木金9:00-18:00 水8:00-16:00 土9:00-14:00 日祝休み,無,,
しんめい堂薬局,342076,広島県,福山市,34.554893,133.34996,084-960-3061,084-960-3062,720-2104,福山市神辺町道上2981-3,8:30~18:00,有,084-960-3061,
クオ-ル薬局御領店,342076,広島県,福山市,34.565052,133.3992,084-966-1700,084-966-1702,720-2117,福山市神辺町下御領501-1,平日9:00-18:00 水9:00-17:00,有,084-966-1700,
オ-ル薬局神辺店,342076,広島県,福山市,34.540554,133.363342,084-960-3327,084-960-3328,720-2123,福山市神辺町川北1533,月~金9:00~18:30土9:00~17:00,有,084-960-3327,
かんなべ薬局,342076,広島県,福山市,34.534969,133.378983,084-965-6699,084-965-6698,720-2124,福山市神辺町川南1045-4,月水金9:00-19:30  火9:00-18:30  木土9:00-17:30  祝日9:00-17:30  日休み,無,,
ぞうさん薬局,342076,広島県,福山市,34.533459,133.369003,084-960-0517,084-960-0516,720-2124,福山市神辺町川南1120,平日:9時-18:30(木曜日は8:30-16:30) 土 9-17 ,有,080-8090-0783,
ファ-マシィ薬局新徳田,342076,広島県,福山市,34.547375,133.369446,084-960-0708,084-960-0706,720-2125,福山市神辺町新徳田3-542-2,月火木金9:00-18:30  水9:00-17:00  土9:00-13:00      日祝 休み,有,084-960-0708,
ファ-マシィ薬局神辺,342076,広島県,福山市,34.547375,133.369446,084-963-5337,084-963-5227,720-2125,福山市神辺町新徳田3-546-2,月火木金9:00~18:30水9:00~17:00土9:00~13:00,有,084-963-5337,
ウォンツ福山加茂薬局,342076,広島県,福山市,34.570335,133.336288,084-959-4165,084-959-4175,720-2412,福山市加茂町下加茂59-1,月~金9:00~13:00、14:30~17:45土・日・祝休み,無,,
アプコUnity薬局駅家,342076,広島県,福山市,34.554363,133.325867,084-949-3031,084-949-3032,720-2413,福山市駅家町法成寺108-8,平日9:00-18:00 土9:00-12:30 日祝休み,有,084-949-3031,
アイワ薬局,342076,広島県,福山市,34.572544,133.344788,084-972-7535,084-972-7588,720-2418,福山市加茂町中野403-23,月9:00~18:30/火9:00~18:30/水9:00~18:30/木9:00~13:00/金9:00~18:30/土9:00~13:00,有,084-972-7588,
セブン薬局,342076,広島県,福山市,34.510025,133.414261,084-941-2235,084-944-7620,721-0907,福山市春日町7-1-24,平日9:00-18:00  土曜9:00-13:00  日祝休み,有,090-4696-1861,
春日ココフル薬局,342076,広島県,福山市,34.506657,133.400696,084-982-7324,084-982-7325,721-0907,福山市春日町1-7-6,平日9:00-18:00  水曜・土曜:9:00-13:00 日祝休み,有,084-982-7324,
ウォンツ福山幕山薬局,342076,広島県,福山市,34.513477,133.434555,084-971-7457,084-971-7458,721-0913,福山市幕山台8-1-33,月~金9:00~13:0014:00~18:00,無,,
ウォンツ福山伊勢丘薬局,342076,広島県,福山市,34.502792,133.423355,084-948-8021,084-948-8022,721-0915,福山市伊勢丘3-3-1,月~金9:00~19:00土9:00~18:00日・祝休み,無,,
さくらんぼ薬局伊勢丘店,342076,広島県,福山市,34.504635,133.422318,084-959-2157,084-959-2158,721-0915,福山市伊勢丘5-1-23,月、火、木、金曜日9:00-18:30 水曜日9:00-17:00      土曜日9:00-13:00 日祝 休み,有,084-959-2157,
にこぴん薬局伊勢丘店,342076,広島県,福山市,34.506134,133.421555,084-944-8251,084-944-8252,721-0915,福山市伊勢丘5-6-2,月火水金 9:00~18:00  木 9:00~17:00 土 9:00~13:00  日・祝休み,有,080-8989-93518,
イヨウ薬局大門店,342076,広島県,福山市,34.497395,133.442001,084-946-4044,084-946-4044,721-0926,福山市大門町1-39-18,月・火・水・金9:00~17:35木9:00~17:00土9:00~12:35,無,,
アイン薬局福山大門店,342076,広島県,福山市,34.490334,133.434479,084-943-0155,084-943-0156,721-0927,福山市大門町津之下2033,平日8:30-18:00 土9:00-12:00 日祝休み,有,084-943-0155,
コスモス薬局引野店,342076,広島県,福山市,34.491558,133.402466,084-941-5800,084-941-5803,721-0942,福山市引野町5丁目21番36号,月火水金9:00-18:30 木9:00-17:00 土9:00-14:00 日祝休み,有,080-5620-7138,
ザグザグ薬局曙店,342076,広島県,福山市,34.469948,133.397385,084-981-2666,084-981-2666,721-0952,福山市曙町3-19-12,月~水・金・土 9:00~19:00 木 9:00~18:00 日祝休み,有,090-1764-6349,
株式会社エスマイル 明神町薬局,342076,広島県,福山市,34.4921,133.399384,084-973-2115,084-973-2185,721-0961,福山市明神町2-10-3,月9:00~18:00/火9:00~18:00/水9:00~18:00/木9:00~18:00/金9:00~18:00/土9:00~18:00/備考:祝日は閉局,有,084-973-2115,
東手城ココフル薬局,342076,広島県,福山市,34.488522,133.401291,084-945-9700,084-945-9702,721-0962,福山市東手城町1-3-11,平日9:00-1800 土9:00-13:00 日祝:休,有,084-945-9700,
東手城薬局,342076,広島県,福山市,34.488338,133.406113,084-945-0413,084-945-0416,721-0962,福山市東手城町3-12-13,月・火・水・金・土8:30-18:30 木8:30-16:30 日・祝日休み,有,080-6336-8931,
エ-ス天元堂薬局,342076,広島県,福山市,34.484173,133.379944,084-926-8520,084-983-2460,721-0964,福山市港町1丁目14-13,月-土9:00-18:00,無,,
にこぴん薬局,342076,広島県,福山市,34.485195,133.382935,084-973-6251,084-973-6252,721-0964,福山市港町2-5-23,平日8:30-18:00 土8:30-18:00 日祝休み,有,080-8989-3521,
にこぴん薬局手城町店,342076,広島県,福山市,34.487953,133.38826,084-973-8251,084-973-8255,721-0966,福山市手城町2丁目1-16,平日9:00-18:00  土9:00-13:00  日祝 休み,有,080-8989-3517,
アイン薬局福山蔵王店,342076,広島県,福山市,34.509411,133.393265,084-973-5552,084-973-5562,721-0971,福山市蔵王町3-11-11,平日9:00-18:00 土9:00-12:00 日祝休み,有,084-973-5552,
蔵王薬局,342076,広島県,福山市,34.517467,133.404404,084-982-9773,084-982-9776,721-0971,福山市蔵王町162-1,月~金9:00~18:00,無,,
エスマイル薬局蔵王店,342076,広島県,福山市,34.50108,133.397919,0849996580,0849996581,721-0973,福山市南蔵王町3丁目17-10,月9:00~18:30/火9:00~18:30/水9:00~18:30/金9:00~18:30/土9:00~13:00,無,,
かえで薬局,342076,広島県,福山市,34.498798,133.396332,084-959-4002,084-959-4003,721-0973,福山市南蔵王町4-12-27,月・火・水・金・土9:00-18:00 木9:00-13:00 日祝休み,無,,
そうごう薬局 蔵王店,342076,広島県,福山市,34.504257,133.402557,084-941-5912,084-945-7022,721-0973,福山市南蔵王町5-14-10,月~土 9:00-18:00 日・祝 休み,有,084-941-5912,
寺西薬局,,,,34.332672,133.178802,0845-24-3661,0845-24-3661,722?2211,尾道市因島中庄町4895-26,平日9:00-18:00  土9:00-13:00  日祝休み,有,090-1010-2820,郵便番号
あい薬局田辺健康館,342050,広島県,尾道市,34.399033,133.173676,0848-22-3566,0848-22-3593,722-0002,尾道市古浜町9-1,平日8:30~18:30(木曜日のみ~16:30) 土8:30~13:30    日祝休み,有,080-2944-8136,
古浜薬局,342050,広島県,尾道市,34.399303,133.174484,0848-22-7299,0848-22-7293,722-0002,尾道市古浜町6-23,平日8:30-18:30 木 8:30-16:30 土8:30-13:30  日祝休み,有,0848-22-7299,
メディエント尾道西薬局,342050,広島県,尾道市,34.402691,133.169189,0848-20-0093,0848-20-0055,722-0016,尾道市神田町3-11,月9:00~18:00/火9:00~18:00/水9:00~18:00/木9:00~18:00/金9:00~18:00/土9:00~13:00,有,080-1908-5710,
あい薬局平原店,342050,広島県,尾道市,34.406681,133.175323,0848-21-1311,0848-21-1322,722-0018,尾道市平原1-20-50,月~金9:00~18:00土9:00~13:00,無,,
アプコUnity薬局,342050,広島県,尾道市,34.407288,133.175064,0848-24-6093,0848-24-6094,722-0018,尾道市平原1-10-25,平日9:00~18:00 土9:00~13:00 日祝休み,有,0848-24-6093,
なの花薬局平原店,342050,広島県,尾道市,34.406929,133.175034,0848-23-2311,0848-23-2312,722-0018,尾道市平原1-20-46,月~金9:00~18:00土9:00~12:00,有,0848-23-2311,
ひので薬局 本館,342050,広島県,尾道市,34.407101,133.174957,0848-38-7728,0848-38-7729,722-0018,尾道市平原1-20-44,月-金9:00-18:00 土9:00-13:00 日・祝日休み,無,,
すばる薬局,342050,広島県,尾道市,34.433926,133.191299,0848-21-1123,0848-21-1134,722-0022,尾道市栗原町9650-10,月・火・水・金9:00~18:00木・土9:00~12:30,有,070-5676-6159,
ファ-マシィ薬局ふれあい,342050,広島県,尾道市,34.426483,133.190063,0848-22-2428,0848-22-2428,722-0022,尾道市栗原町8517-1,月・水・金9:00~18:00火・木9:00~17:00土9:00~13:00,有,080-3021-8736,
新尾道薬局,342050,広島県,尾道市,34.430157,133.181641,0848-24-2417,0848-24-2416,722-0022,尾道市栗原町5901-1,月・火・木・金9:00~18:30 水8:00~16:00土9:00~13:00,有,080-1937-4210,
三北調剤薬局,342050,広島県,尾道市,34.408241,133.190262,0848-23-9171,0848-23-9172,722-0031,尾道市三軒家町17-14,月・火・水・金9:00-18:00 木8:30:16:30      土8:30-12:30,有,0848-23-9171(時間外転送),
アプコセンタ-薬局,342050,広島県,尾道市,34.410458,133.203156,0848-20-7293,0848-20-7294,722-0034,尾道市十四日元町3-5,平日9:00-18:30 木9:00-17:00 土9:00-13:00 日祝休み,有,0848-20-7293,
アプコ中央薬局,342050,広島県,尾道市,34.407818,133.201584,0848-20-1693,0848-20-1694,722-0035,尾道市土堂2-6-18,月~水・金9:00~18:30 木9:00~17:00        土9:00~17:30 日祝休み,有,0848-20-1693,
ファ-マシィ薬局尾道,342050,広島県,尾道市,34.40263,133.189438,0848-23-8343,0848-23-2015,722-0037,尾道市西御所町6-27,月火水金土9:00-18:30 木9:00-17:00 日祝休み,有,0848-23-8343,
尾道中央薬局西御所店,342050,広島県,尾道市,34.403118,133.188858,0848-36-6350,0848-36-6351,722-0037,尾道市西御所町8-11,月、火、水、金9:00-18:00 木9:00-17:00 土9:00-13:00,有,0848-36-6350,
クル-ズ薬局天満町店,342050,広島県,尾道市,34.406662,133.187302,0848-21-1161,0848-21-1171,722-0038,尾道市天満町16-14-7,平日9:00-18:00 土9:00-13:00 日祝休み,有,080-2935-0057,
おひさま薬局,342050,広島県,尾道市,34.424183,133.212891,0848-55-8112,0848-55-8115,722-0055,尾道市新高山3-1170-214,月~金8:30~18:00土8:30~12:30,有,0848-55-8112,
ファ-マシィ薬局新高山,342050,広島県,尾道市,34.424183,133.212891,0848-56-0630,0848-56-0631,722-0055,尾道市新高山3-1170-247,平日9:00-17:30 土9:00-13:00 日祝休み,有,0848-56-0630,
ファ-マシィ薬局病院前,342050,広島県,尾道市,34.424183,133.212891,0848-56-0560,0848-56-0561,722-0055,尾道市新高山三丁目1170-109,平日8:30-18:00 土9:00-13:00,有,080-4457-9260,
あかり薬局,342050,広島県,尾道市,34.399548,133.205307,0848-36-6013,0848-36-6014,722-0073,尾道市向島町542-18,月火水金8:30-18:00 木8:30-12:00 土8:30-17:00日祝休み,有,070-4448-1441,
津部田薬局,342050,広島県,尾道市,34.383034,133.194656,0848-45-1112,0848-45-1112,722-0073,尾道市向島町14763-3,月・火・木・金9:00-18:00 水9:00-17:00       土9:00-12:30 日祝休み,有,090-6846-9207,
富浜薬局,342050,広島県,尾道市,34.393593,133.189117,0848-36-5617,0848-36-5619,722-0073,尾道市向島町5617-50,平日9:00-18:00  水8:00-16:00 土9:00-12:30  日祝休み,無,,
ファ-マシィ薬局あすなろ,342050,広島県,尾道市,34.50288,133.150589,0848-76-3530,0848-76-3531,722-0311,尾道市御調町市106,平日8:30-17:30  土8:30-12:30  日祝休み,有,0848-76-3530,
市薬局,342050,広島県,尾道市,34.515659,133.14917,0848-76-3490,0848-76-3491,722-0311,尾道市御調町市100,平日8:30-17:30  土9:00-11:00,有,0848-76-3490,
エスマイル薬局こうげん店,344621,広島県,世羅郡世羅町,34.608017,133.019257,0847-22-3363,0847-22-3373,722-1111,世羅郡世羅町寺町1557-2,月9:00~18:00/火9:00~18:00/水9:00~13:00/木9:00~18:00/金9:00~18:00/土9:00~13:00,無,,
あやめ薬局せら店,344621,広島県,世羅郡世羅町,34.586456,133.044754,0847-22-5999,0847-22-5998,722-1112,世羅郡世羅町本郷940-2,平日9:00-18:00  土日祝 休み,無,,
エンゼル薬局世羅店,344621,広島県,世羅郡世羅町,34.586456,133.044754,0847-25-5161,0847-25-5162,722-1112,世羅郡世羅町本郷942-5,9:00~18:00,無,,
ファ-マシィ薬局せら,344621,広島県,世羅郡世羅町,34.591553,133.046158,0847-25-0221,0847-25-0221,722-1112,世羅郡世羅町本郷822-13,月火水金8:00-18:00  木土8:00-17:00,有,0847-25-0221,
のぞみ薬局,342050,広島県,尾道市,34.317425,133.147217,0845-23-7211,0845-23-7212,722-2102,尾道市因島重井町5232-4,平日9:00-18:00 木8:00-16:00 土9:00-12:30,有,080-8230-6168,
因島調剤薬局,342050,広島県,尾道市,34.339642,133.142105,0845-25-1257,0845-25-1730,722-2102,尾道市因島重井町6616-3,月火水金8:30-18:00 木8:00-16:00 土8:30-12:00 日祝休,有,0845-25-1257,
因島市薬剤師センタ-薬局,342050,広島県,尾道市,34.313053,133.152863,0845-24-2856,0845-24-4288,722-2211,尾道市因島中庄町2430-4,平日8:30-18:30 土8:30-13:30 日祝9:00-17:00,有,0845-24-2856,
宇和部薬局,342050,広島県,尾道市,34.291183,133.176178,0845-22-8548,0845-22-8548,722-2323,尾道市因島土生町1684-7,平日9:00-18:00 土9:00-12:30 日祝休み,有,080-1937-4780,
病院前薬局,342050,広島県,尾道市,34.283264,133.17981,0845-26-0333,0845-26-0332,722-2323,尾道市因島土生町2100-11,平日9:00-18:30   土9:00-13:00   日祝 休み,有,携帯に転送,
平木調剤薬局,342050,広島県,尾道市,34.283897,133.180817,0845-22-8576,0845-22-8576,722-2323,尾道市因島土生町2147-1,平日9:00-18:00 土9:00-12:30 日祝 休み,有,070-7081-1592,
田熊本町調剤薬局,342050,広島県,尾道市,34.296101,133.165787,0845-22-8070,0845-22-8747,722-2324,尾道市因島田熊町1141-1,月~水・金9:00-18:00 木8:00-16:00 土9:00-12:30     日祝 休み,有,090-7890-5713,
瀬戸田調剤薬局,342050,広島県,尾道市,34.30497,133.087738,0845-27-3668,0845-27-3718,722-2411,尾道市瀬戸田町瀬戸田313-1,月~水・金 9:00-18:00 木 8:00-16:00  土 9:00-12:00    日祝 休み,有,090-4806-1455,
なかの薬局,342050,広島県,尾道市,34.292183,133.097778,0845-26-4117,0845-26-4115,722-2415,尾道市瀬戸田町中野402-1,平日9:00-18:00  土9:00-13:00  日祝休み,有,0845-26-4117,
アイン薬局福山内海店,342076,広島県,福山市,34.357784,133.314316,084-986-2750,084-986-2751,722-2632,福山市内海町ロ351-1,月~水・金8:30-18:30  木8:30-16:30  土8:30-12:30     日祝休み,有,084-986-2750,
三原薬剤師会センタ-薬局日赤前店,342041,広島県,三原市,34.402699,133.089096,0848-81-0577,0848-81-0578,723-0011,三原市東町2-8-2,月~金8:30~17:30第1・3土8:30~13:30日・祝日8:30~17:00第2・4・5土休み,無,,
ときわ薬局海光,342041,広島県,三原市,34.396854,133.08316,0848-62-7158,0848-62-7156,723-0014,三原市城町3丁目5-6,月火水金土9:00-17:30 木9:00-17:00 日祝休み,有,080-8240-7009,
なの花薬局セトピア店,342041,広島県,三原市,34.398067,133.084412,0848-64-5965,0848-64-5967,723-0014,三原市城町1-13-5,月~金9:00~18:00土9:00~13:00日・祝休み,無,,
なの花薬局城町店,342041,広島県,三原市,34.400093,133.085892,0848-67-6481,0848-36-6626,723-0014,三原市城町2-2-22,月~水・金9:00~18:00木8:30~16:30土9:00~17:00,有,0848-67-6481,
関西薬局三原駅前店,342041,広島県,三原市,34.399567,133.083435,0848-67-5445,0848-67-5446,723-0014,三原市城町1-8-7,月・火・木・金9:00~19:00、水9:00~17:00土9:00~14:00,有,0848-67-5445,
ウォンツアクロスプラザ三原薬局,342041,広島県,三原市,34.395924,133.078979,0848-38-9763,0848-38-9773,723-0015,三原市円一町1-1-2-2,月~金8:30~13:00、14:00~18:30 土8:30~13:00,無,,
モリオ薬局,342041,広島県,三原市,34.3937,133.078232,0848-61-1193,0848-61-1193,723-0015,三原市円一町1-1-7(フジグラン三原内),平日8:45-17:30 土8:45-13:00  日祝 休み,有,0848-61-1193,
ときわ薬局,342041,広島県,三原市,34.400162,133.081497,0848-62-2953,0848-62-2199,723-0017,三原市港町1-2-27,月~土8:30~19:30日・祝日9:00~13:00,有,0848-62-2953,
みのり薬局港町,342041,広島県,三原市,34.399368,133.080505,0848-81-2311,0848-62-1311,723-0017,三原市港町1丁目3-15,平日9:00-19:00  木曜日9:00-13:00 日祝休,有,080-8095-1955,
なの花薬局宮浦店,342041,広島県,三原市,34.394714,133.060852,0848-29-8000,0848-36-5118,723-0051,三原市宮浦5-16-10,月~水・金9:00~18:00木8:30~16:30土9:00~13:00,有,0848-29-8000,
みのり薬局,342041,広島県,三原市,34.394672,133.064468,0848-60-1322,0848-60-1321,723-0051,三原市宮浦6丁目3番2号,平日9:00-18:00  木9:00-13:00  土9:00-17:00          日祝 休み,無,,
三原薬剤師会センタ-薬局,342041,広島県,三原市,34.399815,133.064163,0848-64-8079,0848-64-2220,723-0051,三原市宮浦1-20-36,月~金8:30~17:30 土8:30~13:00 日・祝休み,無,,
ザグザグ薬局三原皆実店,342041,広島県,三原市,34.391525,133.068024,0848-81-2217,0848-81-2217,723-0052,三原市皆実4-19-16,月曜日~土曜日9:30-18:30,有,070-2249-5382,
クル-ズ薬局頼兼店,342041,広島県,三原市,34.400131,133.060532,0848-61-5322,0848-61-5323,723-0054,三原市頼兼1-1-4,平日9:00-18:00  土9:00-13:00  日祝休み,有,080-2939-9130,
なの花薬局本町えびす店,342041,広島県,三原市,34.400948,133.077194,0848-60-1318,0848-36-5313,723-0062,三原市本町1-9-9,月・火・水・金9:00~18:00木9:00~17:00土9:00~13:00日・祝休み,有,0848-60-1318,
なのはな薬局,342041,広島県,三原市,34.387077,133.020508,0848-60-9210,0848-66-5900,723-0145,三原市沼田東町片島224-6,平日8:00~18:30 土8:00~13:00,有,0848-60-9210,
アルファ薬局,342033,広島県,竹原市,34.348072,132.884247,0846-22-7611,0846-22-7622,725-0012,竹原市下野町1771-1,月曜~土曜日(祝祭日除く)8:45~17:30,有,0846-22-7611(転送電話),
エンゼル薬局,342033,広島県,竹原市,34.348072,132.884247,0846-22-7575,0846-22-6778,725-0012,竹原市下野町3143-6,月、火、水、金、土9:00-18:30 木9:00-13:00 日祝休み,有,0846-22-7575,
ばら薬局,342033,広島県,竹原市,34.337971,132.897064,0846-24-6066,0846-24-6067,725-0021,竹原市竹原町3644,月火木金9:00-18:00 水土9:00-12:30    日祝:休み,有,0846-24-6066,
あすなろ薬局,342033,広島県,竹原市,34.343353,132.910934,0846-24-6133,0846-24-6132,725-0026,竹原市中央2丁目14-8,月火水金9:00-18:00木土9:00-12:00日祝休み,無,,
竹原中央薬局,342033,広島県,竹原市,34.344116,132.909348,0846-22-8550,0846-22-8091,725-0026,竹原市中央3-16-54,月~水・金8:30-18:30 木・土8:30-17:30 日祝休み,有,080-4261-8550,
セブン薬局大崎店,344311,広島県,豊田郡大崎上島町,34.245743,132.883835,0846-67-5070,0846-67-5060,725-0301,豊田郡大崎上島町中野4102-1,平日8:30-17:30  土8:30-12:30  日祝休み,有,080-8001-1700,
中央薬局,342084,広島県,府中市,34.569576,133.248001,0847-40-0360,0847-40-0365,726-0002,府中市鵜飼町555-33,月~金:8:30~18:30、土:9:00~13:00,有,0847-40-0360(転送),
共創未来府中薬局,342084,広島県,府中市,34.569576,133.248001,0847-40-0214,0847-46-0063,726-0002,府中市鵜飼町555-12,月~金8:30~19:00土8:30~9:30,無,,
中央薬局府川店,342084,広島県,府中市,34.569004,133.238235,0847-44-0606,0847-44-0607,726-0004,府中市府川町172,平日9:00-18:30 木9:00-17:00 土|9:00-13:00 日祝休み,有,0847-44-0606,
さくらんぼ薬局府中店,342084,広島県,府中市,34.575096,133.229706,0847-54-2810,0847-54-2815,726-0005,府中市府中町746,平日9:00-18:00  木土9:00-13:00  日祝 休,有,0847-54-2810,
サン・メディカル薬局 永井店,342084,広島県,府中市,34.57296,133.234451,0847-40-1231,0847-40-1232,726-0005,府中市府中町14-29,月・火・金・土 9:00-18:30 水・木 9:00-18:00       日 9:00-12:00 祝 休み,有,080-1910-2949,
サン・メディカル薬局 新市店,342084,広島県,府中市,34.557926,133.268036,0847-52-7128,0847-52-7129,726-0012,府中市中須町10-1,平日9:00-18:00  土9:00-12:30 日祝 休み,有,090-8712-2129,
ステ-ション薬局,342084,広島県,府中市,34.557377,133.260544,0847-40-3663,0847-40-3665,726-0012,府中市中須町27-3,平日9:00-13:0015:-19:00土曜日9:00-13:00 14:-17:00    日曜日9:00-12:00 祝日休み,有,080-3871-5137,
ももたろう薬局府中店,342084,広島県,府中市,34.56078,133.255524,0847-46-1688,0847-46-1687,726-0012,府中市中須町1695-3,平日8:30-18:00  木8:30-16:30  土8:30-13:00      日祝 休み,有,080-3871-5136,
アイン薬局備後府中高木店,342084,広島県,府中市,34.565071,133.246582,0847-45-8788,0847-49-6733,726-0013,府中市高木町189-4,平日9:00-18:30木9:00-17:00土9:00-14:00 日祝休み,有,0847-45-8788,
さくらんぼ薬局高木店,342084,広島県,府中市,34.562286,133.250198,0847-44-6668,0847-44-9200,726-0013,府中市高木町654,月・火・木・金9:00~18:00水・土9:00~13:00日・祝日休み,無,,
にこぴん薬局高木店,342084,広島県,府中市,34.563866,133.243423,0847-40-0310,0847-40-0311,726-0013,府中市高木町407-6,月~水、金土9:00-18:30、木9:00-17:00,有,080-8989-3520,
エスマイル薬局あおぞら店,342106,広島県,庄原市,34.856411,133.009842,0824-75-0102,0824-75-0103,727-0013,庄原市西本町2-15-32,平日9:00-18:00 木土9:00-12:45 日祝 休み,有,0824-75-0102,
庄原センタ-薬局,342106,広島県,庄原市,34.838688,133.016479,0824-75-0116,0824-75-0156,727-0014,庄原市板橋町164-1,月、火、水、金8:30-18:00  木8:30-19:00  土8:30-12:30,有,070-4357-7089,
たかの薬局,342106,広島県,庄原市,35.054745,132.93309,0824-86-7720,0824-86-7740,727-0402,庄原市高野町新市1150-1,月火水金9: 00-18: 00 木土9: 00-13 : 00  日祝休み,無,,
ともえ薬局,342092,広島県,三次市,34.805256,132.84996,0824-65-1677,0824-65-1688,728-0012,三次市十日市中二丁目10-23,"月・火・水・金曜日 8:30~18:00,木曜日8:30~16:30,土曜日8;30~13:00",有,0824-65-1677,
十日市薬局,342092,広島県,三次市,34.807598,132.853012,0824-64-2857,0824-64-2838,728-0012,三次市十日市中3-11-20,月~水・金 9:00~18:00 木・土 9:00~13:00 日・祝休み,有,090-9734-9144,
中本薬局プラザ店,342092,広島県,三次市,34.804272,132.850677,082-463-8040,0824-62-6480,728-0012,三次市十日市中1-2-2,月~土9:00~19:00日9:00~18:00,有,080-1912-3323,
アイン薬局三次十日市店,342092,広島県,三次市,34.803978,132.860428,0824-65-0404,0824-62-5671,728-0013,三次市十日市東4-1-30,月火木金9:30-18:30 土第1・2・4祝9:30-18:00       水第3・5日曜休み,有,0824-65-0404,
三次スマイル薬局,342092,広島県,三次市,34.804268,132.860245,0824-65-6701,0824-65-6707,728-0013,三次市十日市東4-5-5,平日9:00~19:00 土9:00-17:00 日祝 休み,有,0824-65-6701,
ウォンツ三次東薬局,342092,広島県,三次市,34.805241,132.87558,0824-65-1077,0824-65-1088,728-0017,三次市南畑敷町330-1,月~金9:00~18:00土9:00~12:30,無,,
ぶどう薬局,342092,広島県,三次市,34.812965,132.84697,0824-65-0111,0824-65-0196,728-0021,三次市三次町1545,平日9:00-18:15 木・土9:00-13:00 日祝休み,有,0824-65-0111,
杉田薬局,342092,広島県,三次市,34.817204,132.84584,0824-62-2893,0824-62-3912,728-0021,三次市三次町1086-1,平日8:30-18:00  土8:30-14:00  日祝休み,有,090-8603-8028,
ファ-マシィ局三次センタ-,342092,広島県,三次市,34.774929,132.866745,0824-64-6088,0824-64-6089,728-0023,三次市東酒屋町586-5,月~金 9時-18時 土 9時~11時 日祝休み,有,0824-64-6088,
ファ-マシィ薬局健美,342092,広島県,三次市,34.774929,132.866745,0824-64-7770,0824-64-7771,728-0023,三次市東酒屋町587-1,平日9:00-18:00  土9:00-13:00  日祝休み,有,0824-64-7770,
ふの薬局,342092,広島県,三次市,34.902149,132.782059,0824-54-7331,0824-54-7332,728-0201,三次市布野町上布野1491-2,月・水8:30~17:10火・金8:30~18:10木8:30~16:30土8:30~12:30,有,0824-54-7331(転送),
ウォンツ福山松永薬局,342076,広島県,福山市,34.445107,133.253342,084-930-6031,084-930-6032,729-0104,福山市松永町3-21-27-3,月~金9:00~13:00、14:30~17:45,無,,
サン・メディカル薬局松永店,342076,広島県,福山市,34.451691,133.259613,084-930-4313,084-930-4315,729-0104,福山市松永町342-9,月~金8:30~18:30土8:30~13:30,有,090-2863-1559,
ファ-マシィ薬局松永ファミ-ル,342076,広島県,福山市,34.450256,133.258331,084-934-7560,084-934-7560,729-0104,福山市松永町4-1-4駅前ロ-タリ-マンション1F,平日8:30-17:30 土8:30-17:30 日祝休み,有,084-934-7560,
ゆうゆう薬局,342076,広島県,福山市,34.446053,133.260086,084-930-0653,084-930-0654,729-0104,福山市松永町5-9-14,月9:00~18:00/火9:00~18:00/水9:00~18:00/木9:00~18:00/金9:00~18:00/土9:00~13:00,有,084-930-0653,
松永エル薬局,342076,広島県,福山市,34.45282,133.260345,084-934-7767,084-934-7768,729-0104,広島県福山市松永町350-13,月、火、木、金8:30-13:00  15:00-18:30  水8:30-17:00    土8:30-13:00  日祝休み,無,,
葦陽高西薬局,342076,広島県,福山市,34.447105,133.239899,084-933-2115,084-933-2115,729-0106,福山市高西町1-7-29,月・火・木・金9:00~18:05水8:30~16:30土9:00~13:05日祝休み,有,090-7509-0786,
ザクザク薬局松永店,342076,広島県,福山市,34.451889,133.255157,084-930-4233,084-930-4233,729-0111,福山市今津町3-8-60,月~土9:00-19:00 日祝休み,無,,
ファ-マシィ薬局今津,342076,広島県,福山市,34.451454,133.25618,084-933-5683,084-933-5683,729-0111,福山市今津町2-2-10,月火水金9:00~18:00木9:00~17:00土9:00~13:00,有,090-6432-4208,
ファ-マシィ薬局みのり,342076,広島県,福山市,34.450726,133.254883,084-933-6341,084-933-6341,729-0111,広島県福山市今津町2-3-9,月火水金9:00-18:00 水9:00-17:00 土9:00-13:00     ,有,084-933-6341,
アプコ松永薬局,342076,広島県,福山市,34.442112,133.261551,084-930-0193,084-930-0194,729-0114,福山市柳津町1-2-29,月9:00~18:00/火9:00~18:00/水9:00~17:00/木9:00~18:00/金9:00~18:00/土9:00~12:30,無,,
アプコ高須薬局,342050,広島県,尾道市,34.434052,133.235153,0848-47-6293,0848-47-6393,729-0141,尾道市高須町4774-1,月、火、水、金9:00-18:00 木9:00-17:00        土9:00-13:00 日祝休み,有,090-4650-7807,
アプコ東尾道薬局,342050,広島県,尾道市,34.430046,133.233765,0848-56-1593,0848-56-1693,729-0141,尾道市高須町5738,月9:00~18:00/火9:00~18:00/水9:00~18:00/木9:00~17:00/金9:00~18:00/土9:00~17:00/備考:木曜日の午後は臨時休業になることあり,有,0848-56-1593,
ありす薬局東尾道店,342050,広島県,尾道市,34.437702,133.235886,0848-55-3150,0848-55-3151,729-0141,尾道市高須町4754-5,平日9:00-18:00 土12:00-18:00 日祝休み,有,080-6240-7454,
ザグザグ薬局尾道高須店,342050,広島県,尾道市,34.432381,133.229874,0848-56-1339,0848-56-1339,729-0141,尾道市高須町5280,平日・土 9:30-18:30  日祝休み,有,070-2008-1199,
白金薬局,342050,広島県,尾道市,34.426769,133.226547,0848-47-2921,0848-47-2922,729-0141,尾道市高須町1382-1,月-水、金8:30-18:30   木7:30-15:30   土8:30-12:30    日祝休み,有,080-3870-8697,
タウン薬局本郷店,342041,広島県,三原市,34.406902,132.974167,0848-86-1093,0848-86-1090,729-0414,三原市下北方1-7-25,月火水金土9:00-18:30 木曜日9:00-17:00 日祝 :休,無,,
幸崎調剤薬局,342041,広島県,三原市,34.336067,133.034576,0848-69-3377,0848-69-3377,729-2252,三原市幸崎能地4-10-22,月~水・金9:00~18:00木9:00~17:00土9:00~12:30 日祝休み,有,080-1937-4209,
黒滝薬局,342033,広島県,竹原市,34.336594,132.990036,0846-26-3180,0846-26-3180,729-2316,竹原市忠海中町2-1-16,平日8:00-18:00 木7:00-18:00土8:00-12:00日祝休み,有,0846-26-3180,
マルシン薬局,342076,広島県,福山市,34.555016,133.270187,0847-52-5122,0847-52-5136,729-3103,福山市新市町新市616,9:00~19:00,有,0847-52-5122,
あやめ薬局沖見店,342084,広島県,府中市,34.698513,133.123383,0847-62-5700,0847-62-5701,729-3431,府中市上下町上下2097-1,平日9:00-18:00 土9:00-12:00,無,,
日本調剤 上下薬局,342084,広島県,府中市,34.696022,133.120651,0847-62-8855,0847-62-8801,729-3431,府中市上下町上下970-3,平日9:00-18:00 土日祝休み,有,080-1272-5236,
ファ-マシィ薬局こうぬ,342092,広島県,三次市,34.704971,133.088028,0847-67-5515,0847-67-5516,729-4101,三次市甲奴町本郷636-11,月~金8:30-17:30 土10:00~12:00 ,有,0847-67-5515,
三上薬局駅前店,342106,広島県,庄原市,34.900784,133.273529,08477-2-1093,08477-2-1793,729-5121,庄原市東城町川東165-16,平日9:00-18:00 土9:00-13:00 日祝休み,有,080-6329-8085,
三上薬局産業道路店,342106,広島県,庄原市,34.897751,133.274567,08477-2-1717,08477-2-5757,729-5121,庄原市東城町川東1454-4,平日9:00~18:00 土9:00~13:00 日祝休み,有,080-6329-8107,
ひろみ薬局大手町店,,,,34.38623,132.454163,082-258-5125,082-258-5126,730?0051,広島市中区大手町3-13-6,月火水金9:00-18:30 木8:30-16:30  土9:00-12:00    日祝 休み,有,082-258-5125,郵便番号
めいぷる薬局,341010,広島県,広島市中区,34.408554,132.462067,082-221-7120,082-962-7194,730-0001,広島市中区白島北町17-1,平日9時から19時 土9時から13時 水8時から16時 日祝休み,有,080-5237-7962,
コスモス薬局,,,,34.397507,132.463776,082-223-5288,082-223-3219,730-0013,広島県広島市中区八丁堀1-12,平日8:30-18:30 土8:30-18:00 日祝休み,有,082-223-7139,郵便番号
白島みつば薬局,341010,広島県,広島市中区,34.408466,132.465652,082-511-0606,082-511-0505,730-0002,広島市中区白島中町12-23,平日(木以外)9:00-18:00 木9:00-12:30 土9:00-15:30      日祝休み,有,082-511-0606,
キララ薬局白島店,341010,広島県,広島市中区,34.405842,132.465912,082-502-4722,082-502-4733,730-0004,広島市中区東白島町8-19 中津井ビル1F,月・水9:00~18:00火・木・金・土9:00~17:00,有,,
オ-ル薬局白島店,341010,広島県,広島市中区,34.405933,132.459213,082-212-0065,082-212-0185,730-0005,広島市中区西白島町20-15,月火木金9:00-18:00水9:00-17:00土9:00-13:00日祝休み,有,052-212-0065,
ウォンツ地下街シャレオ薬局,341010,広島県,広島市中区,34.401096,132.456512,082-545-6577,082-545-6588,730-0011,広島市中区基町地下街105,月~金9:00~19:00土・日・祝休み,無,,
エスマイル薬局県庁駅前店,341010,広島県,広島市中区,34.396343,132.459366,082-511-7061,082-511-7062,730-0011,広島県広島市中区基町10-90,平日9:00-18:00,無,,
広栄薬局基町店,341010,広島県,広島市中区,34.398083,132.461426,082-212-3901,082-212-3902,730-0011,広島市中区基町1-19,平日9:00-18:00 土9:00-13:00 日祝休み,有,082-212-3901,
コスモス薬局グランドタワ-店,341010,広島県,広島市中区,34.399822,132.46521,082-212-0025,082-212-0026,730-0012,広島市中区上八丁堀4-1,平日9:00-18:00  土9:00-13:00  日祝休み,有,082-212-0025,
ウォンツ八丁堀電停前薬局,341010,広島県,広島市中区,34.394455,132.463379,082-212-1517,082-212-1527,730-0013,広島市中区八丁堀14-10,月~金9:00~14:00、15:00~18:00土9:00~14:00,無,,
ウォンツ薬局白島通り店,341010,広島県,広島市中区,34.395233,132.463791,082-511-1113,082-511-1114,730-0013,広島市中区八丁堀12-4-1F,月~金8:00~18:30土8:00~17:00,無,,
オ-ル薬局八丁堀店,341010,広島県,広島市中区,34.39455,132.463577,082-222-6433,082-222-6434,730-0013,広島市中区八丁堀14-7-1階,平日9:00-18:30 土9:00-15:00 日祝 休み,有,082-222-6433,
ウォンツ八丁堀薬局,341010,広島県,広島市中区,34.395134,132.462662,082-512-0017,082-512-0018,730-0013,広島市中区八丁堀11-8,月~土9:00~19:00,無,,
コスモス薬局京口門店,341010,広島県,広島市中区,34.395309,132.463211,082-212-1595,082-212-1596,730-0013,広島市中区八丁堀12-10,平日9:00-18:30  土9:00-16:00  日祝休み,有,082-223-7139,
タケダ薬局,341010,広島県,広島市中区,34.394897,132.462204,082-227-4620,082-222-9401,730-0013,広島県広島市中区八丁堀11-15,平日9:00-18:00  土9:00-13:00  日祝休み,有,070-1872-7551,
アスト薬局,341010,広島県,広島市中区,34.384304,132.465485,082-248-3434,082-248-3438,730-0015,広島市中区鶴見町14-2,月~金8:30~18:00土8:30~13:00,有,082-248-3434,
マザ-薬局幟町店,341010,広島県,広島市中区,34.393883,132.46669,082-221-1192,082-221-1195,730-0016,広島市中区幟町10-11,平日8:50-18:00 木土8:50-13:00 日祝休み,有,090-9696-1622,
幟町とまと薬局,341010,広島県,広島市中区,34.394577,132.465698,082-212-4011,082-212-4022,730-0016,広島市中区幟町12-1,月、火、水、金 9:00~18:00 木 9:00~13:00 土 9:00~13:00 日祝 休み,有,080-2924-6679,
ウォンツ薬局鉄砲町店,341010,広島県,広島市中区,34.394138,132.464706,082-511-0756,082-511-0755,730-0017,広島市中区鉄砲町9-10,月・火・木・金9:00~13:00、14:00~18:30 土9:00~13:00、14:00~18:00日9:00~13:00,無,,
ウォンツ薬局八丁堀交差点前,341010,広島県,広島市中区,34.393852,132.463943,082-502-6067,082-502-6068,730-0017,広島市中区鉄砲町10-13,月・火・木・金8:30~19:00土8:30~18:00水8:30~12:30日・祝・第2・4水休み,無,,
コスモス八丁堀薬局,341010,広島県,広島市中区,34.394211,132.463791,082-227-1289,082-227-1538,730-0017,広島市中区鉄砲町10-18,平日9:00-19:00 土9:00-18:00  日祝 休み,有,082-223-7139,
コスモス薬局胡町店,341010,広島県,広島市中区,34.393127,132.465805,082-504-8222,082-504-8228,730-0021,広島市中区胡町4-28,月-水、金9:00-18:30 木、土9:00-18:00 日祝 休み,無,,
ここから薬局三川町店,341010,広島県,広島市中区,34.390705,132.462738,082-545-0030,082-545-0062,730-0029,広島市中区三川町1-20,平日9:00-18:00 木9:00-17:00 土9:00-15:00,有,080-3360-9723,
マザ-薬局三川町店,341010,広島県,広島市中区,34.390251,132.462265,082-544-1414,082-544-1415,730-0029,広島県広島市中区三川町2-8,月火水金9:00-18:00  木8:30-16:30 土9:00-13:00     日祝 休み,無,,
アイン薬局広島駅北口店,341029,広島県,広島市東区,34.398518,132.478363,082-568-0008,082-568-0025,732-0053,広島県広島市東区若草町11-1-102,平日9:00-18:00  土9:00-17:00 日祝休み,無,,
コスモス薬局紙屋町西店,341010,広島県,広島市中区,34.394276,132.456039,082-546-0026,082-546-0027,730-0031,広島市中区紙屋町2-2-25,月、火、水、金9:00-18:30 木、土9:00-18:00,有,082-223-7139,
コスモス薬局紙屋町店,341010,広島県,広島市中区,34.39431,132.457108,082-240-3100,082-240-3101,730-0031,広島市中区紙屋町2-2-6,月・火・木・金9:00~19:00水9:00~18:30土9:00~18:00日・祝11:00~18:00、年末年始休み,無,082-223-7139,
コスモス薬局紙屋町東店,341010,広島県,広島市中区,34.394653,132.459457,082-543-2555,082-543-2556,730-0031,広島市中区紙屋町1-1-17,平日8:30-18:30 土8:30-18:00 日祝休み,有,082-223-7139,
すずらん薬局紙屋町ビル店,341010,広島県,広島市中区,34.394661,132.457245,082-545-5017,082-545-5014,730-0031,広島市中区紙屋町2-2-2,月・火・木・金9:00~19:00水9:00~18:30土9:00~18:00,有,082-545-5017,
康仁薬局ソシオ紙屋町店,341010,広島県,広島市中区,34.393833,132.456146,082-258-5425,082-258-5426,730-0031,広島市中区紙屋町2-3-20,月火木金9:00~19:00  水9:00~18:30 土9:00~18:00,無,,
立町薬局,341010,広島県,広島市中区,34.393677,132.460968,082-545-7767,082-545-8582,730-0032,広島市中区立町4-2,月火木金9:00~18:30水土9:00~13:00,有,090-6418-0046,
アプコ調剤薬局,341010,広島県,広島市中区,34.391644,132.461502,082-249-0093,082-249-7417,730-0034,広島市中区新天地4-6,平日9:00-18:00 土9:00-13:00 日祝 休み,有,082-249-0093,
すずらん薬局,341010,広島県,広島市中区,34.391853,132.458145,082-244-6467,082-244-6468,730-0036,広島市中区袋町4-6,月~土8:30~18:00             ,有,082-244-6467,
すずらん薬局本店,341010,広島県,広島市中区,34.39233,132.458298,082-545-4711,082-545-4710,730-0036,広島市中区袋町4-1,月~土9:00~18:00日・祝休み,有,082-545-4711,
ウォンツ平和大通り薬局,341010,広島県,広島市中区,34.389908,132.457153,082-545-5157,082-545-5158,730-0037,広島市中区中町7-16,10:00~19(20):00,無,,
デポ薬局,341010,広島県,広島市中区,34.386417,132.460663,082-542-6864,082-243-2243,730-0043,広島市中区富士見町12-15,平日9:00-19:00 土9:00-17:00 日祝休み,有,082-542-6864,
フジミ薬局,341010,広島県,広島市中区,34.387245,132.460663,082-246-4650,082-246-4655,730-0043,広島市中区富士見町5-5,平日9:00-18:00 土9:00-13:00  日祝休み,有,082-246-4650,
イオン薬局イオンスタイル広島府中,343021,広島県,安芸郡府中町,34.394566,132.499527,082-561-0230,082-561-0231,735-0021,安芸郡府中町大須2-1-1,9:00~21:00,無,,
レモン薬局,341010,広島県,広島市中区,34.391159,132.461716,082-245-4500,082-245-4505,730-0045,広島市中区新天地5-12-1F,月~金8:50~18:00土8:50~13:00,無,,
すずらん薬局竹屋町店,341010,広島県,広島市中区,34.382587,132.462296,082-241-2207,082-241-2208,730-0048,広島市中区竹屋町8-8 1F,平日9:00-18:00 土9:00-13:00 日祝休み,有,082-241-2207,
アスト薬局大手町店,341010,広島県,広島市中区,34.387619,132.454041,082-544-0123,082-544-0124,730-0051,広島市中区大手町3丁目6-12-1-F,平日9:00-18:00 土9:00-13:00 日祝休み,有,082-544-0123,
アプコUnity薬局大手町,341010,広島県,広島市中区,34.395672,132.455185,082-207-1193,082-207-1293,730-0051,広島市中区大手町1-1-20,月火木金9:00-18:00 水9:00-13:00 土9:00-15:00,無,,
コスモス薬局たかの橋店,341010,広島県,広島市中区,34.38456,132.451599,082-504-7377,082-504-7388,730-0051,広島市中区大手町5-2-15高田ビル1F,月・木9:00~19:30火・金・土9:00~18:30,無,,
コスモス薬局鯉城通り店,341010,広島県,広島市中区,34.392403,132.456451,082-545-5005,082-545-5006,730-0051,広島市中区大手町2-7-2 7階A号室,月・火・水・金9:00~18:30木10:00~18:00土9:00~14:00,有,082-223-7139,
コスモス薬局大手町店,341010,広島県,広島市中区,34.392944,132.456635,082-544-0303,082-544-0909,730-0051,広島市中区大手町2-1-4,月火金8:30-18:00 水土8:30-17:30 木9:00-18:00,有,082-223-7139,
サン薬局大手町店,341010,広島県,広島市中区,34.386997,132.45459,082-546-0055,082-546-0222,730-0051,広島市中区大手町3-8-5エイトバレ-大手町4F,8:40~18:40,有,082-546-0055,
すずらん薬局 大手町店,341010,広島県,広島市中区,34.39455,132.45462,082-543-6671,082-543-6672,730-0051,広島市中区大手町一丁目5-22,月~土 8:30~18:00,有,082-543-6671,
大手町スマイル薬局,341010,広島県,広島市中区,34.386837,132.453613,082-545-3432,082-545-3478,730-0051,広島市中区大手町3-13-33,月-金9:00-17:30土曜日9:00-13:00,有,082-545-3432,
ウォンツ薬局日赤病院前店,341010,広島県,広島市中区,34.381561,132.454361,082-543-2901,082-543-2900,730-0052,広島市中区千田町1-7-10,8:30~17:30土・日・祝休み,無,,
ウォンツ薬局日赤病院前2号店,341010,広島県,広島市中区,34.381168,132.453491,082-504-8870,082-504-8887,730-0052,広島市中区千田町1-5-6,月~8:30~17:30土・日・祝休み,無,,
イオン薬局広島祇園店,341053,広島県,広島市安佐南区,34.443783,132.461578,082-832-3105,082-832-3104,731-0138,広島市安佐南区祇園三丁目2番1号 イオン広島祇園店1階,年中無休 9:00-21:00,有,070-5014-6155,
ひらもと薬局千田店,341010,広島県,広島市中区,34.379757,132.455994,082-236-1559,082-236-9952,730-0052,広島市中区千田町2-1-29,月火水金9:00-18:00  木土9:00-17:00 日祝休み,有,082-236-1559,
森薬盛堂薬局,341010,広島県,広島市中区,34.375843,132.459045,082-241-1747,082-247-3979,730-0052,広島市中区千田町3-11-3,9:00~17:00,有,082-241-1474,
あいおい橋薬局,341010,広島県,広島市中区,34.396622,132.450882,082-294-9339,082-294-9359,730-0802,広島市中区本川町1丁目1-26,月火水金9:00-18:30 木土9:00-17:00 日祝  休み,有,090-7975-5584,
十日市みかん薬局,341010,広島県,広島市中区,34.398472,132.44722,082-292-1098,082-292-3877,730-0806,広島市中区西十日市町1-5-201,月火水金9:00-18:00 木9:00-17:00 土9:00-13:00 日祝休み,有,080-2924-6687,
アイプラス 薬局水主店,341010,広島県,広島市中区,34.372723,132.448227,082-244-0101,082-236-8112,730-0822,広島市中区吉島東1-27-20 1階,月-水・金8:30-19 :00   木8 :30-16 :30         土8 :30-12 :30  日祝休み,無,,
すずらん薬局吉島店,341010,広島県,広島市中区,34.376579,132.44957,082-241-6246,082-241-6248,730-0822,広島市中区吉島東1-4-17,月曜日~金曜日: 9:00~18:00    土曜日: 9:00~13:00,有,082-241-6246,
ウォンツ吉島薬局,341010,広島県,広島市中区,34.373093,132.445419,082-546-0655,082-546-0688,730-0823,広島市中区吉島西2-15-12,月~金9:00~18:00土・日・祝休み,無,,
コスモス薬局吉島店,341010,広島県,広島市中区,34.368397,132.451721,082-247-1169,082-247-1170,730-0824,広島市中区吉島新町1-4-1,月~金8:30~17:30第1・3土8:30~12:30           ,無,,
コスモス薬局光南店,341010,広島県,広島市中区,34.367153,132.447327,085-545-2525,082-545-2526,730-0825,広島市中区光南1-11-11,月火水金8:45-18:00 土8:45-12:30 木8:45-16:45 日祝休,有,082-223-7139,
鞍掛薬局,341010,広島県,広島市中区,34.367329,132.446136,082-247-5840,082-247-5855,730-0825,広島市中区光南1-16-21,月~水・金8:45~18:15 木8:00~16:00土8:45~12:45日・祝休み,有,090-8244-8415,
光南薬局,341010,広島県,広島市中区,34.366512,132.448059,082-249-0656,082-249-0670,730-0825,広島市中区光南1-13-11,10:00~18:30,有,082-249-0656,
江波二本松薬局,341010,広島県,広島市中区,34.368607,132.433167,082-961-3324,082-961-3324,730-0834,広島市中区江波二本松1丁目2-22,月火水金9時-18 時木9時-17時土9時-16時日祝休み,有,080-2902-1159,
エスマイル薬局舟入店,341010,広島県,広島市中区,34.386093,132.444138,082-292-1302,082-234-3228,730-0842,広島市中区舟入中町11-9,平日9:00-18:00土9:00-13:00日祝休み,有,082-292-1302,
わかば薬局,341010,広島県,広島市中区,34.386711,132.443176,082-295-8181,082-295-8181,730-0842,広島市中区舟入中町8-6,月火水金9:00-18:15  木9:00-17:00  土9:00-13:00 日祝休み,無,,
ウォンツ舟入市民病院前薬局,341010,広島県,広島市中区,34.386547,132.440186,082-503-6632,082-503-6633,730-0843,広島市中区舟入本町8-1,月~金9:00~18:00土・日・祝休み,無,,
すずらん薬局舟入本町店,341010,広島県,広島市中区,34.386318,132.440903,082-294-6281,082-291-1832,730-0843,広島市中区舟入本町7-16,月9:00~18:00/火9:00~18:00/水9:00~18:00/木9:00~18:00/金9:00~18:00/土9:00~13:00,有,082-294-6281,
オ-ル薬局舟入店,341010,広島県,広島市中区,34.383209,132.445099,082-232-5522,082-232-5525,730-0844,広島市中区舟入幸町4-2,月火木金9:00-18:00 水9:00-17:00 土9:00-13:00,有,082-232-5522,
なかがわ薬局舟入店,341010,広島県,広島市中区,34.382458,132.441589,082-275-6712,082-275-6713,730-0845,広島市中区舟入川口町4-16,月火水金9:00-18:30 木土9:00-13:00 日祝休み,無,,
すずらん薬局舟入店,341010,広島県,広島市中区,34.376842,132.441574,082-532-4193,082-296-3300,730-0847,広島市中区舟入南4-1-63,平日9:00-18:00 土9:00-1800 日祝日休み,有,082-532-4193,
舟入南薬局,341010,広島県,広島市中区,34.375786,132.438217,082-292-7050,082-292-7055,730-0847,広島市中区舟入南4丁目16-8,月火木金9:00-18:15 水曜日9:00-17:00           土曜日9:00-13:15 日祝 休み,有,070-3852-4612,
濱崎漢方薬局,341010,広島県,広島市中区,34.374508,132.43718,082-294-8776,082-294-8392,730-0847,広島市中区舟入南5-6-12,月火水金8:30-18:00 木8:30-16:30 土8:30-13:00 日祝休み,有,090-7123-4077,
ベル薬局,341010,広島県,広島市中区,34.397701,132.444672,082-299-6102,082-299-6019,730-0851,広島市中区榎町3-30,平日9:00-18:00 土曜日9:00-17:00 日祝休み,有,082-299-6102,
エスマイル薬局ひので店,341010,広島県,広島市中区,34.395439,132.449326,082-297-5222,082-297-5223,730-0852,広島市中区猫屋町1-17,8:30~18:00,無,,
らいおん薬局,341010,広島県,広島市中区,34.395416,132.449417,082-942-5705,082-942-5706,730-0852,広島市中区猫屋町1-18,平日8:30-18:00 土8:30-12:30 日祝休み,有,090-9509-1860,
オ-ル薬局堺町店,341010,広島県,広島市中区,34.39447,132.447845,082-231-2321,082-231-2322,730-0853,広島市中区堺町1-3-10-1F,月火水金9:00-18:30 木9:00-17:00 土9:00-14:00 日祝休み,有,082-231-2321,
河原町薬局,341010,広島県,広島市中区,34.389431,132.445938,082-292-3033,082-292-3033,730-0856,広島市中区河原町11-19,平日9:00-18:00 木8:30-16:30 土9:00-12:30 日祝休み,有,082-292-3033,
コスモ薬局,,,,34.676746,132.71936,0826-47-1030,0826-47-1031,731?0501,安芸高田市吉田町吉田3627,平日8:30-18:00 日祝休み,無,,郵便番号
ウォンツ八木城南薬局,341053,広島県,広島市安佐南区,34.475941,132.490204,082-873-6770,082-873-6771,731-0101,広島市安佐南区八木1-28-9,月~金9:00~19:00土9:00~17:30日・祝休み,無,,
かえで薬局,341053,広島県,広島市安佐南区,34.482948,132.497375,082-873-3036,082-873-3036,731-0101,広島市安佐南区八木4-6-7,月火水金9:00-18:30  木土9:00-12:30  日祝 休み,無,,
すずらん薬局川内店,341053,広島県,広島市安佐南区,34.458569,132.485046,082-831-2800,082-831-2811,731-0102,広島市安佐南区川内1-15-3,平日9時-18時 土9時-13時 日祝休み,無,,
パ-ル薬局川内店,341053,広島県,広島市安佐南区,34.464127,132.486877,082-962-5153,082-962-5153,731-0102,広島市安佐南区川内4丁目15-20,平日8:20-18:30  土8:20-13:00  日祝 休み,無,,
ミント薬局せせらぎ店,341053,広島県,広島市安佐南区,34.469883,132.484207,082-831-5505,082-831-5575,731-0102,広島市安佐南区川内5丁目14-24-101,9:00~18:00 (木曜日 9:00~17:00・土曜日 9:00~13:30) 定休日 日・祝祭日,有,082-831-5505(時間外は転送),
ミント薬局川内店,341053,広島県,広島市安佐南区,34.468121,132.483414,082-830-0909,082-830-0910,731-0102,広島県広島市安佐南区川内5丁目31-10,平日・土9:00-18:30  水9:00-17:00  日祝 休み,有,082-830-0909,
エスマイル薬局緑井店,341053,広島県,広島市安佐南区,34.46632,132.476212,082-831-8244,082-831-8245,731-0103,広島市安佐南区緑井1丁目5-1-202,月~水金土9:00~19:00木9:00~17:00 日祝休み,有,082-831-8244,
クル-ズ薬局緑井店,341053,広島県,広島市安佐南区,34.467216,132.476822,082-831-0112,082-831-0113,731-0103,広島市安佐南区緑井5-29-18,平日9:00-18:30、土9:00-18:00、日祝日休み,無,,
ここから薬局緑井店,341053,広島県,広島市安佐南区,34.472572,132.482224,082-831-1102,082-831-1103,731-0103,広島市安佐南区緑井6-27-12,平日9:00-18:00 木9:00-17:00 土9:00-13:00 日祝 休み,有,090-1680-9723,
パ-ル薬局佐東店,341053,広島県,広島市安佐南区,34.469791,132.479218,082-870-3799,082-870-3799,731-0103,広島市安佐南区緑井5丁目8-10,平日9:00-18:00  木土9:00-13:00  日祝休み,無,,
パ-ル薬局緑井店,341053,広島県,広島市安佐南区,34.467762,132.474136,082-831-7760,082-831-7760,731-0103,広島市安佐南区緑井4-24-7,月・火・水・金8:45~18:00、木8:00~16:00土8:45~12:00,有,080-3887-5952,
ひがしの三丁目薬局,341053,広島県,広島市安佐南区,34.45401,132.481598,082-207-4538,082-207-4539,731-0111,広島市安佐南区東野3-7-24,平日8:30-18:30  木・土8:30-13:00  日祝休み ,有,080-7730-0938,
さんくす薬局東原店,341053,広島県,広島市安佐南区,34.443966,132.479889,082-850-0530,082-850-0560,731-0112,広島市安佐南区東原1-1-2,平日土8:45-18:00  日祝休み,有,080-8980-1411,
ウエルシア薬局広島可部南店,341061,広島県,広島市安佐北区,34.507221,132.514496,082-819-2023,082-819-2024,731-0223,広島市安佐北区可部南5-9-17,平日9:00-19:00 土曜日9:00-18:00,無,,
ぎおんの加藤薬局,341053,広島県,広島市安佐南区,34.437943,132.467712,082-881-0686,082-871-6627,731-0113,広島市安佐南区西原4丁目10-14,月火水金8:30-18:00 木8:00-16:00 土8:30-13:00,有,082-881-0686(転送),
ぶどう薬局,341053,広島県,広島市安佐南区,34.443123,132.474442,082-874-8788,082-874-8766,731-0113,広島市安佐南区西原8丁目33-3,平日土8:45-18:00 日祝休み,有,082-874-8788,
まえだ薬局西原店,341053,広島県,広島市安佐南区,34.432827,132.462555,082-850-0731,082-850-0730,731-0113,広島市安佐南区西原1丁目25-39-4,月火水金9:00-18:30 木9:00-17:00 土9:00-13:00 日祝休み,有,080-1940-0269,
ミント薬局西原店,341053,広島県,広島市安佐南区,34.445824,132.474167,082-874-5454,082-874-5544,731-0113,広島市安佐南区西原8-1-15-201,月火木金土9:00-18:30 水9:00-17:00 日祝休み,無,,
蔵本薬局,341053,広島県,広島市安佐南区,34.442822,132.470642,082-962-1003,082-962-1004,731-0113,広島市安佐南区西原8-28-7,平日9:00-17:30 土:9:00-13:00 日祝休み,有,082-962-1003,
ウォンツ中須薬局,341053,広島県,広島市安佐南区,34.459488,132.473587,082-831-2715,082-831-2725,731-0121,広島市安佐南区中須1-7-7,9:00~13:30、14:30~18:00日・祝休み,無,,
ドレミ薬局,341053,広島県,広島市安佐南区,34.460735,132.475281,082-830-5222,082-876-5711,731-0121,広島市安佐南区中須2丁目20-40,月・火・水・金 9:00~18:00木 9:00~20:00第1・3・5土 9:00~13:00第2・4土 9:00~12:00,有,082-830-5222,
ナカス薬局,341053,広島県,広島市安佐南区,34.456337,132.470871,082-870-5045,082-870-5045,731-0121,広島市安佐南区中須1丁目16-5,月火水金土9:00-18:00 木9:00-17:00日祝休み,有,080-3887-5938,
パ-ル薬局 中筋店,341053,広島県,広島市安佐南区,34.455223,132.47934,082-830-0577,082-870-3078,731-0122,広島市安佐南区中筋4-13-15,平日8:30-18:00 木・土8:30-12:30 日祝 休み,無,,
マザ-薬局 中筋店,341053,広島県,広島市安佐南区,34.450958,132.477722,082-870-6236,082-299-1131,731-0122,広島市安佐南区中筋2-5-20,月-水.金8:30-18:00 木8:00-16:00 土8:30-13:00,有,080-2879-3342,
中筋アトム薬局,341053,広島県,広島市安佐南区,34.4533,132.477158,082-830-5625,082-830-5626,731-0122,広島市安佐南区中筋1-3-11,月火水金:8:30-18:30 木:8:30-16:30 土:8:30-13:00 日祝休み,有,090-7998-9595,
加藤古市薬局,341053,広島県,広島市安佐南区,34.452221,132.470413,082-879-3360,082-879-3381,731-0123,広島市安佐南区古市2-18-12,平日9:00-18:00 土9:00-13:30 日祝 休み,有,090-9069-4531,
コスモス薬局大町店,341053,広島県,広島市安佐南区,34.462288,132.469208,082-870-5840,082-836-5801,731-0124,広島市安佐南区大町東2-7-25,平日8:30-18:00 土曜日8:30-12:30,有,082-223-7139,
康仁薬局大町店,341053,広島県,広島市安佐南区,34.456902,132.467514,082-870-0022,082-870-0066,731-0124,広島市安佐南区大町東1-8-25,月火水金9:00-18:30  木土9:00-13:00  日祝 休み,有,080-2939-9129,
び-だま薬局,341053,広島県,広島市安佐南区,34.459637,132.466354,082-870-6422,082-573-0588,731-0125,広島市安佐南区大町西1-1-11,月~水・金8:30~18:00木8:30~16:30土8:30~13:00,有,082-870-6422,
ふじい薬局調剤,341053,広島県,広島市安佐南区,34.430897,132.462524,082-874-0777,082-874-0777,731-0135,広島市安佐南区長束1-2-22,平日9:00-18:15水8:00-16:00土9:00-12:30日祝休み,有,080-8244-8699,
安芸長束駅前薬局,341053,広島県,広島市安佐南区,34.42889,132.456116,082-225-7497,082-225-7498,731-0135,広島市安佐南区長束4-1-11,月火水金9:00-18:00  木9:00-17:00  土9:00-13:00,無,,
オ-ル薬局山本店,341053,広島県,広島市安佐南区,34.436565,132.453461,082-875-0008,082-875-0010,731-0137,広島市安佐南区山本1丁目11-10,平日8時30分-18時30分 土8時30分-13時00分 日祝休み,有,082-875-0008,
パ-ル薬局山本店,341053,広島県,広島市安佐南区,34.439442,132.45575,082-962-5211,082-962-5211,731-0137,広島市安佐南区山本3丁目1-15,月火水金 8:30~18:00  木 8:30~16:30         土 8:30~12:30,無,,
ワイズ薬局,341053,広島県,広島市安佐南区,34.436474,132.450485,082-871-7500,082-871-7510,731-0137,広島市安佐南区山本4-26-23,月~水・金9:00~18:30 木9:00~16:30土9:00~13:00,有,090-9412-5406,
ウエルシア薬局広島西原店,341053,広島県,広島市安佐南区,34.441849,132.471924,082-832-3277,082-832-3278,731-0113,広島市安佐南区西原8-38-29,平日9:00-14:00 15:00-19:00  土9:00-14:00 15:00-19:00  日祝休み,無,,
ウォンツ祇園薬局,341053,広島県,広島市安佐南区,34.441658,132.459259,082-850-2677,082-850-2678,731-0138,広島市安佐南区祇園3-15-21,9:00~19:00水・土9:00~13:00,無,,
ぎおん中央薬局,341053,広島県,広島市安佐南区,34.444557,132.46817,082-871-7775,082-871-6665,731-0138,広島市安佐南区祇園2-12-27,月~水・金9:00~18:30 木9:00~17:00土9:00~13:30,有,080-1633-7775,
ぎおん薬局,341053,広島県,広島市安佐南区,34.438896,132.4655,082-875-1245,082-874-6559,731-0138,広島市安佐南区祇園2-42-13,月・火・水・金9:00~18:00木9:00~17:00土9:00~13:00,有,090-5707-7515,
クル-ズ薬局祇園店,341053,広島県,広島市安佐南区,34.447208,132.46048,082-850-1220,082-850-1221,731-0138,広島市安佐南区祇園5丁目2番45,月~土:9:00~18:00 日祝休み,有,080-2939-9129,
ミント薬局下祇園店,341053,広島県,広島市安佐南区,34.441803,132.461639,082-962-0900,082-962-0910,731-0138,広島市安佐南区祇園3丁目7-2-1階,月~水.金、土8:45~18:15木8:45~16:45日祝休み,有,082-962-0900,
祇園プラス薬局,341053,広島県,広島市安佐南区,34.439007,132.460556,082-225-7158,082-225-7168,731-0138,広島市安佐南区祇園3丁目12-12-1,月火水金8:30-1800 木8:30-16:30 土8:30-12:30 日祝休,有,090-3177-1474,
林薬局上祇園店,341053,広島県,広島市安佐南区,34.442467,132.465622,082-850-2203,082-850-2055,731-0138,広島市安佐南区祇園2-22-24,平日9:00-18:00  土9:00-13:00  日祝 休み,有,090-4899-9450,
ウォンツ相田薬局,341053,広島県,広島市安佐南区,34.470104,132.456909,082-832-7721,082-832-7723,731-0141,広島市安佐南区相田1-3-18,月・火・水・金8:30~19:00木・土8:30~17:00日・祝休み,有,082-832-7721,
エリア薬局,341053,広島県,広島市安佐南区,34.473053,132.452087,082-962-3771,082-962-3771,731-0141,広島市安佐南区相田2-4-8,月火水金8:30-18:00 木8:30-16:30 土8:30-12:00   日祝 休み,無,,
そうごう薬局安川通り店,341053,広島県,広島市安佐南区,34.471569,132.455017,082-832-8311,082-832-8312,731-0141,広島市安佐南区相田1-14-4,月火水金8:30-18:00木8:30-16:30土8:30-13:00,有,082-832-8311,
パ-ル薬局 相田店,341053,広島県,広島市安佐南区,34.472862,132.449081,082-836-4581,082-836-4581,731-0141,広島市安佐南区相田2丁目5-18-201,月・火・木・金 8:30~18:00水 8:30~16:30土 8:30~12:30,無,090-4578-9668,
相田薬局,341053,広島県,広島市安佐南区,34.471062,132.455673,082-878-2525,082-830-3077,731-0141,広島県広島市安佐南区相田1-10-15,月-土 9:00-18:30,有,082-878-2525,
エスマイル薬局長楽寺店,341053,広島県,広島市安佐南区,34.469658,132.427368,082-832-6441,082-832-6442,731-0143,広島市安佐南区長楽寺2-13-30,月火水金8:30-18:30 木8:30-16:30 土8:30-12:30 日祝休み,有,082-832-6441,
さくらんぼ薬局長楽寺店,341053,広島県,広島市安佐南区,34.47197,132.43074,082-225-8205,082-225-8206,731-0143,広島市安佐南区長楽寺1-15-3,月火水金9:00-18:30木9:00-17:00土9:00-12:30 日祝休み,無,,
レデイ薬局長楽寺店,341053,広島県,広島市安佐南区,34.471111,132.431946,082-836-3007,082-832-7140,731-0143,広島市安佐南区長楽寺1-3-16,9:00~13:00、14:00~18:00木・日・祝休み,無,,
タウン薬局高取店,341053,広島県,広島市安佐南区,34.474838,132.437469,082-878-0100,082-878-1600,731-0144,広島市安佐南区高取北1-4-25,月・火・水・木・金9:00-18:30 土9:00-17:00 日祝:休,有,080-2901-4849,
毘沙門台薬局,341053,広島県,広島市安佐南区,34.477451,132.461807,082-879-3993,082-879-0020,731-0152,広島市安佐南区毘沙門台2-42-26,月-水、金 9:00-13:00 15:00-19:00  木、土9:00-13:00,無,,
タウン薬局安東店,341053,広島県,広島市安佐南区,34.475452,132.452835,082-872-5511,082-872-8700,731-0153,広島市安佐南区安東2丁目10-2,平日9:00-18:30  土9:00-12:30  日祝 休み,有,080-2901-4851,
パ-ル薬局,341053,広島県,広島市安佐南区,34.4734,132.455521,082-872-8553,082-872-8553,731-0153,広島市安佐南区安東2丁目3-17-103,月火水金9時-18時 木9時-17時 土9時-12時 日祝休み,無,,
アロ-薬局安店,341053,広島県,広島市安佐南区,34.472763,132.446518,082-872-5510,082-872-0606,731-0154,広島市安佐南区上安2-4-40,月・火・水・金9:00~18:30 木・土9:00~17:00     日・祝日 休み,無,,
すずらん薬局上安店,341053,広島県,広島市安佐南区,34.475956,132.443832,082-836-3790,082-836-3791,731-0154,広島市安佐南区上安2-29-11,月曜日~土曜日:9:00~18:00,有,082-836-3790,
パ-ル薬局安店,341053,広島県,広島市安佐南区,34.473885,132.45166,082-872-7000,082-872-7000,731-0154,広島市安佐南区上安1-1-10,月~水・金9:00~17:30木・土9:00~12:00日・祝・年末年始除く,無,,
ヒカリ薬局,341053,広島県,広島市安佐南区,34.482121,132.445557,082-872-8655,082-872-8655,731-0154,広島市安佐南区上安6-24-15,月火水金8:30-18:30 木8:30-16:30 土8:30-12:30 日祝休み,無,,
大林スマイル薬局,341061,広島県,広島市安佐北区,34.547379,132.535767,082-810-5082,082-810-5083,731-0201,広島市安佐北区大林1-21-34,月火金土8:30-18:00   水木8:00-16:00 日祝休み,無,,
コスモ薬局桐陽台店,341061,広島県,広島市安佐北区,34.534698,132.541702,082-516-5321,082-516-5323,731-0212,広島市安佐北区三入東1丁目30-23,平日9:00-18:00 土9:00-12:00,無,,
アレス薬局可部店,341061,広島県,広島市安佐北区,34.523518,132.50563,082-819-1133,082-819-1130,731-0221,広島市安佐北区可部6丁目3-24,月火水金8:30-13:00 14:00-18:00、木8:30-16:30、     土8:30-12:00,有,090-3744-1652,
オリタ薬局可部店,341061,広島県,広島市安佐北区,34.522011,132.5121,082-812-3070,082-812-3071,731-0221,広島市安佐北区可部7丁目6-2,月火水金8:45-18:15木土8:45-18:15日祝休み,有,080-6240-6119,
こうぜん薬局,341061,広島県,広島市安佐北区,34.517319,132.51059,082-815-1021,082-815-1041,731-0221,広島市安佐北区可部3丁目38-23,月-水金9:00-18:00 木土9:00-13:00 日祝休み,有,082-815-1021,
ドレミ薬局 可部店,341061,広島県,広島市安佐北区,34.513973,132.512604,082-815-7512,082-815-7517,731-0221,広島市安佐北区可部2丁目13-23,月・水~金 9:00~17:00火 9:00~18:30土 9:00~12:30,有,080-9795-0241,
のぞみ薬局本店,341061,広島県,広島市安佐北区,34.519665,132.509811,082-810-0270,082-815-7751,731-0221,広島市安佐北区可部5-14-19,月・火・水・金7:30~18:30木7:30~17:00土7:30~13:00,有,082-810-0270,
友愛薬局,341061,広島県,広島市安佐北区,34.521877,132.509079,082-814-6878,082-815-7242,731-0221,広島市安佐北区可部5-4-21,月・火・水・金8:00~18:00木8:00~16:00土8:00~13:00,有,090-8066-1668,
アイビ-薬局可部,341061,広島県,広島市安佐北区,34.50803,132.512177,082-819-2033,082-819-2034,731-0223,広島市安佐北区可部南4-9-15,月・火・水・金9:00~16:30木9:00~14:00,有,082-819-2033,
ウエルシア薬局東広島八本松飯田店,342122,広島県,東広島市,34.452393,132.703354,082-497-4565,082-497-4566,739-0146,東広島市八本松飯田6-14-17,平日9:00-14:00 15:00-19:00 土9:00-14:00 15:00-17:00 日祝休み,無,,
なかしま薬局,341061,広島県,広島市安佐北区,34.505863,132.513412,082-819-1681,082-819-1682,731-0223,広島県広島市安佐北区可部南4丁目17-10-101,"平日9:00-18:00  土9:00-13:00  第2,4週9:00-18:00    日祝 休み",有,082-819-1681,
のぞみ薬局可部南店,341061,広島県,広島市安佐北区,34.503242,132.517334,082-819-3325,082-819-3326,731-0223,広島市安佐北区可部南2-14-15,月火木金8:15-18:30 水8:15-17:00 土8:15-16:00 日祝休み,有,082-819-3325,
日本調剤安佐北薬局,341061,広島県,広島市安佐北区,34.50552,132.515121,082-819-3190,082-819-3191,731-0223,広島県広島市安佐北区可部南5-13-14,平日土9:00-18:00 日祝:休,有,090-6796-1191,
あおぞら薬局,341061,広島県,広島市安佐北区,34.525703,132.493744,082-815-1410,082-815-3061,731-0231,広島市安佐北区亀山7丁目1-3,月 火 水 金:08:30-18:00 木:08:30-16:30 土:08:30-12:30    日祝休み,有,090-7375-8686,
ウォンツ亀山薬局,341061,広島県,広島市安佐北区,34.524342,132.499069,082-819-3807,082-819-3817,731-0231,広島市安佐北区亀山3-3-19,9:00~18:00,無,,
ファ-マシィ薬局吉田中央,342149,広島県,安芸高田市,34.66531,132.701447,0826-47-0200,0826-47-0200,731-0501,安芸高田市吉田町吉田3782-8,平日8:30-17:30 土8:30-10:30 日祝休み,有,080-3534-6507,
キララ薬局吉田店,342149,広島県,安芸高田市,34.656631,132.690033,0826-47-1277,0826-47-1288,731-0521,安芸高田市吉田町常友288-1,月~水・金 9:00-18:00 木・土 9:00-12:30 日祝 休み,無,,
パ-ル薬局吉田店,342149,広島県,安芸高田市,34.655483,132.669373,0826-43-2666,0826-43-2666,731-0523,安芸高田市吉田町山手久保655-4,平日9:00-18:00 木土9:00-12:30 日祝第三土休み,有,080-3887-5951,
美土里コスモ薬局,342149,広島県,安芸高田市,34.715157,132.612549,0826-59-2755,0826-59-2766,731-0612,安芸高田市美土里町本郷1781-8,月火水金9:00-18:30  木土9:00-12:30  日祝 休み,無,,
鈴張薬局,341061,広島県,広島市安佐北区,34.592159,132.468567,082-835-2723,082-835-2731,731-1141,広島市安佐北区安佐町鈴張2012-1,月火水金9:00-18:30  木土9:00-12:30  日祝休み,有,082-835-2723,
ウォンツ千代田薬局,343692,広島県,山県郡北広島町,34.669559,132.528076,0826-73-0567,0826-73-0577,731-1533,山県郡北広島町有田609,平日9:30~18:15土9:30~13:15日祝:休み,無,,
エンゼル薬局,343692,広島県,山県郡北広島町,34.673969,132.539719,0826-72-6031,0826-72-6032,731-1533,山県郡北広島町有田1189,平日9:00-18:00    土9:00-13:00    日祝休,有,090-7125-0215,
ノムラ薬局大朝店,343692,広島県,山県郡北広島町,34.764633,132.497375,0826-82-3278,0826-82-3279,731-2103,山県郡北広島町新庄2048-1,平日9:00-18:00 土9:00-13:00 日祝 休み,有,0826-82-3278,
げいほく薬局,343692,広島県,山県郡北広島町,34.737438,132.234329,082-636-3030,0826-36-3030,731-2431,山県郡北広島町荒神原208-4,8:30~18:00,有,090-6844-3030,
オ-ル薬局沼田店,341053,広島県,広島市安佐南区,34.467609,132.418716,082-849-5567,082-849-5568,731-3164,広島市安佐南区伴東5丁目19-23,平日9:00-18:00 土9:00-13:00 日祝休み,有,082-849-5567,
くるみ薬局沼田店,341053,広島県,広島市安佐南区,34.463554,132.412827,082-848-7890,082-848-6622,731-3164,広島市安佐南区伴東7-59-1,"月火水金8:30-18:30,木8:30-18:00,土8:30-13:00,日祝休み",無,,
さんくす薬局沼田店,341053,広島県,広島市安佐南区,34.462154,132.410843,082-849-4660,082-849-4661,731-3164,広島市安佐南区伴東7-58-3,月火水金 9:00-18:30 木土9:00-13:00 日祝休み,有,082-849-4660,
ドレミ薬局 沼田店,341053,広島県,広島市安佐南区,34.463837,132.415207,082-849-5439,082-848-3254,731-3164,広島市安佐南区伴東7-38-11,月~水・金 9:00~17:30木 9:00~17:00第1・3・5土 9:00~13:00第2・4土 9:00~12:00,有,082-849-5439,
ウォンツ沼田伴薬局,341053,広島県,広島市安佐南区,34.463867,132.41214,082-209-3417,082-209-3418,731-3164,広島市安佐南区伴東7丁目61-1,月~金9:00~13:00、14:30~17:45土日祝:休,無,,
沼田スマイル薬局,341053,広島県,広島市安佐南区,34.457779,132.404861,082-555-8221,082-555-8217,731-3165,広島市安佐南区伴中央4-7-8,月火水金土9:00-18:00  木9:00-17:00日祝 休み,無,,
Aシティ薬局,341053,広島県,広島市安佐南区,34.44268,132.400894,082-848-8111,082-848-2377,731-3167,広島市安佐南区大塚西3丁目13-20,平日:9:00-18:30 水:9:00-17:00 土:9:00-12:30 日祝休み,有,090-4890-4148,
パ-クフロント薬局,341053,広島県,広島市安佐南区,34.434628,132.398712,082-849-5539,082-849-5541,731-3167,広島市安佐南区大塚西4-8-31,平日9:00-18:30  土9:00-12:30   日祝休み,無,,
ミック・めばえ薬局,341053,広島県,広島市安佐南区,34.446774,132.395309,082-849-4123,082-849-4123,731-3167,広島市安佐南区大塚西6丁目12番1号,平日9:00-18:00 土曜日9:00-18:00 日祝休み,無,,
ウォンツフレスポ西風新都薬局,341053,広島県,広島市安佐南区,34.446041,132.378571,082-849-6307,082-849-6317,731-3168,広島市安佐南区伴南4-1-1,月~水・金9:00~13:00、14:00~18:30土9:00~13:00、14:00~16:00,無,,
クル-ズ薬局西風新都店,341053,広島県,広島市安佐南区,34.44812,132.380737,082-849-6505,082-849-6506,731-3168,広島市安佐南区伴南1丁目5-18-8,月-水・金8:30-19:00  木・土8:30-18:00  日祝休み,有,080-8984-0319,
つくし薬局,343684,広島県,山県郡安芸太田町,34.609978,132.322021,0826-25-0120,0826-25-0121,731-3501,山県郡安芸太田町加計3485-11,月火水金8:30-17:30 土8:30-12:00 木日祝休み,無,,
クオ-ル薬局安芸太田店,343684,広島県,山県郡安芸太田町,34.586849,132.292282,0826-25-0089,0826-25-0090,731-3622,山県郡安芸太田町下殿河内236-3,平日8:30-17:30  土8:30-13:00  日祝休み,無,,
殿賀薬局,343684,広島県,山県郡安芸太田町,34.586849,132.292282,0826-22-2131,0826-22-2341,731-3622,山県郡安芸太田町下殿河内710-5,平日8:30-17:00 土8:30-13:00 日祝休み,有,090-2350-9474,
さふらん薬局,343072,広島県,安芸郡熊野町,34.338764,132.588455,082-854-5634,082-854-5668,731-4213,安芸郡熊野町萩原2-2-9,月・火・水・金8:30-18:00 木8:30-16:30       土8:30-12:30,有,082-223-7139,
康仁薬局熊野店,343072,広島県,安芸郡熊野町,34.332016,132.574844,082-820-5170,082-820-5171,731-4221,安芸郡熊野町出来庭3丁目3-24,月火木金:9:00~18:00水土:9:00~12:30,有,090-9466-3530,
ももたろう薬局熊野店,343072,広島県,安芸郡熊野町,34.323872,132.574875,082-824-7301,082-824-7302,731-4223,安芸郡熊野町川角3-4-10,9:00~17:00,有,080-1940-4169,
有限会社貴船薬局,343072,広島県,安芸郡熊野町,34.328701,132.568771,082-854-7127,082-854-4421,731-4227,安芸郡熊野町貴船18-15,月~水・金9:00~18:30木・土9:00~12:30日・祝休み,無,,
中央薬局坂店,343099,広島県,安芸郡坂町,34.341667,132.515167,082-884-0727,082-884-0728,731-4312,安芸郡坂町平成ヶ浜1-8-40,月火木金8:30-18:00 水土8:30-13:00,無,,
あおぞら薬局坂駅前店,343099,広島県,安芸郡坂町,34.339138,132.512421,082-885-8170,082-885-8171,731-4314,安芸郡坂町坂西1-3-21,月火水金9-00-18-00木9-00-1700土9-00-13-00,無,,
かなえ薬局ヒロシマ,341088,広島県,広島市佐伯区,34.400696,132.365295,082-533-6808,082-533-6808,731-5106,広島市佐伯区利松3-6-29,平日8-20 土曜日8:30-17:00,有,090-2704-2798,
ウォンツ八幡西薬局,341088,広島県,広島市佐伯区,34.386101,132.363663,082-927-0337,082-927-0338,731-5115,広島市佐伯区八幡東3-19-8,月・火・木・金9:00~18:30水・土9:00~13:30日祝休み,無,,
サンケイ薬局八幡店,341088,広島県,広島市佐伯区,34.3843,132.360458,082-927-8866,082-927-8867,731-5115,広島市佐伯区八幡東2-28-5,平日9:00-19:00  土9:00-13:00  日祝休み,無,,
ひまわり薬局佐伯店,341088,広島県,広島市佐伯区,34.387749,132.364609,082-926-4771,082-929-1157,731-5115,広島市佐伯区八幡東3-11-28,月~木9:00-17:00金9:00-19:15土9:00-12:45日祝休み,有,080-1912-8181,
康仁薬局八幡東店,341088,広島県,広島市佐伯区,34.384113,132.361938,082-929-1100,082-929-1101,731-5115,広島市佐伯区八幡東3-28-17,月-土:9:00-19:00  日祝 休み,有,080-3870-1624,
サンリ薬局,341088,広島県,広島市佐伯区,34.386978,132.357681,082-926-4530,082-926-4533,731-5116,広島市佐伯区八幡1丁目22-10,月~水、金土9:00-18:30 木9:00-12:30 日祝休,有,080-9799-8705,
ハ-ト薬局八幡店,341088,広島県,広島市佐伯区,34.391033,132.356293,082-926-4554,082-926-4553,731-5116,広島県広島市佐伯区八幡2-6-18,月~水・金8:30-18:00 木8:30-16:30 土8:30-12:30     日祝休み,有,070-5526-5188,
セピア薬局,341088,広島県,広島市佐伯区,34.375298,132.367737,082-923-2045,082-923-1960,731-5124,広島市佐伯区皆賀2-2-31,月・水・金・土9:00~19:00火9:00~18:00木・日・祝休み,有,080-8247-3829,
オ-ル薬局五日市店,341088,広島県,広島市佐伯区,34.367748,132.367996,082-924-5733,082-924-5738,731-5125,広島県広島市佐伯区五日市駅前1丁目5-18,月、火、木、金8:30-18:00 水8:30-17:00 土8:30-14:00,有,082-924-5733,
薬局ドラッグスソウ北口店,341088,広島県,広島市佐伯区,34.369915,132.366547,082-925-5050,082-925-5051,731-5125,広島市佐伯区五日市駅前3-4-15-1,月~金9:00~18:30土9:00~13:30,有,070-5522-9958,
純薬(株)新宮アゼリア薬局,341088,広島県,広島市佐伯区,34.370556,132.360916,082-573-8165,082-573-8165,731-5126,広島県広島市佐伯区新宮苑11-21,平日8:40-18:30 土8:40-13:30 日祝 休み,無,,
オ-ル薬局五日市西店,341088,広島県,広島市佐伯区,34.366234,132.36084,082-943-7717,082-943-7718,731-5127,広島市佐伯区五日市1丁目14-27-102,月火木金土:9:00-18:00、水:9:00-17:30 日祝休み,有,082-943-7717,
五日市豊見薬局,341088,広島県,広島市佐伯区,34.370232,132.357315,082-924-3838,082-924-5913,731-5127,広島市佐伯区五日市4-4-31,月~水・金・土9:00~18:00木8:30~16:30,有,090-4807-1215,
さんくす薬局五日市中央店,341088,広島県,広島市佐伯区,34.375256,132.353455,082-943-8484,082-943-6722,731-5128,広島市佐伯区五日市中央5-11-21 1F,月、火、水、金9:00-18:00  木9:00-17:00  土9:00-13:00     日祝休み,有,080-8239-9099,
そうごう薬局五日市中央店,341088,広島県,広島市佐伯区,34.370667,132.351028,082-943-5031,082-943-5032,731-5128,広島市佐伯区五日市中央3-8-14,月火木金9:00-18:00 水9:00-17:00 土9:00-13:00 日祝休み,有,082-943-5031,
薬局ドラッグスソウフレスタ波出石店,341088,広島県,広島市佐伯区,34.382999,132.355896,082-924-5068,082-924-5069,731-5128,広島市佐伯区五日市中央7-16-26,月・水・金9:00~18:30火・木9:00~17:00土9:00~13:00,有,070-5522-9958,
豊見薬局,341088,広島県,広島市佐伯区,34.365643,132.366257,082-921-0049,082-921-6093,731-5133,広島市佐伯区旭園2-22,月・火・水・金9:00~18:30木9:00~18:00土9:00~16:00,有,082-921-0049,
薬局ドラッグスソウ,341088,広島県,広島市佐伯区,34.365795,132.367386,082-921-7865,082-921-7987,731-5133,広島県広島市佐伯区旭園4-29,平日9:00-18:30 土9:00-14:00 日祝休み,有,070-5522-9958,
薬局ドラッグスソウ南口店,341088,広島県,広島市佐伯区,34.365944,132.368011,082-924-8120,082-924-8130,731-5133,広島市佐伯区旭園4-35,月・火・木・金8:30~18:00水8:30~16:30土8:30~12:30,有,070-5522-9958,
アポロ薬局,341088,広島県,広島市佐伯区,34.364269,132.361893,082-921-5171,082-921-8381,731-5135,広島市佐伯区海老園2-11-1,月~金9:00~18:30土9:00~13:30,有,090-9460-1124,
オレンジ薬局,341088,広島県,広島市佐伯区,34.36401,132.359451,082-943-7860,082-943-7861,731-5135,広島市佐伯区海老園1-5-44,月火木金9:00-18:00 水土9:00-12:00 日祝休み,有,082-943-7860,
南海老園豊見薬局,341088,広島県,広島市佐伯区,34.362331,132.357422,082-943-5325,082-943-5326,731-5135,広島市佐伯区海老園1-8-25,月・火・木・金9:00~19:00水9:00~17:00土9:00~13:00,有,082-943-5325,
アポロ薬局,341088,広島県,広島市佐伯区,34.364269,132.361893,	082-	921-	5171,	082-	921-	8381,731-5135,広島市佐伯区海老園2-11-1スカイハイツB棟,月-金 9:00-18:30 土 9:00-13:30,有,,
オ-ル薬局楽々園店,341088,広島県,広島市佐伯区,34.3638,132.357117,082-921-0075,082-921-0076,731-5136,広島市佐伯区楽々園3-1-8,平日8:30-18:00  木、土8:30-17:00  日祝休み,有,082-921-0075,
ファインしみず薬局,341088,広島県,広島市佐伯区,34.36393,132.352036,082-299-1193,082-299-1137,731-5136,広島市佐伯区楽々園2-2-2,平日9:00-18:00 土9:00-13:00 日祝休み,有,082-299-1193,
ライフしみず薬局,341088,広島県,広島市佐伯区,34.363392,132.35199,082-208-1193,082-208-1194,731-5136,広島市佐伯区楽々園4-5-2,平日9:00-18:00   土9:00-12:00  日・祝日は休み,有,082-208-1193,
楽々園しみず薬局,341088,広島県,広島市佐伯区,34.363792,132.350845,082-924-4193,082-924-1193,731-5136,広島市佐伯区楽々園2-2-13,平日:8:30-18:30 土:8:30-12:30 日祝:休み,有,080-6263-4193,
康仁薬局 楽々園店,341088,広島県,広島市佐伯区,34.361267,132.352005,082-943-5501,082-943-5502,731-5136,広島市佐伯区楽々園5-9-5,平日、土9:00-18:00   日祝休み,無,,
ミント薬局はでいし店,341088,広島県,広島市佐伯区,34.380444,132.35405,082-923-3100,082-923-3101,731-5141,広島市佐伯区千同2丁目1-35-1,月・火・木・金8:30~18:30  水・土8:30~12:30 日祝休み,無,,
すずらん薬局五日市観音店,341088,広島県,広島市佐伯区,34.377079,132.350891,082-943-5521,082-943-5572,731-5142,広島市佐伯区坪井1丁目21-44,月~水・金曜日:9:00~18:00    木曜日:9:00~17:00    土曜日:8:30~12:30,有,082-943-5521,
そうごう薬局倉重店,341088,広島県,広島市佐伯区,34.385773,132.34938,082-943-7381,082-943-7382,731-5156,広島市佐伯区倉重1-96-1,平日9:00-19:00 土9:00-15:00 日祝9:00-18:00,有,082-943-7381,
ウォンツ戸坂薬局,341029,広島県,広島市東区,34.436615,132.485748,082-516-1017,082-516-1027,732-0009,広島市東区戸坂千足2-7-20,9:00~13:30、14:30~18:00,無,,
仙境堂薬局戸坂店,341029,広島県,広島市東区,34.437416,132.484695,082-516-1191,082-516-1190,732-0009,広島市東区戸坂千足1-22-9,月・火・木・金9:00~18:00 水・土9:00~17:00,有,082-516-1191(転送),
ホ-ム薬局中山店,341029,広島県,広島市東区,34.410355,132.503906,082-516-7110,082-516-7120,732-0023,広島市東区中山東2-2-1-1,9:00~18:30,有,090-6432-6665,
中山セロリ薬局,341029,広島県,広島市東区,34.409779,132.505096,082-508-4002,082-508-4044,732-0023,広島市東区中山東2-2-33,月~水・金9:00-18:00 木9:00-17:00 土9:00-16:00 日祝休み,有,082-508-4002,
なのはな薬局,341029,広島県,広島市東区,34.453651,132.542236,082-899-6005,082-881-6161,732-0029,広島県広島市東区福田5丁目1168-3,月-水・金・土9:00-18:00 木8:00-16:00 日祝休み ,有,090-3745-6005,
ウォンツ下温品薬局,341029,広島県,広島市東区,34.414326,132.50856,082-289-0023,082-289-0014,732-0033,広島市東区温品7-11-34,月~金9:00~18:00土9:00~12:30日・祝休み,無,,
ハ-ト薬局温品店,341029,広島県,広島市東区,34.414818,132.509903,082-209-0566,082-209-0565,732-0033,広島市東区温品7-10-11-14,平日9:00-18:00 土9:00-13:00 日祝休み,無,,
温品キララ薬局,341029,広島県,広島市東区,34.413139,132.509323,082-824-8745,082-824-8746,732-0033,広島県広島市東区温品7丁目12-21,月火水金 9:00-18:00 木土 9:00-12:00 日・祝休み,有,080-4752-4680,
康仁薬局矢賀店,341029,広島県,広島市東区,34.399185,132.497345,082-890-0033,082-890-0034,732-0042,広島市東区矢賀2-8-17,平日9:00-18:00 土9:00-13:00 日祝休み,有,082-890-0033,
ベスト薬局府中店,341029,広島県,広島市東区,34.391998,132.498901,082-284-4643,082-284-4643,732-0044,広島市東区矢賀新町3-1-3,8:30~19:00,無,,
曙タカズミ薬局,341029,広島県,広島市東区,34.395775,132.488434,082-506-0035,082-506-0122,732-0045,広島市東区曙1丁目8-28,平日と土(木曜除く)9:00-18:00 木曜のみ9:00-17:00  日祝休み,有,080-6144-3348,
そうごう薬局尾長東店,341029,広島県,広島市東区,34.398121,132.488297,082-262-1861,082-262-1862,732-0046,広島市東区尾長東2-7-29,平日9:00-18:00 土9:00-13:00 日祝休み,有,082-262-1861,
ウォンツ薬局光町店,341029,広島県,広島市東区,34.400234,132.479248,082-568-5525,082-568-5400,732-0052,広島市東区光町2-7-17,月~金9:00~18:00土・日・祝休み,無,,
エスマイル薬局鉄道病院前店,341029,広島県,広島市東区,34.399952,132.478516,082-568-8066,082-568-8068,732-0052,広島市東区光町1丁目11-5,平日8:30-18:00  土日祝休み,有,082-568-8066,
クオ-ル薬局広島駅前通店,341037,広島県,広島市南区,34.390858,132.471634,082-568-2489,082-568-2490,732-0826,広島市南区松川町1-15ポエム松川1階,月・火・水・金9:00~18:00 木9:00~17:00土9:00~13:00日・祝休み,無,,
パンダ薬局,341029,広島県,広島市東区,34.397179,132.481216,082-568-0100,082-568-0500,732-0053,広島市東区若草町9-6-102,月・火・木・金8:30~18:00水・土8:30~13:00,有,082-568-0100,
若草薬局,341029,広島県,広島市東区,34.397781,132.483185,082-261-3360,082-261-6418,732-0053,広島市東区若草町5-3,月-水・金9:00-18:00 木9:00-17:00 土9:00-12:30    日祝 休み,無,,
会営二葉の里薬局,341029,広島県,広島市東区,34.401623,132.475418,082-567-6077,082-567-6088,732-0057,広島市東区二葉の里3-2-1,月~金9:00~18:00日9:00~15:00,有,082-567-6077,
みずの薬局牛田東店,341029,広島県,広島市東区,34.410328,132.478348,082-221-4826,082-221-4826,732-0063,広島市東区牛田東1-1-25,日9:00-18:00  土9:00-13:00  日祝 休み,有,050-5896-7991,
康仁薬局ほおずき通り店,341029,広島県,広島市東区,34.41185,132.471451,082-502-2211,082-502-2212,732-0066,広島県広島市東区牛田本町2-1-2-205B,月火木金9:00-18:00 土9:00-17:00 水日祝 休み,有,082-502-2211,
ノムラ薬局牛田旭店,341029,広島県,広島市東区,34.412621,132.469772,082-511-7833,082-511-7834,732-0067,広島市東区牛田旭1-13-12-101,月~水・金9:00~18:00木・土9:00~13:00,有,082-511-7833,
あおぞら薬局不動院前店,341029,広島県,広島市東区,34.42688,132.469818,082-502-1020,082-502-1021,732-0068,広島市東区牛田新町3丁目3-7,平日9:00-18:00 木9:00-17:00 土9:00-12:45 日祝休み,有,082-502-1020,
南蟹屋れもん薬局,341037,広島県,広島市南区,34.39011,132.484451,082-510-3400,082-510-3410,732-0803,広島県広島市南区南蟹屋1丁目3-35,月火水金9:00-18:00、木土9:00-12:30,有,082-510-3400,
かなえ薬局スタジアム前,341037,広島県,広島市南区,34.390808,132.48143,082-261-1066,082-261-1066,732-0804,広島市南区西蟹屋4-8-31,平日8:30-20:00 土8:30-17:00 日祝休み,無,,
えんこう橋薬局,341037,広島県,広島市南区,34.393673,132.476257,082-263-3320,082-263-3329,732-0806,広島市南区西荒神町1-35-1,平日9:00~18:00 土9:00~13:00,有,082-263-3320,
ライカ薬局,341037,広島県,広島市南区,34.390583,132.474808,082-261-2977,082-261-2988,732-0811,広島市南区段原1-3-12,平日9:00-18:30 土9:00-13:00 日祝休み,有,082-261-2977,
康仁薬局段原店,341037,広島県,広島市南区,34.385925,132.475906,082-506-3000,028-506-3009,732-0814,広島市南区段原南1-3-53,月~金9:00~19:00土9:00~18:00,有,090-1357-6148,
段原薬局,341037,広島県,広島市南区,34.385864,132.477432,082-261-5801,082-261-5801,732-0814,広島市南区段原南2-3-24,月火水金8:45-18:00  木:8:45-16:45 土8:45-13:00  日祝休み,有,080-8985-8078,
ト-タス薬局比治山店,341037,広島県,広島市南区,34.379612,132.471756,082-250-0250,082-250-0229,732-0816,広島市南区比治山本町11-18,平日9:00~18:00土9:00~13:00 日祝休み,有,090-5260-2344,
クル-ズ薬局段原店,341037,広島県,広島市南区,34.386356,132.480835,082-510-5100,082-510-5101,732-0818,広島県広島市南区段原日出1-15-21,平日9:00~18:00土9:00~13:00 日祝休み,有,080-2939-9128,
エンコ-薬局,341037,広島県,広島市南区,34.395535,132.47731,082-262-8044,082-264-0955,732-0822,広島市南区松原町3-1-118,月~土9:00-18:00 日祝 休み,有,082-262-8044,
クオ-ル薬局無印良品広島アルパ-ク店,341045,広島県,広島市西区,34.372437,132.393234,082-270-3789,082-270-3790,733-0841,広島市西区井口明神1丁目16-1,10:00~20:00 年中無休(施設の休館スケジュ-ルに準ずる),無,,
コトブキ調剤薬局広島日赤前店,341010,広島県,広島市中区,34.381199,132.453705,082-240-0320,082-240-0321,730-0052,広島市中区千田町1丁目6番10号,平日8:30-17:30 土日祝休み,無,,
康仁薬局猿猴橋店,341037,広島県,広島市南区,34.395512,132.478226,082-568-5101,082-568-5108,732-0823,広島市南区猿猴橋町6-34-1,月、火、水、金曜9:00-19:00 木、土9:00-18:00 日祝 休み,無,,
あおば薬局,341037,広島県,広島市南区,34.389988,132.472,082-263-2221,082-263-2246,732-0826,広島市南区松川町3-10,平日9:00-18:00  土9:00-13:00  日祝休み,有,080-8986-2170,
そうごう薬局フジグラン広島店,341010,広島県,広島市中区,34.386375,132.465012,082-545-1651,082-545-1652,730-0044,広島市中区宝町2-1,平日木曜日以外9-19  木曜日9-17  土曜日9-18 日・祝休み,有,082-545-1651,
リバ-サイド薬局,341037,広島県,広島市南区,34.392097,132.4702,082-261-6280,082-261-6491,732-0827,広島県広島市南区稲荷町3-20,平日9:30-19:30  土9:30-18:00,有,080-5758-6280,
矢賀薬局,,,,34.394608,132.493149,082-890-5617,082-890-5618,732-0042,広島県広島市東区矢賀1丁目1-32,平日9:00-18:00(木9:00-17:00) 土9:00-13:00 日祝休み ,有,082-890-5617,郵便番号
康仁薬局 牛田店,,,,34.412136,132.473633,082-511-3388,082-511-3377,732-0065,広島市東区牛田中2-2-1,平日9:00~18:00 土9:00~13:00 日祝休み,有,082-511-3388,郵便番号
ウォンツ楠木薬局,341045,広島県,広島市西区,34.41259,132.459412,082-509-0570,082-509-0571,733-0002,広島市西区楠木町3丁目1-10,月~金9:00~13:00、14:00~18:00土9:00~14:00,無,,
楠木プラス薬局,341045,広島県,広島市西区,34.414707,132.457428,082-509-3388,082-509-3389,733-0002,広島市西区楠木町4-16-19,平日9:00-18:00 土9:00-18:00 日9:00-12:00,無,,
まえだ薬局三篠北町店,341045,広島県,広島市西区,34.417496,132.45607,082-509-3280,082-509-3281,733-0006,広島市西区三篠北町19-27 イケダビル1F,月~水、金:9:00-18:00 木:9:00-17:00 土:9:00-13:00 日祝:休み,有,090-6432-1394,
三篠アルファ薬局,341045,広島県,広島市西区,34.416683,132.455704,082-230-3044,082-230-3041,733-0006,広島市西区三篠北町19-16-1階,月火水金9:00-18:00 木7:30-15:30 土9:00-13:00 日祝休み,有,082-230-3044,
ウォンツ横川駅ビル薬局,341045,広島県,広島市西区,34.409805,132.450317,082-503-6097,082-503-6065,733-0011,広島市西区横川町3-2-29,9:30~12:30、13:30~18:30,無,,
エスマイル薬局プラザ店,341045,広島県,広島市西区,34.409012,132.449173,082-503-8008,082-503-8838,733-0011,広島市西区横川町2丁目7-19,月水金9:00-23:00 火木9:00-20:00 土9:00-18:00 日祝休み,無,,
パ-ル薬局横川店,341045,広島県,広島市西区,34.408802,132.453247,082-532-0672,082-532-0673,733-0011,広島市西区横川町3-9-12-101,月、火、水、金9:00-18:00 木、土9:00-17:00 日祝 休み,有,090-1358-4325,
あすか薬局上天満町店,341045,広島県,広島市西区,34.398018,132.439087,082-942-1525,082-942-1067,733-0021,広島市西区上天満町9-13,月・火・木・金9:00-18:00  水・土9:00-13:00,無,,
ひまわり薬局天満店,341045,広島県,広島市西区,34.396214,132.439209,082-297-4551,082-297-4552,733-0022,広島市西区天満町14-11  1階,月火木金曜日:9:00-17:45  水曜日9:00-17:00  土曜日9:00-14:00   日祝休み,有,082-297-4551,
ロイヤル薬局,341045,広島県,広島市西区,34.396099,132.439545,082-293-1200,082-293-5424,733-0022,広島市西区天満町17番21号,平日9:00-18:00 土9:00-13:00 日祝休み,無,,
日本調剤天満町薬局,341045,広島県,広島市西区,34.396008,132.44075,082-296-7050,082-296-7051,733-0022,広島市西区天満町13-1,月~金9:00~18:00土9:00~13:00 ,有,090-5988-2872,
エルク薬局,341045,広島県,広島市西区,34.401203,132.4375,082-292-1058,082-292-1059,733-0025,広島市西区小河内町2-15-8,月9:00-18:00/火9:00-18:00/水9:00-18:00/木9:00-18:00/金9:00-18:00/土9:00-13:00,有,080-3242-7405,
西大薬局北店,341045,広島県,広島市西区,34.390747,132.433746,082-233-8233,082-233-8233,733-0033,広島市西区観音本町2-3-3,月~水9:00~18:30木7:30~15:30土9:00~12:30,有,082-233-8233,
サザン薬局,341045,広島県,広島市西区,34.382584,132.428726,0822-92-7767,0822-92-7791,733-0035,広島市西区南観音6-1-6ドマ-ニタセイビル,月火水金:9:00-18:00 木:8:30-16:30 土:9:00-16:00,有,080-6322-7418,
ハ-ト薬局観音店,341045,広島県,広島市西区,34.3839,132.430176,082-503-5666,082-503-5667,733-0035,広島市西区南観音2-7-14,月・火・水・金 9:00~18:00、木:8:30~16:30、    土9:00~12:30,有,080-6321-1141,
みらい薬局,341045,広島県,広島市西区,34.386162,132.431213,082-503-3070,082-503-3080,733-0035,広島市西区南観音2-3-37,月・火・木・金9:00~18:00木・土9:00~12:30,無,,
フレア薬局,341045,広島県,広島市西区,34.390915,132.436081,082-532-0480,082-532-0480,733-0037,広島市西区西観音町23-17,月火木金8:30-18:00 水8:30-16:30 土8:30-13:00 日祝休み,有,080-3887-5945,
アイン薬局己斐店,341045,広島県,広島市西区,34.397591,132.428772,082-274-2337,082-274-2338,733-0812,広島市西区己斐本町1丁目14-12,月火水金  9:00-18:00 木8:30-16:30 土9:00-16:00    日祝休み,無,,
アイン薬局己斐本町店,341045,広島県,広島市西区,34.39782,132.429199,082-271-1143,082-299-1131,733-0812,広島市西区己斐本町1丁目14-3  1F,平日9:00-18:00 土9:00-13:00 日祝休,有,080-2879-3341,
みやなが薬局己斐店,341045,広島県,広島市西区,34.396252,132.426224,082-507-0321,082-507-0320,733-0812,広島市西区己斐本町3丁目1-1,月~水・金9:00-18:00 木9:00-17:00 土9:00-13:00,有,082-507-0321,
タウン薬局己斐店,341045,広島県,広島市西区,34.406448,132.419785,082-271-7177,082-271-7010,733-0815,広島市西区己斐上1丁目11-40,平日9:00-18:30土9:00-13:00日祝休み,有,090-1054-4730,
りら薬局,341045,広島県,広島市西区,34.405094,132.419495,082-507-3319,082-507-3388,733-0815,広島市西区己斐上二丁目11-5,月火水金9:00-18:30 木8:30-16:30 土9:00-17:00,有,080-3887-5942,
こばと薬局高須店,341045,広島県,広島市西区,34.389732,132.417511,082-507-8410,082-507-8411,733-0821,広島市西区庚午北2-22-4,平日9:00-18:30  木9:00-17:00   土9:00-18:00 日祝休み,有,082-507-8410,
ウォンツ薬局古江駅前店,341045,広島県,広島市西区,34.386169,132.411499,082-507-2066,082-507-2067,733-0822,広島市西区庚午中2-19-20,月・火・水・木・金8:30~18:00土8:30~17:00,有,,
ウォンツ薬局庚午中店,341045,広島県,広島市西区,34.383213,132.411285,082-275-1171,082-275-1171,733-0822,広島市西区庚午中3-5-10,9:00~18:00日・祝休み,無,,
すずらん薬局庚午店,341045,広島県,広島市西区,34.382755,132.411621,082-507-0201,082-507-0203,733-0822,広島市西区庚午中3-6-11,月曜日~金曜日:9:00~18:00    土曜日:9:00~13:00,有,082-507-0201,
さんくす薬局庚午南店,341045,広島県,広島市西区,34.381542,132.410385,082-507-2411,082-507-2412,733-0823,広島市西区庚午南2-37-31,月~水・金9:00~18:00 木・土9:00~13:00         日祝休み盆正月休み,有,090-8991-1546,
ファ-マシィ薬局広島タワ-ビル,341037,広島県,広島市南区,34.395699,132.474686,082-568-1260,082-568-1261,732-0822,広島県広島市南区松原町5-1 4F,月~金9:00~18:30土9:00~17:00,有,082-568-1260,
ミック・ライズ薬局,341045,広島県,広島市西区,34.374752,132.392242,082-299-8570,082-299-8570,733-0841,広島市西区井口明神1-1-56,月火水金8:30-17:00木8:30-15:00土8:30-12:30 日祝休み,有,090-2806-5339,
商工センタ-薬局,341045,広島県,広島市西区,34.37376,132.392715,082-277-5088,082-209-5099,733-0841,広島市西区井口明神1-14-49,平日9:00-18:00  土9:00-13:00  日祝休み,有,050-3666-4376,
アイワ薬局井口鈴峰,341045,広島県,広島市西区,34.368797,132.374695,082-270-3930,082-270-3966,733-0842,広島市西区井口3-10-20,平日9:00-18:30  土9:00-13:00  日祝休み,有,082-270-3930,
康仁薬局井口店,341045,広島県,広島市西区,34.370632,132.374771,082-501-5346,082-501-5356,733-0842,広島市西区井口四丁目7番18-7号,月・火・木・金・土:9:00-18:00  水:9:00-13:00     日祝 休み,有,082-501-5346,
有限会社すず薬局,341045,広島県,広島市西区,34.369053,132.374649,082-277-2444,082-208-2445,733-0842,広島市西区井口3-10-23,月・火・水・金9:00~19:00木9:00~17:00土9:00~14:00,有,080-1933-8806,
さんくす薬局井口店,341045,広島県,広島市西区,34.377872,132.378815,082-278-5335,082-278-5369,733-0844,広島市西区井口台2-23-32,月、火、水、金9:00-18:30 木9:00-17:00 土9:00-13:00     日祝 休み,有,082-278-5335,
青葉薬局,341045,広島県,広島市西区,34.377586,132.378708,082-276-2431,082-278-0765,733-0844,広島市西区井口台2丁目22-4,平日8:30-18:30  木曜日8:30-16:30 土8:30-12:30     日祝 休み,有,090-9413-8071,
すばる薬局,341045,広島県,広島市西区,34.380108,132.406357,082-272-3304,082-272-3036,733-0861,広島市西区草津東1-8-1,月-金9時から18時 土9時-15時,有,090-1185-6944,
こごみ薬局,341045,広島県,広島市西区,34.377274,132.393661,082-961-3261,082-961-3262,733-0864,広島市西区草津梅が台12-5,平日・土曜日8:30-17:15 日祝日休み ,有,082-961-3261,
そうごう薬局草津店,341045,広島県,広島市西区,34.380493,132.40361,082-278-8315,082-278-8316,733-0865,広島市西区草津本町15-20,月~水・金 9:00-18:00  土9:00-17:00  木日祝休み,有,082-278-8315,
すずらん薬局高須店,341045,広島県,広島市西区,34.393196,132.418381,082-273-5010,082-273-5070,733-0871,広島市西区高須1丁目5-21,月・火・木・金:9:00~18:00    水・土:9:00~13:00,有,082-273-5010,
ムラオカ薬局,341045,広島県,広島市西区,34.39188,132.419846,082-272-6436,082-272-0730,733-0871,広島市西区高須1-1-2,月~金7:30~20:00 第1・3日休み,有,082-272-6436,
宮本薬局,341045,広島県,広島市西区,34.386612,132.410583,082-271-5662,082-271-5662,733-0872,広島市西区古江東町7-8,平日9:00-18:00 水9:00-17:00 土9:00-13:00 日祝休,無,,
ハ-ブ薬局,341045,広島県,広島市西区,34.383015,132.410812,082-272-6613,082-272-6795,733-0873,広島市西区古江新町13-3,月・火・水・金・土曜日:8:30~18:00        木曜日:9:00~17:00,有,082-272-6613,
五日市薬局,,,,34.36512,132.367355,082-943-5363,082-943-5343,733-5133,広島市佐伯区旭園6-12,月水金9:00-23:00、火木土9:00-20:00、日祝休み,有,082-943-5363,郵便番号
あきでしお薬局,341037,広島県,広島市南区,34.38052,132.477097,082-256-3100,082-256-3110,734-0001,広島市南区出汐1-4-1,平日9:00-17:00,有,080-8444-8268,
トワニ-薬局,341037,広島県,広島市南区,34.379009,132.476624,082-254-1002,082-254-1032,734-0001,広島市南区出汐1-12-25,平日9:00-18:00  土9:00-13:00  日祝 休み,有,082-254-1002,
ハロ-薬局,341037,広島県,広島市南区,34.380035,132.47702,082-252-5586,082-252-8686,734-0001,広島市南区出汐1-5-17,月~金:8:30~18:00 土:9:00~13:00,有,082-252-5586,
一般財団法人緑風会 緑風会薬局,341037,広島県,広島市南区,34.380344,132.477066,082-256-7171,082-256-7181,734-0001,広島市南区出汐1-4-3,平日8:30-18:00 土8:30-13:01 日祝 休み,無,,
池田博愛堂薬局,341037,広島県,広島市南区,34.379822,132.476028,082-254-4910,082-254-4911,734-0001,広島市南区出汐1-3-11,月-金9:00-18:00土9:00-13:00,有,082-254-4910,
日本調剤広大前薬局,341037,広島県,広島市南区,34.379974,132.476822,082-250-3215,082-250-3216,734-0001,広島市南区出汐1-5-15,月~金9:00~18:00土9:00~13:00日・祝休み,有,080-1301-9548,
ウォンツ宇品東6丁目薬局,341037,広島県,広島市南区,34.361214,132.467255,082-250-3728,082-250-3729,734-0003,広島市南区宇品東6-2-46 1F,月~水・金9:00~17:30木・土9:00~13:00,無,,
たちばな薬局,341037,広島県,広島市南区,34.360733,132.464783,082-255-1955,082-255-1958,734-0004,広島市南区宇品神田4-12-12,月火木9:00-18:00 水金9:00-20:00 土8:00-13:00 日祝休み,有,090-5696-8645,
ハ-ト薬局神田店,341037,広島県,広島市南区,34.357567,132.463837,082-250-2300,082-250-2301,734-0004,広島市南区宇品神田5-20-13  1F,平日9:00-18:00  土9:00-12:30  日祝休み,有,082-250-2300,
ハ-ト薬局中央店,341037,広島県,広島市南区,34.367657,132.465576,082-250-7030,082-250-7031,734-0004,広島市南区宇品神田1-4-28 1F,平日 9:00-18:00 土日祝 休み,有,070-5302-1942,
ファ-マシィ薬局宇品神田,341037,広島県,広島市南区,34.367699,132.465744,082-250-5740,082-250-5740,734-0004,広島市南区宇品神田1-4-3,平日9:00-18:00  土9:00-13:00   日祝休み,有,080-3878-1789,
広島駅前薬局,341037,広島県,広島市南区,34.395535,132.47731,082-264-5177,082-209-5178,732-0822,広島市南区松原町3-1-117,月火水金 09:00-18:30   木土09:00-18:00,有,050-3666-4377,
康仁薬局宇品神田店,341037,広島県,広島市南区,34.367405,132.464737,082-250-7377,082-250-7388,734-0004,広島市南区宇品神田1丁目2-16-202,平日8:30-18:00 土8:30-17:30 日祝 休み,有,080-2939-9128,
有限会社ヤマキ薬局,341037,広島県,広島市南区,34.366154,132.465164,082-251-0873,082-251-0850,734-0004,広島県広島市南区宇品神田1-7-12,平日8:30-20:00 土8:30-18:00 日祝 休み,有,090-1680-3400,
アレス薬局翠店,341037,広島県,広島市南区,34.372246,132.470901,082-250-8822,082-250-8832,734-0005,広島市南区翠2丁目18-3,月火金8:30-17:00 水木8:30-13:00 土8:30-11:30,無,,
ウォンツ薬局県病院前店,341037,広島県,広島市南区,34.367882,132.466507,082-250-0870,082-250-0877,734-0005,広島市南区翠5-17-12,月~金(祝日除く) 9:00~18:00,無,,
オ-ル薬局翠町店,341037,広島県,広島市南区,34.372826,132.471756,082-255-8820,082-255-8824,734-0005,広島県広島市南区翠3-6-4-1F,平日:月・火・木・金 9:00-18:30 水 9:00-18:00 土:9:00-17:30 日祝:休み,有,082-255-8820,
しらかば薬局,341037,広島県,広島市南区,34.367954,132.467957,082-252-7105,082-252-7106,734-0005,広島市南区翠5-18-5,月火水金8:45-18:00 木8:30-16:30 土8:45-13:00,有,082-252-7105,
日本調剤みどり町薬局,341037,広島県,広島市南区,34.367863,132.46666,082-250-7651,082-250-7653,734-0005,広島市南区翠5-17-10,月~金9:00~18:00土9:00~13:00日・祝休み,有,090-6795-3579,
いちご薬局皆実町店,341037,広島県,広島市南区,34.376465,132.465378,082-250-8668,082-250-8669,734-0007,広島市南区皆実町2-8-4-102,月・火・木・金:8:45-18:15 水・土:8:45-12:30,有,082-250-8668(転送),
ハ-ト薬局みなみ店,341037,広島県,広島市南区,34.374786,132.47139,082-250-7633,082-250-7760,734-0007,広島市南区皆実町4-22-2,月火水金 9:00-18:30 土 9:00-17:00 (但し13:00-14:30は閉局) 木 8:45-16:45 日祝 休み,有,082-250-7633,
ハ-ト薬局海岸店,341037,広島県,広島市南区,34.354679,132.461609,082-254-6240,082-254-8603,734-0011,広島市南区宇品海岸2-11-6,平日9:00-18:00  土9:00-13:00  日祝 休み,有,070-5055-8423,
オ-ル薬局宇品店,341037,広島県,広島市南区,34.363327,132.459167,082-250-2777,082-250-2778,734-0014,広島市南区宇品西3丁目1-45-1,月火木金9:00-18:00 水9:00-17:00 土9:00-13:00 日祝休み,有,082-250-2777,
フロウリッシュ薬局,341037,広島県,広島市南区,34.36129,132.458191,082-555-3369,082-555-3369,734-0014,広島市南区宇品西5丁目12-44,平日09:00~18:00  水・土曜09:00~13:00  日祝 休み,有,080-3886-3300,
うさぎ薬局,341037,広島県,広島市南区,34.366486,132.462723,082-250-0255,082-250-0256,734-0015,広島市南区宇品御幸2丁目5-7,平日9:00-18:00 木8:30-16:30 土9:00-12:00,有,082-250-0255,
有限会社岡田経三薬局,341037,広島県,広島市南区,34.356728,132.461945,082-255-6360,082-255-6386,734-0015,広島市南区宇品御幸5-19-13,月・火・水・金8:00~19:00木・土8:00~18:00,有,090-2094-9909,
エスマイル薬局東雲店,341037,広島県,広島市南区,34.383507,132.487488,082-284-5210,028-284-5221,734-0023,広島市南区東雲本町2-1-8,平日9:00-18:00,無,,
そらいろ薬局,341037,広島県,広島市南区,34.380287,132.488937,082-890-7533,082-890-7532,734-0023,広島市南区東雲本町2-17-6,月~金 9:00~18:00土 9:00~12:30,有,090-7975-9006,
ハ-ト薬局東雲店,341037,広島県,広島市南区,34.384331,132.483536,082-555-5830,082-555-5831,734-0023,広島市南区東雲本町1-1-34,平日9:00-1800  木9:00-17:00  土9:00-13:00,有,070-5305-7436,
ウォンツ東雲本町薬局,341037,広島県,広島市南区,34.38324,132.484909,082-890-2077,082-890-2078,734-0023,広島市南区東雲本町2-4-22,月~金8:45~13:00、14;30~17:45土日祝:休,無,,
竹田薬局バス通り店,341037,広島県,広島市南区,34.381229,132.485703,082-236-3637,082-236-3637,734-0023,広島市南区東雲本町1-12-6-103,平日8:30-18:30  土8:30-14:00  日祝 休み,有,090-9139-3484,
アイ薬局,341037,広島県,広島市南区,34.375927,132.492416,082-286-5101,082-286-5102,734-0024,広島市南区仁保新町1-9-14,月~金9:00~18:30土9:00~14:00,有,090-5260-9185,
オ-ル薬局青崎店,341037,広島県,広島市南区,34.37524,132.505157,082-581-3910,082-581-3911,734-0053,広島市南区青崎1-2-14,月・火・木・金9:00-18:00  水9:00-17:00  土9:00-14:00  日祝 休み,有,082-581-3910,
くらかけ薬局,341037,広島県,広島市南区,34.374382,132.50679,082-288-3246,082-288-3255,734-0053,広島市南区青崎1-8-8,月・火・木・金8:30~19:00 水8:30~16:30土8:30~13:30,有,090-8244-8415,
高山薬局,341037,広島県,広島市南区,34.373108,132.506805,082-281-8154,082-281-8303,734-0053,広島市南区青崎1-10-10,月~水・金9:00~18:00木9:00~17:00土9:00~13:00,有,,
府中つばき薬局,343021,広島県,安芸郡府中町,34.396851,132.511444,082-286-7000,082-286-7011,735-0004,安芸郡府中町山田1-2-9,平日8:30-18:00土8:30-12:30日祝休み,有,090-5374-6946,
ウォンツ府中本町薬局,343021,広島県,安芸郡府中町,34.397331,132.505066,082-890-0071,082-890-0070,735-0006,安芸郡府中町本町4-12-22,月~金9:30~18:30,無,,
こばと薬局,343021,広島県,安芸郡府中町,34.396389,132.505371,082-288-2899,082-288-2911,735-0006,安芸郡府中町本町2-9-38,平日9:00-18:30 木9:00-17:00  土9:00-13:00  日祝休,有,080-1920-3911,
康仁薬局 府中店,343021,広島県,安芸郡府中町,34.398556,132.504471,082-287-2044,082-287-2045,735-0006,安芸郡府中町本町5-5-1,月・火・水・金:9:00-18:00 木:9:00-17:00   土:9:00-13:00 日祝:休み,無,,
府中みずほ薬局,343021,広島県,安芸郡府中町,34.394829,132.505707,082-890-0234,082-890-0235,735-0006,安芸郡府中町本町1-13-7,月火水金:9:00-18:15 木:9:00-17:15 土:8:30-14:00 日祝休み,有,082-890-0234,
あんず薬局,343021,広島県,安芸郡府中町,34.399021,132.504303,082-890-6177,082-890-6188,735-0008,安芸郡府中町鶴江1-25-20,月~水・金9:00~18:30木9:00~17:00土9:00~15:30,有,080-2916-5223,
府中タカズミ薬局,343021,広島県,安芸郡府中町,34.38681,132.511551,082-890-1150,082-890-1151,735-0013,安芸郡府中町浜田3丁目6-9,月火木金土9:00-18:00 水9:00-17:00 日祝 休み,有,082-890-1150,
オ-ル薬局向洋店,343021,広島県,安芸郡府中町,34.376701,132.508133,082-287-3622,082-287-3621,735-0016,安芸郡府中町青崎中24-26,月、火、水、金9:00-18:00木9:00-17:00土9:00-14:00日祝 休み,有,082-287-3622,
安芸府中薬局,343021,広島県,安芸郡府中町,34.377632,132.50499,082-510-3535,082-510-3525,735-0017,安芸郡府中町青崎南2-2-104,平日8:45-17:45 土9:00-12:00 日祝休み,有,080-5623-5430,
広島中央通り薬局,341010,広島県,広島市中区,34.389839,132.462143,082-545-0055,082-545-0056,730-0029,広島市中区三川町7-1,9:00~18:30水9:00~18:00土9:00~17:30,無,,
オ-ル薬局府中店,343021,広島県,安芸郡府中町,34.39175,132.503815,082-287-8282,082-287-8283,735-0022,安芸郡府中町大通2-8-21,月火水金8:30-18:30 木8:30-18:00 土8:30-17:00 日祝 休み,有,082-287-8282,
クル-ズ薬局海田店,343048,広島県,安芸郡海田町,34.369724,132.544052,082-821-3550,082-821-3551,736-0024,安芸郡海田町西浜4-22-2,9:00-18:00(月-土),有,082-821-3550,
海田タカズミ薬局,343048,広島県,安芸郡海田町,34.368679,132.542892,082-847-6080,082-847-6081,736-0026,安芸郡海田町幸町8-14-3,月火木金9:00-18:30水8:30-16:30土9:00-13:00,有,082-847-6080,
すずらん薬局海田店,343048,広島県,安芸郡海田町,34.366692,132.533737,0825-16-6880,0825-16-6886,736-0042,安芸郡海田町南大正町3-25,月~土 9:00~18:00,有,0825-16-6880,
くるみ薬局海田店,343048,広島県,安芸郡海田町,34.370583,132.531235,082-821-0039,082-821-0031,736-0046,安芸郡海田町窪町1-23,月火木金9:00-18:30、水土9:00-18:00、日祝 休み,有,080-8980-2104,
康仁薬局海田店,343048,広島県,安芸郡海田町,34.371571,132.529694,082-824-3377,082-824-2727,736-0046,安芸郡海田町窪町2-14,平日9:00-19:00 土9:00-18:00 日祝 休み,有,082-824-3377,
ひらもと薬局 海田店,343048,広島県,安芸郡海田町,34.372982,132.532669,082-823-7227,082-823-5217,736-0067,安芸郡海田町稲荷町7-15,平日9:00から18:00(月・金は19:00)土9:00から12:30 日祝 休み,有,090-8061-6996,
(有)ハ-ト薬局,341070,広島県,広島市安芸区,34.37294,132.522385,082-824-3044,082-824-3044,736-0082,広島市安芸区船越南2-17-1,月火木金8:30-1800 土8:30-12:30 水8:30-15:00 日曜日祝日休み,無,,
エスマイル薬局平和店,341070,広島県,広島市安芸区,34.370686,132.524643,082-821-0234,082-823-6345,736-0082,広島市安芸区船越南3-6-13,平日9:00-18:30 土9:00-13:15 日祝休み,有,082-821-0234,
キララ薬局船越店,341070,広島県,広島市安芸区,34.372368,132.524826,082-821-0081,082-821-0082,736-0082,広島市安芸区船越南2-1-10,月火水金9:00-18:30  木9:00-17:00  土9:00-13:00  日祝  休み,有,070-1255-9818,
すずらん薬局船越店,341070,広島県,広島市安芸区,34.37252,132.522827,082-821-3030,082-821-3033,736-0082,広島市安芸区船越南2-18-9,月~水、金9:00~18:00木:9:00~17:00土:9:00~13:00,有,082-821-3030,
すみれ薬局,341070,広島県,広島市安芸区,34.356281,132.538406,082-888-6121,082-888-6127,736-0083,広島市安芸区矢野東4-1-9,月~水・金9:00~18:30土8:30~12:00,無,,
くるみ薬局矢野店,341070,広島県,広島市安芸区,34.351273,132.53064,082-820-4323,082-820-4200,736-0085,広島市安芸区矢野西4丁目10-18 1階,平日9:00-18:00  土9:00-13:00  日祝 休み,有,082-820-4323,
レデイ薬局矢野駅前店,341070,広島県,広島市安芸区,34.352177,132.533157,082-889-4511,082-888-1189,736-0085,広島市安芸区矢野西4-3-15-101,月~金9:00~18:00土9:00~13:00日・祝休み,無,,
康仁薬局矢野店,341070,広島県,広島市安芸区,34.352184,132.532822,082-888-5500,082-888-3846,736-0085,広島市安芸区矢野西4-1-21,月火水金8:30-19:00 木8:30-17:30 土8:00-17:00 日祝休み,有,080-8980-1340,
安芸畑賀薬局,341070,広島県,広島市安芸区,34.391403,132.552628,082-820-6088,082-820-6089,736-0088,広島市安芸区畑賀2-22-36,8:30~17:30,有,080-1933-1741,
シンメ薬局,342025,広島県,呉市,34.247952,132.596909,0823-74-9075,0823-74-9076,737-0001,呉市阿賀北5-15-7,平日9:00-18:00  土9:00-1300 日祝休み,有,0823-74-9075,
ひらもと薬局阿賀店,342025,広島県,呉市,34.251514,132.591873,0823-72-7707,0823-72-7708,737-0001,呉市阿賀北3丁目4-15,月・火・水・金9:00-18:00 木9:00-16:00 土9:00-12:00  日祝 休み,有,0823-72-7707,
あが中央薬局,342025,広島県,呉市,34.236755,132.600281,0823-72-2185,0823-72-2185,737-0003,呉市阿賀中央6-2-11,月~金9:00~18:00土9:00~17:00日・祝休み,無,,
オ-ル薬局阿賀店,342025,広島県,呉市,34.236755,132.600281,0823-76-5520,0823-76-5521,737-0003,呉市阿賀中央6丁目2-11,月火木金 8:30-18:00 水土 9:00-17:00 日祝休み,有,0823-76-5520,
マリン薬局阿賀店,342025,広島県,呉市,34.236542,132.601944,0823-76-3393,0823-76-3394,737-0003,呉市阿賀中央6丁目1-34,平日9:00-18:00 土9:00-13:00 日祝 休み,有,080-4550-8324,
井上一誠堂薬局警固屋店,342025,広島県,呉市,34.212509,132.545334,0823-28-6303,0823-28-6306,737-0012,呉市警固屋4-2-30,9:00~18:30,有,090-9965-3358,
あおぞら薬局,342025,広島県,呉市,34.23241,132.561996,0823-21-1070,0823-21-1080,737-0024,呉市宮原5丁目5-2,平日9:00-18:00 木曜日9:00-17:00 土曜日9:00-13:00 日祝 休み,有,0823-21-1070,
宮原薬局,342025,広島県,呉市,34.232143,132.561768,0823-21-2478,0823-26-7558,737-0024,呉市宮原5丁目5-12,平日8:30-18:00  土8:30-13:00  日祝 休み,有,0823-21-2478,
オ-ル薬局呉宝町店,342025,広島県,呉市,34.242504,132.557617,0823-22-1366,0823-22-1367,737-0029,広島県呉市宝町3-16,平日9:00-18:00  土9:00-18:00  日祝 休み,有,0823-22-1366,
康仁薬局宝町店,342025,広島県,呉市,34.2439,132.557968,0823-32-6112,0823-32-6113,737-0029,広島県呉市宝町2-23-1,月火水金8:30-19:00 木9:00-18:30 土8:30-17:30 日祝休み,有,080-8980-1408,
エスマイル薬局呉本町店,342025,広島県,呉市,34.247719,132.570587,0823-27-5525,0823-27-5526,737-0032,呉市本町9-8,月~金 9:00-18:00 木・土 9:00-13:00 日・祝 休み,有,0823-27-5525,
アロ-薬局呉店,342025,広島県,呉市,34.249798,132.572617,0823-24-2268,0823-26-7412,737-0045,呉市本通6-2-15,平日9:00-18:00、土曜9:00-12:00、木、日、祝日休み,有,090-5263-7680,
ウォンツ呉四ツ道路薬局,342025,広島県,呉市,34.242844,132.564758,0823-32-1117,0823-32-1127,737-0045,呉市本通2-6-1,月~金9:00~18:30土・日・祝休み,無,,
オ-ル薬局呉本通店,342025,広島県,呉市,34.250622,132.575592,0823-26-7811,0823-25-5400,737-0045,呉市本通7-1-30,月-水・金9:00-18:30 木9:00-17:00  土9:00-13:00,有,0823-26-7811,
くれ本通薬局,342025,広島県,呉市,34.250153,132.575638,0823-36-7712,0823-36-7713,737-0045,呉市本通6-6-7,平日9:00-18:00  土9:00-12:30  日祝 休み,有,0823-36-7712,
康仁薬局呉本町店,342025,広島県,呉市,34.245735,132.567627,0823-21-8899,0823-21-0770,737-0045,呉市本通4-10-5,月-水、金8:30-18:30 木8:30-17:30 土8:30-13:00 日祝休み,有,080-2899-9343,
第一薬局,342025,広島県,呉市,34.24535,132.567322,0823-23-7474,0823-23-7475,737-0045,呉市本通3-4-5,9:00~19:30,有,080-3054-8224,
中本薬局,342025,広島県,呉市,34.248653,132.569458,0823-21-5796,0823-25-7160,737-0045,呉市本通5-1-28,月~金8:00~18:00土8:00~15:00日・祝休み,有,0823-21-5796,
オ-ル薬局中通店,342025,広島県,呉市,34.244183,132.562469,0823-32-2511,0823-32-2512,737-0046,呉市中通1丁目3-12,月~金 9:00~18:00 土 9:00~17:00 日・祝休み,有,0823-32-2511,
コスモス薬局呉中通店,342025,広島県,呉市,34.24353,132.56369,0823-21-8900,0823-21-5225,737-0046,呉市中通2-8-18,平日8:45-18:00 土曜8:45-13:00 日・祝休み,無,,
フタバ薬局,342025,広島県,呉市,34.248482,132.568542,0823-25-8002,0823-25-8029,737-0046,呉市中通4-6-5,9:00~18:00,有,090-4147-2714,
株式会社小松薬局,342025,広島県,呉市,34.243771,132.563065,0823-21-2448,0823-23-3072,737-0046,呉市中通1-3-19,月~金9:00~18:00 土9:00~14:00,無,,
アロ-薬局呉中央店,342025,広島県,呉市,34.248348,132.561371,0823-25-9681,0823-25-9682,737-0051,呉市中央3-2-1,月・火・水・金8:30~18:00木830~16:30土8:30~12:00,無,,
クレオ薬局,342025,広島県,呉市,34.245216,132.56102,0823-32-5070,0823-32-5070,737-0051,呉市中央1-5-15,平日9:00-18:30 土9:00-17:00 日祝休み,有,0823-32-5070,
さんくす薬局呉店,342025,広島県,呉市,34.246151,132.561279,0823-32-6315,0823-32-6316,737-0051,呉市中央2丁目6-10,平日9:00-18:00 木9:00-17:00 土9:00-18:00 日・祝休み,有,080-2883-9445,
みつば薬局,342025,広島県,呉市,34.246216,132.561005,0823-22-1500,0823-22-1520,737-0051,呉市中央2-6-7,月水金9:00-21:30 火9:00-18:00 木8:30-16:30 土9:00-16:00 日休み 祝日9:00-16:00,有,0823-22-1500,
康仁薬局呉中央店,342025,広島県,呉市,34.246174,132.559189,0823-21-7800,0823-21-4900,737-0051,呉市中央1-3-1,平日8:30-18:30  土8:30-17:30  日祝休み,有,090-9466-3645,
アロ-薬局東中央店,342025,広島県,呉市,34.254772,132.572266,0823-32-7056,0823-32-7057,737-0052,呉市東中央4-6-1,平日9:00-19:00 木8:00-16:00 土9:00-12:00 日祝 休み,有,090-9593-5273,
一般社団法人呉市薬剤師会センタ-薬局北店,342025,広島県,呉市,34.251362,132.574356,0823-32-7677,0823-25-7933,737-0056,呉市朝日町14-6,8:30~17:30、19:00~23:00,無,,
瀬田薬局,342025,広島県,呉市,34.250809,132.571884,0823-21-5936,0823-24-0892,737-0056,呉市朝日町1-1,平日8:00-19:00 土8:00-17:00 日祝8:00-15:00 第1、3日曜休み,有,0823-21-5936,
オ-ル薬局伏原店,342025,広島県,呉市,34.253407,132.576828,0823-20-6500,0823-20-6501,737-0077,呉市伏原2-8-21,月~水、金9:00~18:00、木9:00~17:00、土9:00~13:00、日祝休み,有,0823-20-6500(携帯に転送されます),
あすなろ薬局,342025,広島県,呉市,34.240189,132.622162,0823-74-3996,0823-74-3990,737-0112,呉市広古新開7丁目40-1,月火水金9:00-18:00 木8:00-16:00 土9:00-12:00 日祝休み,有,0823-74-3996,
康仁薬局広二級橋店,342025,広島県,呉市,34.232445,132.617661,0823-76-5066,0823-76-5067,737-0112,呉市広古新開1丁目1番32号,月火水金9:00-18:00 木9:00-17:00 土9:00-13:00 日祝休み,有,0823-76-5066,
康仁薬局新広店,342025,広島県,呉市,34.240044,132.618881,0823-76-5821,0823-76-5831,737-0112,呉市広古新開7-24-3,平日9:00-18:00  土9:00-17:00 日祝休み,有,080-3882-7849,
康仁薬局広本町店,342025,広島県,呉市,34.236122,132.622177,08233-76-6877,0823-76-6878,737-0125,呉市広本町3丁目12-11,月、火、水、金8:30~17:30 木8:30~16:30       土8:30~12:30,有,0823-76-6877,
にじむら薬局,342025,広島県,呉市,34.230232,132.614944,0823-27-7892,0823-27-7893,737-0134,呉市広多賀谷1-3-40,月~金9:00~17:00土・日・祝休み,有,0823-27-7892,
ウォンツ広白石薬局,342025,広島県,呉市,34.227917,132.633224,0823-76-5865,0823-76-5868,737-0143,呉市広白石1-3-35,9:30~18:30,無,,
康仁薬局仁方店,342025,広島県,呉市,34.225491,132.650543,0823-79-2288,0823-79-2277,737-0145,呉市仁方西神町6,月~金9:00~18:30土・日・祝9:00~18:0012/31午後・1/1~1/3休み ,無,,
オ-ル薬局郷原店,342025,広島県,呉市,34.291424,132.616547,0823-70-3522,0823-70-3525,737-0161,広島県呉市郷原町1664-1,平日9:00-18:00 (木曜のみ9:00-17:00) 土9:00-13:00  日祝 休み,有,0823-70-3522,
エスマイル薬局かまがり店,342025,広島県,呉市,34.186752,132.664185,0823-65-3079,0823-65-3089,737-0303,呉市下蒲刈町下島2119-31,平日8:30-17:30  土8:30-12:00  日祝 休み,有,0823-65-3079,
オレンジ薬局,342025,広島県,呉市,34.186752,132.664185,0823-65-2722,0823-65-3177,737-0303,呉市下蒲刈町下島2176-4,月~土8:30~19:30,有,0823-71-4696,
ウォンツ薬局呉共済病院前店,342025,広島県,呉市,34.248878,132.559326,0823-69-7112,0823-69-7127,737-0811,呉市西中央3-2-2,月~金8:30~17:30,無,,
オ-ル薬局新栄橋店,342025,広島県,呉市,34.246655,132.555862,0823-32-0120,0823-32-0121,737-0811,呉市西中央1-3-10,月・火・水・金 8:30-18:30 木・土 8:30-18:00 日・祝 休み,無,,
ザグザグ薬局呉中央店,342025,広島県,呉市,34.249073,132.5616,0823-32-1139,0823-32-1139,737-0811,呉市西中央3丁目7-34,月~土曜9:00~18:00 日祝休み,無,,
ひらもと薬局西中央店,342025,広島県,呉市,34.247398,132.558197,0823-36-6598,0823-36-6599,737-0811,呉市西中央2-1-12,平日9:00-18:00  土12:00-14:00 日祝休み,有,0823-36-6598,
日本調剤呉薬局,342025,広島県,呉市,34.24884,132.559433,0823-32-6780,0823-32-6782,737-0811,呉市西中央3-2-1,月~金8:30~18:30土8:30~12:30,有,080-1016-3853,
オ-ツカ薬局2,342025,広島県,呉市,34.247799,132.552551,0823-24-4193,0823-24-7744,737-0821,呉市三条2-12-6,月~金9:00~19:00木9:00~18:00土9:00~13:30迄,有,0823-24-4193,
マリン薬局三津田店,342025,広島県,呉市,34.249531,132.555008,0823-32-4139,0823-32-4194,737-0821,呉市三条3-5-14,月~金9:00~18:00土9:00~13:00,有,080-4550-8324,
健康堂薬局,342025,広島県,呉市,34.24836,132.554596,0823-22-8251,0823-22-8252,737-0821,呉市三条3-2-11,平日9:00-18:30  土9:00-17:00   日祝 休み,有,0823-22-8251,
オ-ル薬局海岸通店,342025,広島県,呉市,34.246597,132.544144,0823-20-6400,0823-20-6401,737-0823,呉市海岸2丁目17-6,月火水金土8:30-18:00 木8:30-17:00  日祝休み,有,0823-20-6400,
ももたろう薬局海岸店,342025,広島県,呉市,34.245003,132.548599,0823-23-7007,0823-23-5010,737-0823,呉市海岸1丁目4-10,平日9:00-18:00 木9:00-17:00 土9:00-12:00 日祝休み,有,080-3871-5098,
ももたろう薬局吉浦店,342025,広島県,呉市,34.258434,132.525391,0823-31-7751,0823-31-7752,737-0863,呉市吉浦宮花町7-12,平日9時-18時30分 土9時12時30分 日祝休み,有,080-3882-9915,
エスマイル薬局天応南店,342025,広島県,呉市,34.285339,132.517059,0823-38-8900,0823-38-8901,737-0874,呉市天応南町1934-1,月火水金  9:00-18:00   木 9:00-17:00 土9:00-13:00  日祝 休み,有,0823-38-8900,
うさぎ薬局,342025,広島県,呉市,34.291344,132.554871,0823-30-1189,0823-30-1187,737-0903,呉市焼山西2-1-34,月・火・水・金9:00-18:30 木6:00-14:00       土8:30-13:00,有,0823-30-1189,
康仁薬局神山店,342025,広島県,呉市,34.287098,132.567734,0823-30-3655,0823-30-3656,737-0923,呉市神山3丁目3-5,月水金9:00-18:00 火木9:00-15:00 土9:00-13:00   日休み,有,080-1633-4761,
オ-ル薬局焼山店,342025,広島県,呉市,34.296085,132.557343,0823-30-5353,0823-30-5354,737-0935,広島県呉市焼山中央2-5-9,平日9:00-18:30 木曜日9:00-17:00 土曜日 9:00-13:00,有,0823-30-5353,
くるみ薬局焼山店,342025,広島県,呉市,34.295181,132.556625,0823-30-1020,0823-30-1022,737-0935,呉市焼山中央2-1-21,平日9-18 土9-13 日祝休み,有,0823-30-1020,
ケツメイシ薬局,342025,広島県,呉市,34.297203,132.55867,0823-36-5838,0823-36-5837,737-0935,呉市焼山中央2-9-40,月・火・水・金9:00~18:30 木8:00~16:00土9:00~13:00,有,090-1925-4438,
ももたろう薬局焼山店,342025,広島県,呉市,34.29615,132.55954,0823-34-5300,0823-33-2511,737-0935,広島県呉市焼山中央2-9-22,平日9:00-18:30 木9:00-17:00 土9:00-12:30 日祝 休み,有,080-3871-5094,
そうごう薬局藤脇店,342025,広島県,呉市,34.146893,132.508484,0823-50-1271,0823-56-1272,737-1214,呉市音戸町藤脇2-18-8,月、火、木、金8:30-18:30 水8:30-16:30 土8:30-12:30  日祝 休み,有,0823-50-1271,
みどり薬局,342025,広島県,呉市,34.11771,132.502457,0823-56-0960,0823-56-0996,737-1377,呉市倉橋町7382-2,24時間365日対応,有,0823-56-0960,
中央薬局切串店,342157,広島県,江田島市,34.281113,132.479675,0823-69-7256,0823-69-7257,737-2111,広島県江田島市江田島町切串2-17-14,月火水金9:00-18:30 木土9:00-12:30,有,080-2579-6555,
ひまわり薬局,342157,広島県,江田島市,34.168571,132.47905,0823-40-3455,0823-40-3466,737-2212,江田島市大柿町大君835-3,月~金 8:50~1800土 8:50~13:00,無,,
大原薬局,342157,広島県,江田島市,34.156693,132.46434,082-357-7632,082-357-7632,737-2213,江田島市大柿町大原5917-1,月~金 9:00~18:00土 9:00~13:00,無,,
大柿薬局,342157,広島県,江田島市,34.186527,132.456223,0823-57-6903,0823-57-6903,737-2215,江田島市大柿町小古江668-4,月~金 8:50~18:00土 8:50~13:00,無,,
クオ-ル薬局江田島店,342157,広島県,江田島市,34.21933,132.436142,0823-40-2589,0823-40-2590,737-2301,江田島市能美町中町4715-6,平日9:00-18:00  土9:00-13:00  日祝 休み,有,080-8754-5829,
ホ-ム薬局,342025,広島県,呉市,34.282822,132.744797,0823-84-7077,0823-84-7078,737-2516,呉市安浦町中央5-1-52,平日8:45-18:00 土8:45-13:00 日祝 休み,有,090-6416-2758,
光原薬局,342025,広島県,呉市,34.283279,132.745651,0823-84-5990,0823-84-0250,737-2516,呉市安浦町中央1丁目3-25,平日8:30-18:30  土8:30-13:00   日祝 休み,無,,
ライフ薬局,342025,広島県,呉市,34.234165,132.69371,0823-87-3400,0823-87-3440,737-2603,呉市川尻町西2-12-34,月火水金9:00-18:00 木9:00-17:00 土9:00-12:30      日祝 休み,有,090-6416-2495,
そうごう薬局川尻店,342025,広島県,呉市,34.236771,132.698532,0823-87-0501,0823-87-0502,737-2607,広島県呉市川尻町東一丁目21-2,平日、9:00-17:00(月)、9:00-18:00(火-金)、      土9:00-13:00、日祝休み,有,0823-87-0501,
マリン薬局 広中央店,,,,34.232948,132.616776,0823-75-1193,0823-72-5119,737-0112,広島県呉市広古新開1-3-13,平日9:00-19:00 土9:00-13:00 :日祝休み,有,080-4550-8324,郵便番号
のばら薬局,,,,34.282379,132.551147,0823-33-0826,0823-33-1446,737-0902,呉市焼山此原町21-2,平日9:00-18:00  土9:00-12:00  日祝休み,有,0823-33-0826,郵便番号
さくら薬局,342130,広島県,廿日市市,34.365814,132.344193,0829-34-0222,0829-34-0223,738-0001,廿日市市佐方4-8-32,月~水・金9:00-18:00  木・土9:00-13:00  日祝休み,有,0829-34-0223,
山陽薬局,342130,広島県,廿日市市,34.362064,132.34079,0829-32-6234,0829-32-6251,738-0002,廿日市市山陽園8-19,月・火・水・金8:30~18:00 木8:30~16:30土8:30~13:00,有,090-8993-6234,
ミント薬局廿日市天神店,342130,広島県,廿日市市,34.354366,132.338074,0829-31-6262,0829-34-4151,738-0012,廿日市市天神12-7,月火水金9:00-18:30 木9:00-17:00 土9:00-18:15 日祝休み,無,,
エスマイル薬局住吉店,342130,広島県,廿日市市,34.352448,132.337036,0829-32-5272,0829-32-5273,738-0014,廿日市市住吉1-3-20,月火水金8:30-18:00 木土8:30-13:00 日祝休み,有,0829-32-5272,
廿日市本町薬局,342130,広島県,廿日市市,34.351173,132.33548,0829-32-6933,0829-32-6934,738-0015,廿日市市本町7-36,月火水金8:30~12:30/14:30~18:30木土8:30~12:30,無,,
康仁薬局廿日市中央店,342130,広島県,廿日市市,34.350056,132.331665,0829-32-8486,0829-32-8488,738-0023,廿日市市下平良1-3-36-101,月~土8:30-18:00,無,,
平良しみず薬局,342130,広島県,廿日市市,34.353798,132.326874,0829-34-1193,0829-34-1194,738-0025,廿日市市平良2-10-36,平日9:00-18:00     土9:00-13:00    日祝休み,有,0829-34-1193,
しみず薬局,342130,広島県,廿日市市,34.347088,132.324631,0829-32-4141,0829-32-4142,738-0033,廿日市市串戸3-21-2,平日9:00-18:00 木土9:00-13:00 日祝休み,有,080-6334-4141,
そうごう薬局串戸店,342130,広島県,廿日市市,34.349644,132.32077,0829-32-1410,0829-32-1418,738-0033,廿日市市串戸5-3-50,月-土9:00-18:00,有,0829-32-1410,
康仁薬局宮内串戸店,342130,広島県,廿日市市,34.34771,132.32341,0829-34-1201,0829-34-1202,738-0033,廿日市市串戸4丁目14-14,平日 8:30-18:00  土8:30-16:00 日祝 休み,有,090-8991-1546,
第一薬局廿日市,342130,広島県,廿日市市,34.346333,132.326691,0829-32-0300,0829-32-2103,738-0033,廿日市市串戸2丁目17-5,月8:50~18:00/火8:50~18:00/水8:50~18:00/木8:50~18:00/金8:50~18:00/土8:50~17:00,有,080-1914-8111,
ウォンツ宮内薬局,342130,広島県,廿日市市,34.352863,132.273666,0829-37-0067,0829-37-0077,738-0034,廿日市市宮内4479,月~金9:00~18:30土9:00~13:00日・祝休み,無,,
エ-ス薬局,342130,広島県,廿日市市,34.348053,132.308456,0829-39-6440,0829-39-6494,738-0034,廿日市市宮内1520-8,月~水・金9:00~18:00木・土9:00~12:30,有,090-3742-8488,
ミント薬局,342130,広島県,廿日市市,34.344666,132.304733,0829-37-2121,0829-37-2122,738-0034,廿日市市宮内4311-1,月火木金9:00-18:30 水土9:00-17:00 日祝休み,有,0829-37-2121,
タカズミ薬局,342130,広島県,廿日市市,34.3442,132.324188,0829-30-0011,0829-30-0010,738-0042,廿日市市地御前1-2-22,月火木金8:45-18:00 水9:00-17:00 土8:45-17:00,有,0829-30-0011,
地御前薬局,342130,広島県,廿日市市,34.344231,132.320984,0829-36-0008,0829-36-0101,738-0042,廿日市市地御前2-10-22,月火水金8:30-18:00 木8:30-16:30 土8:00-12:00,無,,
ベル薬局阿品台店,342130,広島県,廿日市市,34.326736,132.304688,0829-37-2020,0829-37-2021,738-0053,廿日市市阿品台4-17-27,月火水金 9:00-18:00  木8:30-16:30  土9:00-12:30      日祝 休み,有,0829-37-2020,
タウン薬局ナタリ-店,342130,広島県,廿日市市,34.323738,132.318344,0829-36-6333,0829-36-5888,738-0054,廿日市市阿品3-1-6,月火水金9:00~19:00木9:00~18:00土9:00~16:30日祝:休,有,080-2901-4854,
そうごう薬局陽光台店,342130,広島県,廿日市市,34.356331,132.308319,0829-20-2581,0829-20-2582,738-0060,廿日市市陽光台5-12-1,平日9:00-18:00  土9:00-13:00  日祝 休み,有,0829-20-2581,
第一調剤薬局,342130,広島県,廿日市市,34.365604,132.172195,0829-72-1655,0829-72-1657,738-0222,廿日市市津田4191-10,平日8:30-18:00  木8:30-17:00  土8:30-13:00 日祝休み,有,090-2800-7377,
湯来しみず薬局,341088,広島県,広島市佐伯区,34.429409,132.26564,0829-40-5770,0829-40-5771,738-0512,広島市佐伯区湯来町白砂588-1,平日8時30分から17時30分 土8時30分から13時00分 日祝休,有,090-1183-9589,
ファ-マシィ薬局西条,342122,広島県,東広島市,34.445141,132.748962,082-422-5012,082-422-5012,739-0002,東広島市西条町大字吉行2219-1,月火水金土9:00~18:00木9:00~14:00,有,082-422-5012,
ほのか薬局,342122,広島県,東広島市,34.427792,132.748978,082-421-1410,082-421-1410,739-0006,東広島市西条上市町5-5総合不動産ビル3F-B,月金8:30-18:30 火水木8:30-17:00 土8:30-14:30 日祝休み,有,082-421-4099,
オ-ル薬局西条店,342122,広島県,東広島市,34.428356,132.753235,082-421-5551,082-421-5561,739-0007,東広島市西条土与丸5-9-7,月・水・木・金9:00-18:30 火・土9:00-18:00 日祝休み,有,082-421-5551(転送対応),
セリア薬局,342122,広島県,東広島市,34.427742,132.752289,082-423-7100,082-423-7100,739-0007,東広島市西条土与丸6-1-3,月火水木金土 8:30~19:00 日祝 休み,有,082-421-4099,
健伸薬局 土与丸店,342122,広島県,東広島市,34.428535,132.751846,082-423-2823,082-423-2823,739-0007,東広島市西条土与丸1-3-38,月-水、金、土9:00-18:00    木、日、祝日休み,有,082-421-4099,
健伸薬局ごじょう店,342122,広島県,東広島市,34.424133,132.744492,082-430-8829,082-430-8829,739-0013,東広島市西条御条町2-10,月火水金土9:00~18:00 木9:00~17:30 日祝 休み,有,082-421-4099,
エスマイル薬局昭和町店,342122,広島県,東広島市,34.424252,132.740158,082-422-0515,082-422-0538,739-0014,東広島市西条昭和町6-10,月火木金土8:30-18:30,有,082-422-0515,
つつじ薬局,342122,広島県,東広島市,34.423798,132.742538,082-437-3605,082-437-3608,739-0014,東広島市西条昭和町12-43,月曜-土曜:9:00-18:00    日祝休み,無,,
よつば薬局,342122,広島県,東広島市,34.423714,132.73938,082-421-5225,082-490-5711,739-0014,東広島市西条昭和町7-19,平日、土曜日9:00-18:00,有,082-421-5225,
オリ-ブ薬局,342122,広島県,東広島市,34.415848,132.77095,082-431-5567,082-431-5567,739-0021,東広島市西条町助実1064-3,月木8:30-16:30、火水9:00-18:30、金9:00-19:30、     土9:00-14:30、日祝休み,有,082-431-5567,
そうごう薬局西条店,342122,広島県,東広島市,34.429485,132.741531,082-423-2113,082-422-9033,739-0016,東広島市西条岡町5-19,月-水金土9:00-18:00 木9:00-17:00 日祝休み,有,082-423-2113,
オ-ル薬局ゆめモ-ル西条店,342122,広島県,東広島市,34.415848,132.77095,082-422-5080,082-422-5081,739-0021,東広島市西条町助実1172番地1F,月-土9:00-18:00 日祝 休み,有,082-422-5080,
かなえ薬局,342122,広島県,東広島市,34.424622,132.755325,082-431-3822,082-431-3822,739-0021,東広島市西条町助実1182-4,平日8:00-20:00土9:00-18:00日祝休み,有,090-2704-2776,
かえで薬局,342122,広島県,東広島市,34.408062,132.755798,082-437-3917,082-437-3918,739-0024,東広島市西条町御薗宇8539-7,月・火・木・金8:30~13:00、14:30~18:30水8:30~16:30土8:30~12:30,有,082-437-3917,
さんくす薬局,342122,広島県,東広島市,34.407089,132.750992,082-493-8715,082-493-8716,739-0024,東広島市西条町御薗宇4284-1,月~土9:00~19:00日・祝休み,有,080-2883-4446 080-8980-1339,
そうごう薬局御薗宇中央店,342122,広島県,東広島市,34.400307,132.754227,082-426-3371,082-426-3372,739-0024,東広島市西条町御薗宇714-52,平日・土 9:00-16:30 日祝 休み,有,082-426-3371,
エスマイル薬局かがみやま店,342122,広島県,東広島市,34.408062,132.755798,082-431-5501,082-431-5502,739-0024,東広島市西条町御薗宇2420-2,月・火・水・金8:30~18:30木7:30~15:30土8:30~12:30,有,082-431-5501,
たいせい堂薬局中央店,342122,広島県,東広島市,34.418617,132.744293,082-421-5050,082-421-5005,739-0025,広島県東広島市西条中央3-5-5,月火水金9:00-19:00木9:00-17:00土9:00-18:00日祝休み,無,,
ミント薬局西条中央店,342122,広島県,東広島市,34.416687,132.737228,082-493-5656,082-493-5662,739-0025,東広島市西条中央7丁目3-45,平日9:00-18:30 水9:00- 17:00 日祝休み,有,082-493-5656,
エンゼル薬局田口店,342122,広島県,東広島市,34.394398,132.723145,082-420-2211,082-420-2323,739-0036,東広島市西条町田口383-7,月~金8:30~17:30土8:00~12:00,無,,
さんくす薬局田口店,342122,広島県,東広島市,34.390526,132.735809,082-420-2250,082-420-2251,739-0036,東広島市西条町田口2721-2,月~金9:00~18:00土9:00~13:00,有,080-2883-9446,
かなえ薬局寺家,342122,広島県,東広島市,34.434826,132.728241,082-431-5001,082-431-5001,739-0041,広島県東広島市西条町寺家4732-1,平日8:30-20:00 土8:30-17:00 日祝休み,有,090-2704-2793,
じけ薬局,342122,広島県,東広島市,34.44392,132.722626,082-422-0321,082-422-0221,739-0041,東広島市西条町寺家520-67,平日8:30-18:00 土8:30-13:00 日祝休み,有,082-422-0321,
ひまわり薬局,342122,広島県,東広島市,34.422802,132.728241,082-426-3588,082-426-4188,739-0041,広島県東広島市西条町寺家7430-1,月~土8:45-18:00 日祝休み,有,082-426-3588,
健伸薬局よこた店,342122,広島県,東広島市,34.434826,132.728241,082-431-5580,082-431-5580,739-0041,広島県東広島市西条町寺家5410-12,平日9:00-18:00 土9:00-13:00 日祝休み,無,,
あかね薬局,342122,広島県,東広島市,34.426044,132.73848,082-422-8160,082-422-8160,739-0042,東広島市西条町西条東1245-1,平日、土9:00-18:30  日祝 休み,無,,
サン薬局,342122,広島県,東広島市,34.423347,132.738266,082-426-5160,082-426-5161,739-0042,東広島市西条町西条東1281-3,月水金:9:00~19:00火木土:9:00~18:00,有,082-426-5160,
ザグザグ薬局西条西本町店,342122,広島県,東広島市,34.426411,132.738586,082-493-7711,082-493-7711,739-0043,東広島市西条西本町27番33号,月~土曜9:00-19:00   日祝 休み,無,,
そうごう薬局八本松店,342122,広島県,東広島市,34.443562,132.710373,082-428-1201,082-428-1202,739-0142,東広島市八本松東3-33-2,月~水、金8:30~18:30 木8:30~16:30 土8:30~12:30,有,082-428-1201,
広島南薬局,341037,広島県,広島市南区,34.367786,132.465744,082-251-0034,082-251-4325,734-0004,広島市南区宇品神田1-4-2,月~金9:00~18:00土9:00~13:00日・祝・年末年始12/30~1/3休み,有,082-251-0034,
薬膳薬局志和店,342122,広島県,東広島市,34.478592,132.635788,082-433-5011,082-433-5016,739-0267,東広島市志和町別府1340-2,月火水金9:00-18:00  土9:00-13:00  日祝み 木8:30-16:30,有,090-5378-7448,
タウン薬局安芸中野店,341070,広島県,広島市安芸区,34.392677,132.564987,082-892-3388,082-892-3700,739-0321,広島市安芸区中野三丁目9-6,月、火、水、金、土曜日9:00-18:30  木曜日9:00-17:00,有,080-2901-4850,
アロ-薬局瀬野川店,341070,広島県,広島市安芸区,34.387146,132.561768,082-892-4700,082-892-4701,739-0323,広島市安芸区中野東1丁目11番31号,平日9:00-18:00 木9:00-17:00 土9:00-12:30 日祝休み,有,090-7374-2113,
なのはな薬局,341070,広島県,広島市安芸区,34.396759,132.577545,0828-93-6370,0828-93-6371,739-0323,広島市安芸区中野東4-18-1,月~金8:30~17:15土8:30~13:00,有,080-9137-9007,
安芸ふれあい薬局,341070,広島県,広島市安芸区,34.401951,132.582413,082-893-6002,082-893-6091,739-0323,広島市安芸区中野東5-1-7,月・火・水・金9:00~18:00木8:00~16:00土9:00~16:00,有,090-8600-7092,
森川薬局青葉台店,342130,広島県,廿日市市,34.318867,132.29892,0829-30-6778,0829-30-6778,739-0401,廿日市市福面2-2-3,月~水・金8:30~18:30木8:30~16:30土8:30~12:00,有,090-9463-5743,
ファ-スト薬局宮島口店,342130,広島県,廿日市市,34.310997,132.302673,0829-30-8919,0829-30-8918,739-0411,廿日市市宮島口1-4-13,月~金10:00~14:00、17:00~18:00,有,0829-30-8919,
有限会社前空薬局,342130,広島県,廿日市市,34.301979,132.289825,0829-54-6555,0829-54-6555,739-0424,廿日市市前空5-5-35,平日8時半-18時 土曜日8時半-12時半 日祝休み,有,080-2910-7538,
フタバ薬局大国店,342130,広島県,廿日市市,34.286076,132.276947,0829-55-3536,0829-55-3351,739-0434,廿日市市大野1-8-9,月火水金9:00-18:00 木8:30-16:30 土9:00-12:30 日祝休み,有,080-1639-0691,
大竹ヘルシ-薬局,342114,広島県,大竹市,34.216228,132.225143,0827-53-4560,0827-53-4560,739-0603,大竹市西栄1-12-18,平日8:30-18:30   土8:30-16:00  日祝休み,無,,
そうごう薬局大竹店,342114,広島県,大竹市,34.225689,132.219757,0827-54-2511,0827-54-2512,739-0605,大竹市立戸2丁目6-25,月~水、金、土:9:00~18:30,有,0827-54-2511,
おおたけ駅前薬局,342114,広島県,大竹市,34.217819,132.222,0827-28-6180,0827-28-6181,739-0611,大竹市新町1-2-7,月-金 9:00-13:00 15:00-18:30  土日祝休み,有,090-9730-6083,
ウォンツ大竹薬局,342114,広島県,大竹市,34.220913,132.221161,0827-54-0027,0827-54-0028,739-0612,大竹市油見3-20-9,月~金9:30~13:30、14:30~18:30,無,,
うみい薬局,342114,広島県,大竹市,34.207787,132.216949,0827-53-7675,0827-28-5785,739-0613,大竹市本町2丁目9-22,平日8:30-18:00 土8:30-12:30  日祝休み,有,080-6333-7675,
玖波駅前薬局,342114,広島県,大竹市,34.254322,132.228455,0827-57-8080,0827-57-8081,739-0651,大竹市玖波1-13-5,平日8:30-18:00  木8:30-16:30  土8:30-12:30  日祝 休み,有,090-2804-9377,
ヘルシ-薬局,342114,広島県,大竹市,34.251114,132.225204,0827-57-5476,0827-57-5481,739-0653,大竹市黒川3丁目16-19,平日9:00-18:00,無,,
こうだ薬局,342149,広島県,安芸高田市,34.679729,132.794861,0826-45-7050,0826-45-7065,739-1101,安芸高田市甲田町高田原1474-1,月~水・金 8:30~18:00木 8:30~16:30土 8:30~16:00,有,0826-45-7050,
甲田センタ-薬局,342149,広島県,安芸高田市,34.679729,132.794861,0826-45-7177,0826-45-7182,739-1101,安芸高田市甲田町高田原1045-1,月火水金8:30-18:00  木土 8:30-12:00 日祝休み,有,0826-45-7177,
向原薬局 ,342149,広島県,安芸高田市,34.606419,132.755417,0826-46-4123,0826-46-4222,739-1201,安芸高田市向原町坂438-1,平日9:00-18:00  土9:00-12:00(第2土のみ9:00-11:00) 日祝 休み,有,0826-46-4123,
白木薬局,341061,広島県,広島市安佐北区,34.553261,132.670547,082-828-3884,082-828-3004,739-1412,広島市安佐北区白木町小越194-9,月、火、水、金 9:00-18:30 木、土9:00-12:30     日祝休み,無,,
パ-ル薬局白木店,341061,広島県,広島市安佐北区,34.514843,132.608963,082-829-0189,082-829-0189,739-1521,広島市安佐北区白木町三田4269-1,平日8:30-18:00  木8:30-16:30  土8:30-12:30  日祝日休み,無,,
エスマイル薬局おちあい店,341061,広島県,広島市安佐北区,34.472,132.510651,082-841-3820,082-841-3821,739-1731,広島市安佐北区落合1-13-6,月、火、木、金、日9:00-18:00   土9:00-13:00  水祝休み,有,082-841-3820,
のぞみ薬局高陽店,341061,広島県,広島市安佐北区,34.477055,132.518906,082-841-6330,082-841-6331,739-1731,広島市安佐北区落合5-25-1,月・火・木・金8:30~18:00水8:30~17:00土8:30~13:00,有,082-841-6330,
