施設_名称,施設_市区町村コード,住所_都道府県,住所_市区町村（郡）,住所_緯度,住所_経度,連絡先_電話番号,連絡先_FAX番号,連絡先_郵便番号,連絡先_住所,施設_開局時間,時間外_対応の有無,時間外_電話番号,エラー
しんわ薬局山本店,092010,栃木県,宇都宮市,36.584393,139.877365,028-600-4003,028-600-3631,320-0012,宇都宮市山本3-9-7,9:00~18:00,有,028-600-4003,
しんわ薬局馬場通り店,092010,栃木県,宇都宮市,36.561413,139.884995,028-616-1715,028-616-1716,320-0026,宇都宮市馬場通り1-1-6,火水9:00~18:30 水金9:00~13:00 土9:00~14:00,有,028-616-1715,
しんわ薬局泉町店,092010,栃木県,宇都宮市,36.561821,139.879837, 028-627-1428,028-627-1461,320-0034,宇都宮市泉町1-26 佐藤ビル1F,月~水・金9:00~18:15木・土9:00~17:00,無,,
セサミ薬局泉町店,092010,栃木県,宇都宮市,36.561821,139.879837,028-627-1428,028-627-1461,320-0034,宇都宮市泉町1-26,月~水・金9:00~18:15 土9:00~17:00,無,,
ふくろう薬局,092010,栃木県,宇都宮市,36.561855,139.875702,028-611-3201,028-611-3202,320-0035,宇都宮市伝馬町4-32 大造ビル1階,9:00~18:00,有,028-611-3201,
ファ-コス薬局くじら,,,,36.571659,139.872482,028-600-5751,028-600-5752,320-0041 ,宇都宮市松原2-7-25,月~水・金9:00~18:00木9:00~17:00土9:00~13:00,無,,郵便番号
ピノキオファ-マシ-ズ桜店,092010,栃木県,宇都宮市,36.56657,139.868546,028-612-2782,028-612-2783,320-0043,宇都宮市桜2-5-40,月火水金土9:00~18:00 木9:00~17:00,有,028-612-2782,
アルファ-ム薬局一の沢店,092010,栃木県,宇都宮市,36.568047,139.862534,028-649-0310,028-647-5552,320-0046,宇都宮市西一の沢町2-10,月火水金土9:30~18:30 木9:00~17:00,有,090-1436-2176,
ハ-モニ-薬局北一の沢店,092010,栃木県,宇都宮市,36.569618,139.866028,028-621-7717,028-621-7715,320-0048,宇都宮市北一の沢町4-10ジュネス・ガ-デン105,月火水金9:00~18:30 木土9:00~17:00,有,028-621-7717,
ウエルシア薬局宇都宮戸祭店,092010,栃木県,宇都宮市,36.572182,139.868332,028-650-4755,028-650-4756,320-0053,宇都宮市戸祭3022,月~土 9:00~20:00日・祝 10:00~14:00、15:00~19:00,無,,
中央薬局東峰店,092010,栃木県,宇都宮市,36.538933,139.921265,028-663-8777,082-663-8775,320-0055,宇都宮市東峰町3441-158,8:30~19:00,有,090-1990-6205,
そうごう薬局宇都宮店,092010,栃木県,宇都宮市,36.579544,139.868378,028-624-5609,028-622-7064,320-0057,宇都宮市中戸祭1-8-21,月~金8:30~18:00土09:00~13:00,有,028-624-5609,
とちぎ薬局本店,092010,栃木県,宇都宮市,36.579567,139.868942,028-650-6086,028-650-6087,320-0057,宇都宮市中戸祭1-7-2,月-金9:00-18:00 土9:00-13:00 日祝日休み,有,028-678-2256,
とちぎ薬局宝木店,092010,栃木県,宇都宮市,36.581104,139.858994,028-680-4160,028-680-4163,320-0061,宇都宮市宝木町1-2589-21,9:00~18:30,有,090-1501-5425,
UK駒生薬局,092010,栃木県,宇都宮市,36.581856,139.8396,028-652-7088,028-652-7089,320-0065,宇都宮市駒生町1359-93,9:00~18:00,有,080-5686-1103,
セイムスケヤキ薬局,092010,栃木県,宇都宮市,36.584541,139.847473,	028-	623-	5567,nan,320-0065,宇都宮市駒生町3367-176,月-木:9:00-14:00 15:00-18:30金:9:00-12:30 15:00-19:30土:9:00-13:00日祝:休,有,,
調剤薬局ツルハドラッグ宇都宮野沢店,092010,栃木県,宇都宮市,36.607185,139.857086,028-666-3811,028-666-3811,320-0071,宇都宮市野沢町53-1,月・火・木・金9:00~19:00 水9:00~18:00土9:00~15:00,有,028-666-3811,
東邦薬局宇都宮野沢店,092010,栃木県,宇都宮市,36.605568,139.856812,028-665-3421,028-665-3422,320-0071,宇都宮市野沢町45-1,9:00-17:00,有,080-5691-3895,
あい薬局,092010,栃木県,宇都宮市,36.559017,139.883728,028-651-2333,028-651-2338,320-0806,宇都宮市中央1-3-8,9:00~18:00(水曜日は17時まで),有,070-2194-7415,
こばと薬局,092010,栃木県,宇都宮市,36.557198,139.879959,028-680-5823,028-680-5823,320-0807,宇都宮市松が峰2-4-3,9:00~19:30,有,028-680-5823,
しんわ薬局大通り店,092010,栃木県,宇都宮市,36.560589,139.894958,028-612-2251,028-612-2252,320-0811,宇都宮市大通り4-3-8,9:00~18:15,有,028-612-2251,
そうごう薬局 宇都宮中央店,092010,栃木県,宇都宮市,36.558987,139.889633,028-651-5751,028-632-7322,320-0813,宇都宮市二番町1-9,月9:00~17:30/火9:00~17:30/水9:00~17:30/木9:00~17:30/金9:00~17:30/土9:00~17:30,有,028-651-5751,
総合メディカル株式会社そうごう薬局宇都宮中央店,092010,栃木県,宇都宮市,36.558712,139.888748,0286515751,0286327322,320-0813,宇都宮市二番町1□9,月9:00~17:30/火9:00~17:30/水9:00~17:30/木9:00~17:30/金9:00~17:30/土9:00~17:30,有,0286515751,
カケル薬局,092010,栃木県,宇都宮市,36.530277,139.880127,028-680-5511,028-680-5527,320-0826,宇都宮市西原町558-20,月~水、金9:00~18:00、木8:00~16:00、土9:00~15:00,有,070-2656-2818,
ワイアンドワイ薬局宇都宮店,092010,栃木県,宇都宮市,36.550781,139.875107,028-688-7423,028-688-7424,320-0831,宇都宮市新町1-2-10,月~金9:00~18:00 土9:00~13:00,無,,
ピノキオ薬局陽南店,092010,栃木県,宇都宮市,36.535549,139.869629,028-684-0864,028-684-0865,320-0834,宇都宮市陽南3-11-40,9:00~18:00,有,028-684-0864,
共創未来宇都宮薬局,092010,栃木県,宇都宮市,36.533768,139.870041,028-684-2838,028-684-2839,320-0834,宇都宮市陽南3-12-38,平日9:00~18:00,有,028-684-2838,
ピノキオ薬局花園店,092010,栃木県,宇都宮市,36.548904,139.873322,028-688-7381,028-688-7382,320-0843,宇都宮市花園町17-12ヒロビル1階,月~金9:00~18:00 土9:00~13:00,有,028-688-7381,
アルファ-ム薬局鶴田店,092010,栃木県,宇都宮市,36.549755,139.862152,028-615-7840,028-615-7841,320-0851,宇都宮市鶴田町3058-14,月火木金土8:30~17:30,有,070-1002-0173,
ピノキオ薬局鶴田店,092010,栃木県,宇都宮市,36.550831,139.854645,028-678-4871,028-678-4872,320-0851,宇都宮市鶴田町1295-3,平日9:00~18:30 土9:00~17:30,有,028-678-4871,
中央薬局鶴田北店,092010,栃木県,宇都宮市,36.54644,139.847412,028-649-1000,028-649-1001,320-0851,宇都宮市鶴田町1503-2,9:00~18:30,有,090-2259-7460,
薬樹薬局鶴田,092010,栃木県,宇都宮市,36.558254,139.855392,028-649-3265,028-649-3266,320-0851,宇都宮市鶴田町720-1,月火水金9:00~18:00 土9:00~16:00 日・祝:休業日,無,,
アイン薬局砥上店,092010,栃木県,宇都宮市,36.533951,139.848984,028-612-8418,028-612-8419,320-0852,宇都宮市下砥上町691-1,月火水金土9:30~18:30 木9:30~17:30 日9:30~13:00,有,028-612-8418,
エムハ-ト薬局 つるた店,092010,栃木県,宇都宮市,36.563114,139.854645,028-649-0120,028-649-0121,320-0857,宇都宮市鶴田2-6-8,月~金 9:00~17:30土 9:00~13:00,有,028-649-0120,
にじいろ薬局,092010,栃木県,宇都宮市,36.555012,139.855103,028-612-3611,028-612-3656,320-0857,宇都宮市鶴田町2-38-36,月~水・金9:00~18:00 木9:00~17:00土9:00~13:00,無,,
株式会社ウィ-ズオ-ロラ薬局,092010,栃木県,宇都宮市,36.561951,139.856949,	028-	649-	0292,nan,320-0857,宇都宮市鶴田1-8-12,月・火・金 9:00-18:00水・日   9:00-12:30土     9:00-17:00,無,,
ハ-モニ-薬局,092010,栃木県,宇都宮市,36.555683,139.879288,028-610-0153,028-610-0154,320-0861,宇都宮市西3-1-11,月~金9:00~18:30土9:00~17:00,有,028-610-0153,
ハ-モニ-薬局西小学校前店,092010,栃木県,宇都宮市,36.558781,139.878525,028-639-5377,028-639-5376,320-0861,宇都宮市西1-1-25スカ-ルFUJI101,9:00~19:00,有,028-639-5377,
おおき調剤薬局,092010,栃木県,宇都宮市,36.557701,139.874176,028-610-9980,028-610-9981,320-0867,宇都宮市大寛2-2-1,月火水金8:50~13:00 15:00~19:00  木8:50~17:00 土8:50~13:00,有,028-610-9980090-3317-6108,
株式会社ふくろう薬局アクア薬局,092010,栃木県,宇都宮市,36.560551,139.875458,028-688-0953,028-688-0954,320-0867,宇都宮市大寛1-1-6-1F,月~土9:00~18:00,有,080-4817-8384,
エムハ-ト薬局えそしま店,092010,栃木県,宇都宮市,36.524368,139.863663,028-684-1910,028-684-1911,321-0107,宇都宮市江曽島2-9-19,月~土9:00~18:00 木9:00~17:00,有,028-684-1910,
中央薬局江曽島店,092010,栃木県,宇都宮市,36.527775,139.867706,028-615-2000,028-615-2200,321-0107,宇都宮市江曽島3-785-5,月火水金8:30~18:30 木8:30~16:30 土8:30~12:30,有,028-615-2000(転送),
ウエルシア薬局宇都宮屋板町店,092010,栃木県,宇都宮市,36.520844,139.897751,028-680-4617,028-680-4618,321-0112,宇都宮市屋板町578-647,9:30~13:30  14:30~18:30,無,,
フレンド薬局 星ノ宮,092010,栃木県,宇都宮市,36.520775,139.892975,028-656-0356,028-656-0730,321-0112,宇都宮市屋板町1084-4,月火木金8:45~18:30 水8:45~16:45 土8:45~12:00,有,070-4471-5835,
ほほえみ薬局,092010,栃木県,宇都宮市,36.520844,139.897751,028-666-5706,028-666-5708,321-0112,宇都宮市屋板町578-642,9:00~18:00,有,070-4792-5610,
宇都宮中央薬局,092010,栃木県,宇都宮市,36.50946,139.899185,028-688-7120,028-688-7150,321-0112,宇都宮市屋板町562-6,月~土9:00~18:00,有,080-3470-5800,
アポロン薬局,092010,栃木県,宇都宮市,36.493042,139.903732,028-688-1133,028-688-1134,321-0118,宇都宮市インタ-パ-ク3-6-9,月火水金9:00~18:00 木土9:00~17:00,有,080-8776-3499,
そうごう薬局宇都宮南店,092010,栃木県,宇都宮市,36.491024,139.873276,028-688-3411,028-653-3952,321-0132,宇都宮市雀の宮5-1-7,月火水金土9:00~18:00 木9:00~17:00 日祝休み,有,028-688-3411(転送電話),
ピノキオファ-マシ-ズ雀の宮店,092010,栃木県,宇都宮市,36.493217,139.872269,028-666-0467,028-666-0468,321-0132,宇都宮市雀の宮4-4-7,月~土9:00~18:00日9:00~12:00木・日曜午後・祝日休み,有,080-4371-8855,
ふれあい薬局,092010,栃木県,宇都宮市,36.497776,139.869461,028-653-0980,028-653-0980,321-0135,宇都宮市五代2-1-6,月火木金8:30~19:00 水9:00~17:00 土日8:30~13:00 祝日休み,有,028-653-0980(転送),
ドラッグセイムスみどり野薬局,092010,栃木県,宇都宮市,36.501015,139.860916,	028-	678-	6615,	028-	678-	6616,321-0136,宇都宮市みどり野町15-6,月-土 9:00-13:00 14:00-18:00日祝休み,無,	028-	678-	6615,
くるみ薬局,092010,栃木県,宇都宮市,36.484589,139.869003,028-653-7133,028-615-7725,321-0143,宇都宮市南高砂町8-38,月火水金8:45~18:15 木8:45~16:45 土8:45~12:15,有,028-653-7133,
中央薬局,092010,栃木県,宇都宮市,36.481922,139.871765,028-655-2770,028-655-6969,321-0143,宇都宮市南高砂町11-21,平日8:30~18:00 土曜8:30~12:30,有,070-4315-1770,
さくら薬局宇都宮店,092010,栃木県,宇都宮市,36.482769,139.871964,028-688-1310,028-688-1314,321-0144,宇都宮市末広1-2-17,月~金9:00~17:30土9:00~11:30,有,028-688-1310,
フレンド薬局,092010,栃木県,宇都宮市,36.482426,139.871948,028-653-6904,028-653-7159,321-0144,宇都宮市末広2丁目1-22,月~金9:00~18:00 土9:00~12:30,有,090-4626-0260,
ミドリ薬局栃木街道店,092010,栃木県,宇都宮市,36.524029,139.848892,028-688-7707,028-688-8299,321-0151,宇都宮市西川田町234-2,月~水・金9:00~12:30、14:30~18:30土9:00~12:30、14:30~17:30,有,028-658-1178,
有限会社ミドリ薬局,092010,栃木県,宇都宮市,36.512489,139.851364,028-658-1178,028-658-1260,321-0152,宇都宮市西川田5-11-1,月~水・金9:00~13:00、15:00~19:00土9:00~13:00,有,028-658-1178,
西海薬局,092010,栃木県,宇都宮市,36.52877,139.861435,028-658-1753,028-658-1931,321-0163,宇都宮市宮本町18-10,月~金9:00~19:00土9:00~17:00,無,,
ウエルシア薬局 宇都宮双葉店,092010,栃木県,宇都宮市,36.529686,139.858276,028-684-2512,028-684-2513,321-0164,宇都宮市双葉3丁目15-2,9:00~20:00,有,028-684-1272,
れもん薬局,092010,栃木県,宇都宮市,36.522331,139.863083,028-684-1631,028-684-1632,321-0165,宇都宮市緑1-2180-14,"月火水金9:00~13:00,15:00~19:00、木9:00~17:00,土9:00~16:00",有,028-684-1631,
セイムスおもちゃのまち薬局,093610,栃木県,下都賀郡壬生町,36.465473,139.833862,	0282-	86-	2781,	0282-	86-	2821,321-0202,下都賀郡壬生町おもちゃのまち1-8-1,月、火、木、金曜日 9:00-18:00水曜日 10:00-18:00土曜日 9:00-17:00,無,	0282-	86-	2781,
アイン薬局獨協医大店,,,,36.472305,139.825363,0282-25-5461,0282-25-5463,321-0207 ,下都賀郡壬生町大字北小林880 アメニティ棟1階,月~土9:00~18:00第3土9:00~12:00,有,0282-25-5461,郵便番号
ワイアンドワイ薬局,093610,栃木県,下都賀郡壬生町,36.445843,139.797272,0282-82-9820,0282-82-9824,321-0219,下都賀郡壬生町福和田1003-7,月火木金8:30~18:00 土8:30~16:30 水8:00~16:00,無,,
中央薬局壬生店,093610,栃木県,下都賀郡壬生町,36.422955,139.80629,0282-21-7712,0282-21-7713,321-0222,下都賀郡壬生町駅東町5-4,月火木金8:30~18:30 水8:30~16:30 土8:30~12:30,有,080-9289-7590,
さくら薬局壬生店,093610,栃木県,下都賀郡壬生町,36.42836,139.800827,0282-81-0335,0282-81-336,321-0227,下都賀郡壬生町通町7-1,月火木金8:30~18:00 水8:30~16:30 土8:30~12:30,有,0282-81-0335,
東雲薬局,093610,栃木県,下都賀郡壬生町,36.429207,139.804092,0282-81-1189,0282-81-1193,321-0227,下都賀郡壬生町通町1-25,8:30~17:30,有,0282-81-1189,
カケル薬局大谷店,092010,栃木県,宇都宮市,36.592289,139.820511,028-666-8787,028-666-8753,321-0345,宇都宮市大谷町1308-1,月火金9:00~20:30 水9:00~17:30 木8:00~16:00 日9:00~12:00,有,070-2656-2818,
ピノキオファ-マシ-ズ宇都宮西店,092010,栃木県,宇都宮市,36.560814,139.835602,028-649-3230,028-649-3231,321-0346,宇都宮市下荒針町3613-1,9:00~18:00,有,028-649-3230,
木の薬局下荒針店,092010,栃木県,宇都宮市,36.57132,139.835266,028-649-0809,028-649-0807,321-0346,宇都宮市下荒針町3396-8,月~水・金9:00~18:00木・土9:00~17:00日・祝日休,有,028-649-0809,
アルファ-ム薬局飯田店,092010,栃木県,宇都宮市,36.564129,139.813477,028-649-3007,028-647-5161,321-0347,宇都宮市飯田町259-63,月~土9:00~18:00,有,090-1425-9986,
シルキ-薬局,092010,栃木県,宇都宮市,36.690437,139.922211,028-688-0531,028-688-0532,321-0403,宇都宮市下小倉町2219-7,月・火・水・金:8:30~18:00 土:8:30~17:00 木・日・祝日:休,有,028-688-0531,
ゆず薬局,092010,栃木県,宇都宮市,36.674263,139.898224,028-680-7377,028-680-7457,321-0414,宇都宮市中里町323-3,月8:30~17:30/火8:30~17:30/水8:30~17:30/金8:30~17:30/土8:30~12:30/備考:12:30~14:30 閉局,無,,
ミキ薬局那須南店,092150,栃木県,那須烏山市,36.660191,140.152115,0287-80-0165,0287-80-0166,321-0621,那須烏山市中央3-1-14,9:00~18:00,有,080-7317-0493,
にこにこ薬局,092150,栃木県,那須烏山市,36.637444,140.153595,0287-80-0131,0287-80-0132,321-0634,那須烏山市野上637-15,9:00~18:00,有,080-8776-3494,
オリオン薬局,092010,栃木県,宇都宮市,36.570133,139.947235,028-664-2336,028-664-1885,321-0901,宇都宮市平出町400-7,8:30~18:00,有,028-664-2336,
ハ-モニ-薬局柳田店,092010,栃木県,宇都宮市,36.569679,139.961594,028-683-3808,028-683-3809,321-0902,宇都宮市柳田町1286-4,月~水・金9:00~18:30木9:00~17:00土9:00~14:00,有,028-683-3808,
ツルハドラッグ宇都宮陽東店,092010,栃木県,宇都宮市,36.551102,139.927979,028-615-7153,028-615-7153,321-0904,宇都宮市陽東2-16-25,月~金9:00~19:00土9:00~15:00,無,,
きぬばし薬局,092010,栃木県,宇都宮市,36.54435,139.955139,028-612-6490,028-612-6491,321-0912,宇都宮市石井町2338-1,月9:00~18:30/火9:00~17:00/水9:00~17:00/木9:00~18:30/金9:00~17:00/土9:00~17:30,無,,
とちぎ薬局瑞穂野店,092010,栃木県,宇都宮市,36.508156,139.918564,028-657-6588,028-657-6599,321-0921,宇都宮市瑞穂2-14-16,月~金9:00~18:00 土9:00~13:00,有,028-666-8865,
メ-プル薬局下栗店,092010,栃木県,宇都宮市,36.527748,139.91806,028-612-7287,028-612-7288,321-0923,宇都宮市下栗町2281番地7,9:00~17:00,有,080-7317-0496,
セイムス下栗薬局,092010,栃木県,宇都宮市,36.537727,139.902023,	028-	637-	4856,nan,321-0924,宇都宮市下栗1-21-13,月火木金09:00-18:30 水09:00-12:30土09:00-14:00日祝 定休日,有,,
ウエルシア薬局宇都宮平松本町店,092010,栃木県,宇都宮市,36.539196,139.906677,028-651-0877,028-651-0878,321-0932,宇都宮市平松本町1217-5,9:00~22:00,有,090-6000-2508,
のぞみ薬局,092010,栃木県,宇都宮市,36.542568,139.904282,028-651-3315,028-651-3316,321-0932,宇都宮市平松本町1138-10,8:30~17:30,有,028-651-3315,
調剤薬局ツルハドラッグ宇都宮平松本町店,092010,栃木県,宇都宮市,36.542847,139.903824,028-614-5268,028-614-5268,321-0932,宇都宮市平松本町1139-1,月~土9:00~13:00、14:00~18:00,無,,
ライム薬局,092010,栃木県,宇都宮市,36.540592,139.897003,028-610-7655,028-610-7656,321-0933,宇都宮市簗瀬町2561-7,月~水・金 8:30~18:30木 8:30~16:30土 8:30~13:15,有,070-362-53567,
エムハ-ト薬局みね店,092010,栃木県,宇都宮市,36.554436,139.912933,028-651-3696,028-634-9101,321-0942,宇都宮市峰1-29-19,月・火・水・金8:30~18:00土8:30~17:00,有,028-651-3696,
ホ-ム薬局,092010,栃木県,宇都宮市,36.555038,139.901138,028-614-8283,028-614-8284,321-0945,宇都宮市宿郷1-15-9細井ビル1F,9:00~18:00,無,,
(有)富士ファ-マシ-みつば薬局,092010,栃木県,宇都宮市,36.562729,139.895126,028-680-6300,028-680-6333,321-0954,宇都宮市今泉2-20-10エクセレンス今泉106,月~水・金・土9:00~14:00、15:00~18:00,有,090-7830-7792,
ピノキオ薬局駅東店,092010,栃木県,宇都宮市,36.565529,139.912582,028-613-3066,028-613-3067,321-0954,宇都宮市元今泉7-19-1クリニックステ-ションビル1F,月火水金9:00~18:30 木9:00~17:00 土9:00~17:30,有,028-613-3066,
宇都宮駅東調剤薬局,092010,栃木県,宇都宮市,36.562122,139.902252,028-678-3085,028-678-3086,321-0954,宇都宮市元今泉1-8-1,月~金8:45~18:00 土8:45~12:45,無,,
コスモ調剤薬局FKD宇都宮店,092010,栃木県,宇都宮市,36.573658,139.90004,028-650-5578,028-650-5583,321-0962,宇都宮市今泉町237FKDショッピングプラザ2F,月・火・木~土10:00~19:00,有,080-1692-8160,
フクシ宇都宮薬局,092010,栃木県,宇都宮市,36.561146,139.896484,028-616-3335,028-616-3336,321-0964,宇都宮市駅前通り1-1-9駅前通り第一ビル1階,月~金9:00~17:30 土9:00~13:00,有,070-3140-5682,
中央薬局今泉店,092010,栃木県,宇都宮市,36.566055,139.896515,028-627-0777,028-627-0776,321-0966,宇都宮市今泉3-10-10,月~金8:30~18:00 土8:30~12:00,有,090-7722-4862,
フレンド薬局風ノ宮,092010,栃木県,宇都宮市,36.569706,139.895309,028-666-8082,028-666-8535,321-0967,宇都宮市錦1-565-6,9:00~18:00,有,070-4471-5835,
ピノキオ薬局今泉店,092010,栃木県,宇都宮市,36.569168,139.914429,028-678-2818,028-678-2819,321-0968,宇都宮市中今泉5丁目29-13,月火水金土9:00~18:00 木9:00~17:00,nan,028-678-2818,
ウエルシア宇都宮駅東口調剤薬局,092010,栃木県,宇都宮市,36.558346,139.900894,028-614-1272,028-614-1273,321-0969,宇都宮市宮みらい1-35,月~土9:00~18:00,無,,
エムハ-ト薬局かいどう店,092010,栃木県,宇都宮市,36.609001,139.926529,028-683-3003,028-683-3007,321-0971,宇都宮市海道町153-9,月火水金9:00~18:00 土9:00~12:00,有,028-683-3003,
とちぎ薬局岩曽店,092010,栃木県,宇都宮市,36.590176,139.895096,028-688-7216,028-688-7218,321-0973,宇都宮市岩曽町18-16,9時~18時,無,,
わかば薬局,092010,栃木県,宇都宮市,36.584305,139.904419,028-613-3386,028-613-3387,321-0973,宇都宮市岩曽町1087-2,月火木土9:00~19:30 水金9:00~18:00 日9:00~13:00 臨時休業あり,有,028-613-3386,
ピノキオ薬局プラザ店,092010,栃木県,宇都宮市,36.576633,139.895035,028-600-7657,028-600-7658,321-0974,宇都宮市竹林町973-3,9:00~18:00,無,,
竹林薬局,092010,栃木県,宇都宮市,36.580894,139.909134,028-627-4193,028-624-9393,321-0974,宇都宮市竹林町503-1,9:00~17:30,有,028-627-4193,
日本調剤宇都宮薬局,092010,栃木県,宇都宮市,36.555115,139.882812,028-650-4575,028-650-4582,321-0974,宇都宮竹林町911-1,月-金9:00-19:00  土9:00-18:00,有,080-1006-0819,
さつき薬局,092010,栃木県,宇都宮市,36.595119,139.936371,028-666-8397,028-666-8398,321-0981,宇都宮市上野町7001-14,9:00~18:00,有,028-666-8397,
ファ-コス薬局ありす,092010,栃木県,宇都宮市,36.595119,139.937103,028-683-1606,028-683-1607,321-0981,宇都宮市上野町7002-4,9:00~18:00,有,028-683-1606,
みどり調剤薬局,092010,栃木県,宇都宮市,36.591095,139.925171,028-664-1421,028-664-1012,321-0982,宇都宮市御幸ヶ原町75-3,月火水金9:00~18:00、木土9:00~17:00,有,028-664-1421,
そうごう薬局今市店,092061,栃木県,日光市,36.722794,139.68573,0288-30-3931,0288-22-3952,321-1261, 日光市今市379-16,月0900-1800/火0900-1800/水0900-1800/木0900-1800/金0900-1800/土0900-1300/備考:土曜日1300-1700、日曜・祝日0900-1700周囲の薬局と協力し、輪番制で開局,有,0288-30-3931,
とちぎ薬局今市店,092061,栃木県,日光市,36.722794,139.68573,0288-30-1181,0288-21-1041,321-1261,日光市今市379-18,平日9:00~18:00、土曜日9:00~13:00,有,090-1661-8245,
長谷川薬局,092061,栃木県,日光市,36.724724,139.687973,0288-22-1212,0288-21-0117,321-1261,日光市今市713,"9:00~17:30 日,祝休み",有,0288-22-1212,
ピノキオ薬局今市店,092061,栃木県,日光市,36.716053,139.682037,0288-30-7791,0288-30-7792,321-1262,日光市平ヶ崎608-4,月・水9:00~18:00火・木・金9:00~20:00土9:00~13:00,有,0288-30-7791,
アルファ-ム薬局並木店,092061,栃木県,日光市,36.720432,139.696976,0288-30-3355,0288-22-7744,321-1271,日光市並木町1-14,9:00~18:00,有,090-4757-8408,
はせがわ調剤薬局今市本町店,092061,栃木県,日光市,36.716335,139.698929,0288-22-2880,0288-22-2881,321-1272,日光市今市本町28-3,月~水・金9:00~18:00木9:00~17:00土9:00~16:30,有,0288-22-1212,
きすげ薬局,092061,栃木県,日光市,36.748024,139.614944,0288-53-5321,0288-53-5323,321-1405,日光市石屋町2-6,月木9:00~17:00 火水金 9:00~19:00 土9:00~13:00,有,080-1018-9455,
とちぎ薬局日光店,092061,栃木県,日光市,36.753529,139.577026,0288-50-1331,0288-53-0115,321-1436,日光市久次良町1771,月~金9:00~17:30  土9:00~13:00,有,080-8442-5712,
調剤薬局ツルハドラッグ日光安良沢店,092061,栃木県,日光市,36.749966,139.580017,0288-50-1860,0288-50-1860,321-1436,日光市久次良町1773-1,月~金9:00~13:00、14:00~18:00,有,070-7400-3495,
プラザ薬局国本店,092010,栃木県,宇都宮市,36.61573,139.837982,028-612-3780,028-612-3781,321-2118,宇都宮市新里町丁1608-109,月火水金土9:00~18:30,有,090-7264-0188,
アイン薬局日光医療センタ-店,092061,栃木県,日光市,36.709911,139.728607,0288-30-3600,0288-21-3300,321-2335,日光市森友145-1,9:00~18:00,有,0288-30-3600,
たかとく薬局森友店,092061,栃木県,日光市,36.717182,139.724503,0288-30-3381,0288-30-3382,321-2335,日光市森友字大塚158-1,月~金:9:00~18:00、土:9:00~17:00,有,0288-30-3381,
コスモファ-マ薬局今市店,092061,栃木県,日光市,36.72525,139.722092,0288-30-5080,0288-30-5083,321-2336,日光市荊沢599-134,月~金9:00~18:00土9:00~13:00,無,,
すぎなみ薬局,092061,栃木県,日光市,36.725788,139.724319,0288-30-3256,0288-30-3257,321-2336,日光市荊沢600-35,月~金9:00~18:30祝日、年末年始は閉局,有,070-2194-7417,
フタバ快生堂薬局,092061,栃木県,日光市,36.824512,139.716721,0288-77-0074,0288-77-0880,321-2345,日光市鬼怒川温泉大原1396-11,9:00~18:00,有,0288-77-0074,
りんご薬局,092061,栃木県,日光市,36.691757,139.740677,0288-26-9389,0288-26-9390,321-2345,日光市木和田島3041-1,月~水・金9:00~18:30 木8:30~16:30土9:00~16:00,有,070-3984-3998,
ウエルシア薬局日光今市店,092061,栃木県,日光市,36.744259,139.719162,0288-30-1137,0288-30-1138,321-2405,日光市芹沼字石神殿1461-2,月~日10:00~19:00,無,,
鬼怒川調剤センタ-たかとく薬局,092061,栃木県,日光市,36.785191,139.706055,0288-70-3050,0288-70-3051,321-2523,日光市高徳1406-4,月~金9:00~18:00 土9:00~17:00,有,0288-70-3050,
アルファ-ム薬局清原台店,092010,栃木県,宇都宮市,36.545017,140.000977,028-670-2331,028-667-1670,321-3223,宇都宮市清原台6丁目2-32,月・火・木・金8:30~18:00 水・土8:30~17:30,有,090-1436-2457,
きよはらだい薬局,092010,栃木県,宇都宮市,36.551613,139.996399,028-670-5505,028-670-5515,321-3223,宇都宮市清原台5-18-35,月火水金9:00~18:30 土9:00~17:00 木日9:00~12:00,有,028-670-5505,
あまいろ薬局,092010,栃木県,宇都宮市,36.575012,139.992462,028-678-2875,028-678-2876,321-3226,宇都宮市ゆいの杜7-9-2,月~水・木9:00~18:30 土9:00~17:00,無,,
ウエルシア薬局宇都宮テクノポリス店,092010,栃木県,宇都宮市,36.567314,140.001572,028-670-8310,028-670-8340,321-3226,宇都宮市ゆいの杜5-26-29,月~土9:00~20:00 日・祝日9:00~13:30/14:30~18:00,有,028-670-8310,
ペパ-ミント薬局,092010,栃木県,宇都宮市,36.526474,139.996628,028-612-6640,028-612-6641,321-3232,宇都宮市氷室町1691-3,月~金 9:00~19:00土 9:00~17:00,有,070-3625-3578,
つくも薬局芳賀,093459,栃木県,芳賀郡芳賀町,36.543659,140.062302,028-678-5895,028-678-5896,321-3307,芳賀郡芳賀町祖母井南3-1-17,月~水・金9:00~18:30 木・土9:00~13:30祝10:00~13:30,有,028-678-5895,
メ-プル薬局市貝店,093440,栃木県,芳賀郡市貝町,36.538853,140.107758,0285-81-6450,0285-81-6451,321-3423,芳賀郡市貝町市塙1672-4,9:00~17:00,有,090-9149-9999,
とちぎ薬局芳賀店,093440,栃木県,芳賀郡市貝町,36.535976,140.082062,0285-81-6822,0285-81-6823,321-3424,芳賀郡市貝町大字上根162-5,9:00~18:00,無,,
ウエルシア薬局益子大沢店,093424,栃木県,芳賀郡益子町,36.491528,140.102203,0285-70-2468,0285-70-2488,321-4104,芳賀郡益子町大沢138-1,平日9:00~19:00 土9:00~18:00 日9:00~13:00,無,,
中央薬局ましこ店,093424,栃木県,芳賀郡益子町,36.45826,140.103409,0285-70-1321,0285-70-1322,321-4217,芳賀郡益子町益子1748-2,月~水・金8:30~18:00 木8:30~17:00土8:30~12:30,有,080-8890-8511,
中央薬局長堤店,093424,栃木県,芳賀郡益子町,36.432514,140.082748,0285-85-5520,0285-85-5521,321-4225,芳賀郡益子町長堤574-2,9:00~18:00,無,,
ウエルシア薬局真岡荒町店,092096,栃木県,真岡市,36.44635,140.018814,0285-80-8412,0285-80-8413,321-4305,真岡市荒町3-44-2,月~水・金・土9:00~19:00,無,,
クオ-ル薬局荒町店,092096,栃木県,真岡市,36.445614,140.016968,0285-80-5100,0285-80-5102,321-4305,真岡市荒町3-46-10,8:30~18:30,有,080-8754-5554,
もおかベリ-薬局,092096,栃木県,真岡市,36.445469,140.015106,0285-81-3582,0285-81-3586,321-4305,真岡市荒町3-49-8,月~水・金9:00~18:00 木・土9:00~13:00,有,070-4795-8412,
ココカラファイン薬局芳賀日赤病院前店,092096,栃木県,真岡市,36.454136,140.016479,0285-83-6051,0285-81-7351,321-4308,真岡市中郷・萩田土地区画整理事業内11街区1号,平日8:30~17:30 土8:30~13:30,有,080-7301-8467,
日本調剤真岡薬局,092096,栃木県,真岡市,36.451355,140.011749,028-580-8281,028-580-8288,321-4308,真岡市中郷281,月~金9:00~18:00 第1・3土9:00~14:00 第2・4・5土9:00~13:00,有,090-4027-6898,
たまち薬局,092096,栃木県,真岡市,36.437134,140.013763,0285-81-5328,0285-81-5329,321-4325,真岡市田町字奉行松1352-5,月・火・金・土8:30~18:00 水・日8:30~12:30,有,080-8776-3509,
中央薬局真岡店,092096,栃木県,真岡市,36.432079,139.998779,0285-81-1088,0285-81-1089,321-4332,真岡市大谷新町13-9,月~水・金8:30~18:30 木・土8:30~12:30,有,080-9984-4232,
ウエルシア薬局真岡高間木店,092096,栃木県,真岡市,36.429668,139.987183,0285-81-1938,0285-81-1968,321-4335,真岡市下高間木2-12-3,月~金9:00~20:30土9:00~15:00 日・祝9:00~13:00,無,,
エムハ-ト薬局もおか店,092096,栃木県,真岡市,36.434093,139.986343,0285-80-3031,0285-80-3032,321-4335,真岡市下高間木1-13-7,8:30~18:30,有,0285-80-3031,
あさひ薬局,092096,栃木県,真岡市,36.441311,139.985687,0285-80-2008,0285-80-2009,321-4337,真岡市上高間木2-25-8,平日9:00~18:00 土9:00~13:00,有,0285-80-2008,
クオ-ル薬局たかせ店,092096,栃木県,真岡市,36.43716,139.978149,0285-84-7749,0285-80-0377,321-4341,真岡市高勢町1-143,月火木金土9:00~18:30 水 9:00~13:00,有,080-8754-5545,
中央薬局寺内店,092096,栃木県,真岡市,36.413776,139.97995,0285-85-0002,0285-85-0003,321-4345,真岡市寺内1383-13,月・火・水・金8:30~18:00 土8:30~17:00第1.3.5木8:30~12:30 ,有,080-6019-3274,
クオ-ル薬局はやぶさ店,092096,栃木県,真岡市,36.442982,139.995575,0285-80-8180,0285-80-8299,321-4361,真岡市並木町3-10-2,平日8:30~18:30 土8:30~15:00,有,080-8754-5558,
コットン薬局 真岡店,092096,栃木県,真岡市,36.441349,139.996109,0285-84-2460,0285-84-2470,321-4361,真岡市並木町2-23-7,月~土 8:30~17:30,有,0285-84-2460,
コスモ薬局真岡店,092096,栃木県,真岡市,36.449787,140.012573,0285-85-8060,0285-85-8061,321-4362,真岡市熊倉町931,平日9:00~18:00、第1、3土9:00~13:00、第2、4、5土9:00~12:00,有,080-2556-0609,
オハナ薬局,092096,栃木県,真岡市,36.456745,139.98912,0285-80-1100,0285-80-1190,321-4363,真岡市亀山323-3,平日8:45~18:30(昼休憩13:00~14:30) 土曜午後と日祝休み,無,,
ピノキオ薬局真岡西店,092096,栃木県,真岡市,36.436672,139.961121,0285-81-0780,0285-81-0781,321-4364,真岡市長田5-8-10,月火木金9:00~18:00 水土9:00~13:00,有,0285-81-0780,
メ-プル薬局寺久保店,092096,栃木県,真岡市,36.447594,140.003067,0285-81-7640,0285-81-7641,321-4368,真岡市寺久保1-2-1,月火木金9:00~18:00 水9:00~17:00 土9:00~13:00,有,070-8385-8161,
くまさん薬局,092096,栃木県,真岡市,36.44059,139.992081,0285-81-3215,0285-81-3216,321-4369,真岡市熊倉3-16-15,月~土9:00~18:00 第1.3.5土9:00~12:00 第2.4水9:00~17:00,有,080-3299-1427,
さわやか薬局,092096,栃木県,真岡市,36.443893,139.992905,0285-81-7071,0285-81-7072,321-4369,真岡市熊倉2-20-1,月~水・金9:00~18:00 木・土9:00~13:00,無,,
スマイル薬局,092096,栃木県,真岡市,36.43745,139.989548,0285-80-7155,0285-80-7156,321-4369,真岡市熊倉3-37-1 コ-ポラスクマクラ101,9:00~19:00,有,080-8776-3492,
なでしこ薬局,092096,栃木県,真岡市,36.440338,139.993073,0285-80-8855,0285-80-8856,321-4369,真岡市熊倉3-12-18,月-水、金:9:00-18:30  木、土:9:00-13:00,無,,
ハ-ト薬局,092096,栃木県,真岡市,36.399574,140.023849,0285-75-8888,0285-75-8887,321-4511,真岡市高田1577-8,月・火・金・土・第1.3.5日曜9:00~18:30 水・木9:00~17:00,有,0285-75-8888,
にのみや薬局,092096,栃木県,真岡市,36.373692,139.967819,0285-73-2800,0285-73-2801,321-4521,真岡市久下田712-11,月9:00~18:30/火9:00~18:30/水9:00~18:30/木9:00~18:30/金9:00~18:30/土9:00~17:30,有,080-8043-4344,
ウエルシア薬局二宮久下田店,092096,栃木県,真岡市,36.376209,139.966827,0285-73-1351,0285-73-1352,321-4522,真岡市久下田西2-8-2,9:00~19:00,無,,
さつき薬局,092053,栃木県,鹿沼市,36.56353,139.777969,0289-65-0203,0289-65-0287,322-0002,鹿沼市千渡1794-7,月~金9:00~18:30 土9:00~16:30,有,0289-65-0203,
せんど薬局,092053,栃木県,鹿沼市,36.567535,139.777115,0289-77-5780,0289-77-5780,322-0002,鹿沼市千渡1868-1,8:30~18:30,有,090-4055-5569,
フクシ千渡薬局,092053,栃木県,鹿沼市,36.56126,139.787262,0289-74-5210,0289-74-5211,322-0002,鹿沼市千渡1670-5,9:00~17:30,有,070-3140-5705,
さつき薬局仁神堂店,092053,栃木県,鹿沼市,36.581444,139.764923,0289-65-5577,0289-65-5578,322-0003,鹿沼市仁神堂町522-7,月・火・水・金9:00~18:30 木・土9:00~12:30,無,,
けんこう薬局,092053,栃木県,鹿沼市,36.564972,139.763397,0289-60-1527,0289-60-1528,322-0021,鹿沼市上野町404-6,月~金8:45~19:00土8:45~17:00,無,,
すみれ薬局,092053,栃木県,鹿沼市,36.551434,139.768478,0289-60-5775,0289-60-5777,322-0025,鹿沼市西茂呂3-8-1,8:30~18:30,有,080-8754-5559,
ウエルシア薬局鹿沼貝島店,092053,栃木県,鹿沼市,36.562519,139.766678,0289-60-2306,0289-60-2307,322-0027,鹿沼市貝島町453-1,月~土9:00~19:00,有,080-7120-1463,
さつき薬局貝島店,092053,栃木県,鹿沼市,36.559692,139.760712,0289-74-5580,0289-74-5581,322-0027,鹿沼市貝島町5006-3,月火水金8:30~18:00 木8:30~12:00 土8:30~16:00,無,,
くらしげ調剤薬局,092053,栃木県,鹿沼市,36.55479,139.768341,0289-63-6239,0289-74-5757,322-0029,鹿沼市西茂呂2-10-16,8:30~18:30,有,0289-63-6239,
つくも薬局西茂呂,092053,栃木県,鹿沼市,36.543762,139.767517,0289-60-7510,0289-60-7511,322-0029,鹿沼市西茂呂4-46-2,月・水・金9:00~20:00 火・木9:00~18:30土9:00~14:00祝日の月・水・金10:00~17:00祝日の火・木・土10:00~13:00,有,0289-60-7510,
フクシ鹿沼薬局,092053,栃木県,鹿沼市,36.567486,139.75708,0289-60-2940,0289-60-2944,322-0033,鹿沼市府所町139-3,9:00~18:00,有,080-3447-2940,
ウエルシア薬局鹿沼蓬莱店,092053,栃木県,鹿沼市,36.55949,139.746979,0289-60-6280,0289-60-6281,322-0042,鹿沼市蓬莱町1011-1,月~金9:00~14:00、15:00~19:00,無,,
つくも薬局万町,092053,栃木県,鹿沼市,36.557114,139.748993,0289-60-1655,0289-60-1656,322-0043,鹿沼市万町937-3 TKビル2-1F,9:00~18:30,有,090-4916-7021,
くらら薬局,092053,栃木県,鹿沼市,36.546551,139.75473,0289-77-7391,0289-77-7392,322-0045,鹿沼市上殿町472-7,9:00~18:00,無,,
つくも薬局上殿,092053,栃木県,鹿沼市,36.54763,139.755981,0289-60-2218,0289-60-2219,322-0045,鹿沼市上殿町1618-10,9:00-19:00,有,0289-60-2218,
ピノキオファ-マシ-ズ鹿沼久保店,092053,栃木県,鹿沼市,36.565277,139.74614,0289-77-7771,0289-77-7772,322-0051,鹿沼市久保町1618-7,月・水・金9:00~18:00 火木 9:00~17:00 土9:00~13:00,有,0289-77-7771,
とちぎ薬局鹿沼中央店,092053,栃木県,鹿沼市,36.569138,139.744965,0289-60-2620,0289-65-6671,322-0065,鹿沼市上材木町1725-3,月~金9:00~18:00 土9:00~12:30,無,,
あおぞら薬局,092053,栃木県,鹿沼市,36.567936,139.74913,0289-77-5167,0289-77-5168,322-0066,鹿沼市上田町2338-2,月~土9:00~19:00,有,0289-77-5167,
アルファ-ム薬局鹿沼店,092053,栃木県,鹿沼市,36.566959,139.743912,0289-60-2515,0289-63-3117,322-0068,鹿沼市今宮町1623-2,月火木金土8:30~17:30 水8:30~12:00,有,090-1999-3089,
さつき薬局磯町店,092053,栃木県,鹿沼市,36.499317,139.754898,0289-77-7870,0289-77-7899,322-0536,鹿沼市磯町3-12,月~水・金8:30~18:30、土 8:30~16:00,有,090-8683-8968,
なかよし薬局,092037,栃木県,栃木市,36.468109,139.74649,0282-91-1510,0282-91-1512,322-0601,栃木市西方町金崎273-3,月火水金9:00~18:00 木9:00~17:00 土9:00~15:00,有,090 6921 8377,
ウエルシア薬局 小山羽川店,092088,栃木県,小山市,36.359364,139.828934,0285-30-7174,0285-30-7173,323-0012,小山市大字羽川字下田57,月~土 9:00~20:00,無,,
フレンド羽川薬局,092088,栃木県,小山市,36.366417,139.836288,0285-23-2240,0285-23-7557,323-0012,小山市羽川524-2,9:00~18:00,無,,
クオ-ル薬局小山ひがし店,092088,栃木県,小山市,36.309719,139.811096,0285-30-2717,0285-30-2719,323-0022,小山市駅東通り1-31-16 柏コ-ポ106,月火水金8:30~19:00 木8:30~16:00 土8:30~12:30 第3日8:30~12:00,有,080-8754-5552,
銀星薬局東口店,092088,栃木県,小山市,36.31023,139.806107,0285-205593,0285-20-5594,323-0022,小山市駅東通り1-2-20,9:00~18:00,有,090-4920-1746,
そうごう薬局ロブレ小山店,092088,栃木県,小山市,36.312309,139.804642,0285-39-7851,0285-39-7852,323-0023,小山市中央町3-7-1 ロブレ7階,月9:00~18:00/火9:00~18:00/水9:00~18:00/木9:00~18:00/金9:00~18:00/土9:00~18:00/備考:第1、第2土曜日 9:00~13:00,有,0285-39-7851,
ピノキオ薬局城山店,092088,栃木県,小山市,36.314411,139.804169,0285-30-5434,0285-30-5438,323-0025,小山市城山町2-9-23アトラスタワ-小山城山町101,9:00~18:00,有,0285-30-5434,
ウエルシア薬局 小山花垣店,092088,栃木県,小山市,36.321903,139.806534,0285-30-7508,0285-30-7507,323-0027,小山市花垣町1-4-29,月~金 9:00~20:00土 9:00~19:00日 9:00~14:00、15:00~19:00,無,,
ウエルシア薬局小山城北店,092088,栃木県,小山市,36.327686,139.820099,0285-30-3735,0285-30-3736,323-0029,小山市城北3-2-8,月・火・木~土9:00~19:00水9:00~14:00、15:00~19:00日9:00~13:00,無,,
中央薬局小山城北店,092088,栃木県,小山市,36.318684,139.81781,0285-25-8008,0285-25-8011,323-0029,小山市城北6-31-2,月火木金8:30~19:00 水土8:30~12:30,有,080-8869-2972,
共創未来小山薬局,092088,栃木県,小山市,36.307804,139.797974,0285-22-1171,0285-22-2811,323-0031,小山市八幡町2-7-15,9:00~18:00,有,0285-22-1171(転送),
SFC薬局天神店,092088,栃木県,小山市,36.306301,139.798889,0285-30-4211,0285-25-4231,323-0032,小山市天神町1-8-16,月火木金9:00~18:00 水9:00~17:00 土9:00~13:00,有,080-6626-6410,
ウエルシア薬局小山天神店,092088,栃木県,小山市,36.306263,139.800018,0285-20-5883,0285-20-5882,323-0032,小山市天神町2-8-52,月9:00~20:00/火9:00~20:00/水9:00~20:00/木9:00~20:00/金9:00~20:00/土9:00~14:00 15:00~20:00,無,,
ウエルシア薬局小山神鳥谷店,092088,栃木県,小山市,36.29491,139.788162,0285-20-7388,0285-20-7389,323-0034,小山市神鳥谷5-17-23,月~金9:30~14:00、15:00~18:30,無,,
めぐみ薬局卒島店,092088,栃木県,小山市,36.338669,139.777924,0285-37-2300,0285-37-2303,323-0061,小山市卒島105-2,9:00~18:00,無,,
イオン薬局小山店,092088,栃木県,小山市,36.321819,139.840454,0285-30-3448,0285-30-3765,323-0806,小山市中久喜1467-1,9:00~21:00,無,,
きりん薬局小山桜通り店,092088,栃木県,小山市,36.321854,139.836761,	0285-	20-	5253,nan,323-0806,小山市中久喜4-1-18,月-金 8:30-13:00 14:15-18:00土 8:30-12:30日祝休み,有,,
ウエルシア薬局 小山城東店,092088,栃木県,小山市,36.313984,139.817642,0285-20-3867,0285-20-3868,323-0807,小山市城東3-23-4,月~土 9:00~20:00,有,080-3390-0642,
クオ-ル薬局小山城東店,092088,栃木県,小山市,36.307278,139.815155,0285-23-6226,0285-23-6255,323-0807,小山市城東1-2-24,月火水金8:30~18:00 土 8:30~16:00,有,080-8754-5549,
ぽぷら薬局,092088,栃木県,小山市,36.310501,139.820068,0285-25-8650,0285-25-8651,323-0807,小山市城東6丁目19-21,月火水金8:30~18:30 土8:30~12:30,有,080-8776-3498,
ウエルシア薬局小山城東店,092088,栃木県,小山市,36.313984,139.817642,	0285-	20-	3867,	-	-	,323-0807,小山市城東3-23-4ウエルシア薬局小山城東店,月-土 9:00-20:00(日、祝休み),無,	-	-	,
きりん薬局小山城東店,092088,栃木県,小山市,36.311146,139.818619,	0285-	20-	5231,	0285-	20-	5232,323-0807,小山市城東6-6-25,月火水金 9:00-12:30 14:30-18:00土 9:00-12:30 14:30-17:00,有,	0285-	20-	5231,
ウエルシア薬局小山犬塚店,092088,栃木県,小山市,36.301277,139.833481,0285-31-3614,0285-31-3617,323-0811,小山市犬塚6-8-2,月~土8:30~19:00,無,,
フレンド南部調剤薬局,092088,栃木県,小山市,36.29702,139.80365,0285-28-6881,0285-28-6889,323-0820,小山市西城南2-18-10,8:30~18:15,有,090-5410-2140,
ウエルシア薬局小山西城南店,092088,栃木県,小山市,36.288853,139.805695,	0285-	31-	4674,nan,323-0820,小山市西城南6-11-6,平日:9:00-20:00日・祝日:10:00-19:00(休憩時間:14:00-15:00),無,,
ウエルシア薬局小山駅南町店,092088,栃木県,小山市,36.303322,139.808746,	0285-	31-	0978,	0285-	31-	0979,323-0822,小山市駅南町2-6-1,月-金曜日 9:00-14:00 15:00-19:00土曜日 9:00-14:00日曜日・祝日 閉局,有,	0285-	31-	0053,
きりん薬局小山駅南店,092088,栃木県,小山市,36.305733,139.806519,	0285-	31-	3751,	0285-	31-	3752,323-0822,小山市駅南町1-15-5,月曜日-水曜日・金曜日 9:00-18:30 木曜日 9:00-17:00 土曜日 9:00-16:30.,有,	070-	4253-	7310,
ウエルシア薬局小山雨ケ谷店,092088,栃木県,小山市,36.283329,139.818146,0285-31-3580,0285-31-3581,323-0826,小山市雨ケ谷802-3,9:00~19:00日・祝閉局,有,0285-31-3655,
クオ-ル薬局雨ヶ谷店,092088,栃木県,小山市,36.280788,139.817047,0285-31-1182,0285-31-1183,323-0826,小山市雨ヶ谷824-46,月~土9:00~19:00 日祝9:00~13:00,有,080-8754-5553,
ウイン調剤薬局小山店,092088,栃木県,小山市,36.2785,139.799438,0285-37-9361,0285-37-9362,323-0827,小山市大字神鳥谷2251-8,平日9:00~18:00,有,080-3859-8921,
パンダ薬局,092088,栃木県,小山市,36.29063,139.803925,0285-38-6064,0285-38-6065,323-0827,小山市神鳥谷1847-3,月~金9:00~18:00土9:00~13:00,有,090-1459-3488,
ピノキオ薬局小山店,092088,栃木県,小山市,36.2785,139.799438,0285-37-9106,0285-37-9107,323-0827,小山市神鳥谷2251-8,9:00~18:00,有,0285-37-9106,
SFC薬局東城南店,092088,栃木県,小山市,36.288807,139.811539,0285-31-0787,0285-28-9636,323-0829,小山市東城南5-6-28,月・火・木・金8:30~18:00 水8:30~16:30土8:30~14:00,有,080-6614-6410,
ふじいろ薬局,092088,栃木県,小山市,36.294273,139.810669,0285-37-6988,0285-37-6989,323-0829,小山市東城南4-6-4,月火木金8:15~18:00 土8:15~17:00,無,,
ウイン調剤薬局小山城南店,092088,栃木県,小山市,36.281128,139.812164,0285-31-0190,0285-31-0161,323-0831,小山市雨ヶ谷町40-3,月~金9:00~18:30 土9:00~16:00,有,0285-31-0160,
ひばり薬局藤岡店,092037,栃木県,栃木市,36.254829,139.644562,0282-61-2011,0282-61-2012,323-1104,栃木市藤岡町藤岡5006,月・火・木・金9:00~18:00水9:00~17:00土9:00~16:30,有,0282-61-2011,
アイン薬局大平店,,,,36.319515,139.711182,0282-45-1797,0282-45-1798,323-4423,栃木市大平町西水代1938-3,9:00~19:00,有,0282-45-1797,郵便番号
とちぎ薬局佐久山店,092100,栃木県,大田原市,36.808659,140.009277,0287-47-4790,0287-47-4791,324-0032,大田原市佐久山2020,月火水金土8:30~17:30 木8:30~16:30,有,090-1559-2883,
アイン薬局那須中央店,092100,栃木県,大田原市,36.855656,139.948135,0287-53-7087,0287-53-7089,324-0036,大田原市下石上1453-1,8:30~18:00,有,0287-53-7087(転送),
とちぎ薬局美原店,092100,栃木県,大田原市,36.86433,140.005585,0287-48-7679,0287-48-7649,324-0047,大田原市美原2丁3197-18,月火水金9:00~19:00 木8:00~16:00  土9:00~15:00,有,090-4087-3132,
ピノキオ薬局美原店,092100,栃木県,大田原市,36.866508,140.010056,0287-23-3490,0287-23-4027,324-0047,大田原市美原2-2831-54,9:00~18:00,無,,
株式会社まつや薬局,092100,栃木県,大田原市,36.865364,140.029419,0287-22-2502,0287-22-2501,324-0052,大田原市城山1-5-31,9:00~18:00,有,0287-22-2502,
ウエルシア薬局アクロスプラザ大田原店,092100,栃木県,大田原市,36.857738,140.023682,0287-20-8211,0287-20-8212,324-0054,大田原市若松町1642-6,月~金10:00~13:00、14:00~19:00 土・日・祝休み,無,,
ピノキオ薬局大田原中央店,092100,栃木県,大田原市,36.867645,140.021667,0287-47-4120,0287-47-4121,324-0056,大田原市中央2-9-33,9:00~18:00,有,0287-47-4120,
まつやドラッグ調剤薬局,092100,栃木県,大田原市,36.868671,140.026337,0287-47-6167,0287-47-6167,324-0056,大田原市中央1-3-15 トコトコ大田原1階,9:00~18:00,無,,
アイン薬局那須赤十字店,092100,栃木県,大田原市,36.88142,140.036987,0287-48-6138,0287-48-6139,324-0062,大田原市中田原1081-9,24時間,有,0287-48-6138,
ファ-マシ-中山那須店,092100,栃木県,大田原市,36.872353,140.038879,0287-20-1120,0287-20-1115,324-0062,大田原市中田原868-10,月~金9:00~18:00 第1・3土9:00~16:00 第2・4・5土9:00~12:00,有,070-2194-7420,
日本調剤大田原薬局,092100,栃木県,大田原市,36.872353,140.038879,0287-20-1331,0287-20-1332,324-0062,大田原市中田原1287-2,月-金9:00-18:00   土9:00-13:00,有,090-1113-5984,
日本調剤那須薬局,092100,栃木県,大田原市,36.878689,140.039505,0287-20-1161,0287-20-1162,324-0062,大田原市中田原1141-5,"月-金9:00-18:00 第1,3土9:00-13:00",有,090-1113-8371,
ピノキオ薬局大田原店,092100,栃木県,大田原市,36.882626,140.028107,0287-20-3395,0287-20-3396,324-0063,大田原市町島水口前10-10,9:00~18:00,有,0287-20-3395(転送対応),
さとう薬局,092100,栃木県,大田原市,36.871136,140.112869,0287-54-2034,0287-54-2086,324-0241,大田原市黒羽向町447-6,8:30~18:30,無,,
やまゆり薬局,092100,栃木県,大田原市,36.871136,140.112869,0287-53-0303,0287-53-0304,324-0241,大田原市黒羽向町6,8:30~18:00,無,,
ファ-コス薬局くろばね,092100,栃木県,大田原市,36.852142,140.1194,0287-53-0201,0287-54-3441,324-0242,大田原市大豆田457-1,月~木・土 8:30~17:30 金 8:30~16:30,有,0287-53-0201,
エムハ-ト薬局なかがわ店,094110,栃木県,那須郡那珂川町,36.765774,140.126801,0287-96-7221,0287-96-3633,324-0501,那須郡那珂川町小川2961-8,月・火・水・金8:30~18:00 木8:30~12:00 土8:30~17:00,無,,
すぎの木薬局,092134,栃木県,那須塩原市,36.929455,140.077209,0287-64-3900,0287-64-3903,325-0014,那須塩原市野間大字神沼456,月火水木金9:00~18:00 土9:00~15:00 日9:00~13:00 祝祭日休み,有,0287-64-3900,
ふじ調剤薬局,092134,栃木県,那須塩原市,36.979988,140.033798,0287-74-2414,0287-74-2415,325-0023,那須塩原市豊浦93-23,月~水・金・土 9:00~18:00木 9:00~17:00,無,,
センタ-薬局黒磯店,092134,栃木県,那須塩原市,36.973072,140.053482,0287-63-9733,0287-63-9741,325-0045,那須塩原市高砂町3-4,9:00~18:00,有,080-2389-3456,
ピノキオファ-マシ-ズ那須塩原店,092134,栃木県,那須塩原市,36.97147,140.047806,0287-74-5552,0287-74-5553,325-0046,那須塩原市大黒町4-22-2,9:00~18:00,有,0287-74-5552,
共創未来黒磯薬局,092134,栃木県,那須塩原市,36.971794,140.046753,0287-62-6698,0287-62-6869,325-0047,那須塩原市若葉町66-120,月~土9:00~18:00,無,,
中央薬局黒磯店,092134,栃木県,那須塩原市,36.972782,140.061295,0287-60-7727,0287-60-7730,325-0055,那須塩原市宮町1-10,月火木金8:30~18:00 水8:30~16:30 土8:30~16:30,有,080-8498-7594,
UK本町薬局,092134,栃木県,那須塩原市,36.971455,140.056656,0287-73-2535,0287-73-2545,325-0056,那須塩原市本町9-30,9:00~18:00,有,080-9034-1103,
ふじ調剤薬局 那須塩原店,092134,栃木県,那須塩原市,36.975658,140.03418,0287-69-6301,0287-69-6302,325-0071,那須塩原市新町115-2,月・火・木・金 9:00~18:00水 9:00~17:00土 9:00~16:00,有,090-7211-0320,
ひまわり薬局阿波町店,092134,栃木県,那須塩原市,36.970932,140.035675,0287-73-2050,0287-73-2070,325-0073,那須塩原市阿波町99-17,9:00~12:00、14:00~18:00,有,0287-73-2050,
スミレ薬局,092029,栃木県,足利市,36.316418,139.496277,0284-64-8888,0284-64-8889,326-0014,足利市鵤木町6-1,月~水・金 9:00~18:00木 8:45~16:45土 9:00~12:30,有,090-6169-3586,
エムシ-関東 ミント薬局,092029,栃木県,足利市,36.324188,139.489487,0284-44-7511,0284-44-7512,326-0015,足利市八椚町492-3,月~金 9:00~18:00土8:45~12:45,有,070-3625-3564,
コジマ薬局,092029,栃木県,足利市,36.318775,139.486328,0284-42-9491,0284-42-4213,326-0022,足利市常見町2-9-11,9:00~19:00,有,0284-42-9491,
シロタ薬局,092029,栃木県,足利市,36.3358,139.473877,0284-44-6116,0284-44-6106,326-0033,足利市花園町25,月・火・水・金9:00~18:00木・土9:00~13:00,有,090-2307-8227,
わかば薬局,092029,栃木県,足利市,36.330017,139.470459,0284-42-1500,0284-42-8258,326-0044,足利市助戸1-642-1,月~水・金9:00~18:00木9:00~17:00土9:00~12:30,有,0284-42-1500,
ファ-コス薬局レインボ-,092029,栃木県,足利市,36.326904,139.466827,0284-40-3385,0284-40-3386,326-0045,足利市千歳町66-2,月火水金9:00~18:00木9:00~17:00土9:00~13:00第3土9:00~10:00日祝:休,有,0284-40-3385,
ジャスミン薬局,092029,栃木県,足利市,36.366554,139.390488,0284-64-8180,0284-64-8181,326-0143,足利市葉鹿町1-16-12,月~水・金 9:00~18:30木 9:00~17:00土 9:00~13:00,有,070-3625-3575,
ファ-コス薬局しらゆり,092029,栃木県,足利市,36.363186,139.390137,0284-65-1135,0284-65-1136,326-0143,足利市葉鹿町1-10-3,8:00~18:00,有,080-1109-6456,
わかば薬局葉鹿店,092029,栃木県,足利市,36.360065,139.387573,0284-65-0033,0284-65-0034,326-0143,足利市葉鹿町333,9:00~18:30,有,0284-65-0033,
中央薬局足利店,092029,栃木県,足利市,36.306622,139.448868,0284-73-2002,0284-73-2003,326-0338,足利市福居町157-4,月・水・金8:30~18:30火8:30~18:00木8:30~17:00土8:30~12:30,有,090-8598-2002,
アイリス調剤薬局,092029,栃木県,足利市,36.352932,139.453979,0284-40-1558,0284-40-1551,326-0808,足利市本城1-1-1495-8,9:00~18:30,有,0284-40-1558,
花・花薬局グリ-ン,092029,栃木県,足利市,36.335266,139.450729,0284-64-7801,0284-64-7802,326-0814,足利市通2-2644-1,8:45~19:00 日祝日・年末年始休み,無,,
ウエルシア薬局 足利朝倉店,092029,栃木県,足利市,36.32304,139.451141,0284-70-0664,0284-70-0665,326-0822,足利市田中町30-3,月~土 9:00~14:00、15:00~19:00,無,,
日本調剤足利薬局,092029,栃木県,足利市,36.324108,139.451096,028-470-3315,028-470-3316,326-0822,足利市田中町99-7,月から土9:00から18:00,有,090-4623-9741,
ハ-ブ薬局,092029,栃木県,足利市,36.323418,139.444275,0284-70-0515,0284-70-0223,326-0824,足利市八幡町1-9-10 PLAZA FSビル,月9:00~18:00/火9:00~18:00/水9:00~18:00/金9:00~18:00/土8:45~17:00,無,,
はやぶさ薬局,092029,栃木県,足利市,36.309841,139.436417,0284-64-7977,0284-64-7978,326-0831,足利市堀込町1659-2,月火木金9:00~17:15 水8:30~16:30 土9:00~13:00,無,,
ファ-コス薬局さとやば,092029,栃木県,足利市,36.310436,139.426865,0284-70-3170,0284-70-3175,326-0835,足利市里矢場町1988-6,月~金9:00~18:00 土9:00~16:00,有,0284-70-3170,
ウエルシア薬局足利五十部店,092029,栃木県,足利市,36.341007,139.424652,0284-20-1096,0284-20-1097,326-0843,足利市五十部町419-1,月~土9:00~13:00、14:00~19:00,無,,
ファ-コス薬局おりひめ,092029,栃木県,足利市,36.339684,139.421249,0284218611,0284218618,326-0843,足利市五十部町284番地3,月~金 9:00~19:00 土曜日 9:00~14:00,有,0284218611,
日本調剤足利日赤前薬局,092029,栃木県,足利市,36.339684,139.421249,0284-20-1888,0284-20-1889,326-0843,足利市五十部町284-13,月~金9:00~19:00 第1.3.5土曜9:00~14:00 第2.4土曜9:00~10:00,有,080-2113-9849,
鹿島中央薬局,,,,36.348579,139.403214,0284-65-0301,0284-65-0302,326-0844 ,足利市鹿島町500-3,月~金9:00~18:00土9:00~17:00,無,,郵便番号
エムズ薬局,092029,栃木県,足利市,36.340851,139.459747,0284-43-2912,0284-43-2913,326-0845,足利市元学町829-20,月~水・金・土9:00~18:30木9:00~17:00,有,0284-43-2912,
ファ-コス薬局アイシ-,092029,栃木県,足利市,36.359547,139.401413,0284-65-0323,0284-65-0324,326-0845,足利市大前町1277-3,月~土9:00~18:00,無,,
中央薬局佐野店,092045,栃木県,佐野市,36.343136,139.557434,0283-20-8857,0283-20-8858,327-0001,佐野市小中町1255-1,月火木金9:00~18:30 水8:30~16:30 土9:00~17:00,有,080-9583-8115,
コアラ薬局,092045,栃木県,佐野市,36.307739,139.572495,0283-21-5448,0283-21-5440,327-0004,佐野市赤坂町167,9:00~18:00,無,,
佐野南調剤薬局,092045,栃木県,佐野市,36.306892,139.583649,0283-22-7875,0283-22-7876,327-0006,佐野市上台町2011-4,9:00~18:00,有,080-8434-2705,
ファ-コス薬局ひまわり,092045,栃木県,佐野市,36.312981,139.584991,0283-27-2650,0283-27-2651,327-0023,佐野市相生町27-1,月8:30~18:30/火8:30~18:30/水8:30~18:30/木8:30~16:30/金8:30~18:30/土8:30~18:30,有,0283-27-2650,
クオ-ル薬局佐野赤門店,092045,栃木県,佐野市,36.312511,139.580902,0283-24-6111,0283-24-8457,327-0024,佐野市亀井町2641,月~金7:15~18:00 第1.3.5土8:00~13:00 第2.4土9:00~13:00,有,080-8754-5546,
有限会社平田薬局 ,092045,栃木県,佐野市,36.298462,139.555756,0283-20-1711,0283-20-1712,327-0043,佐野市君田町30-3,8:30~18:00,有,0283-20-1711,
平田薬局村上店,092045,栃木県,佐野市,36.302055,139.533661,0283-85-7211,0283-85-7233,327-0046,佐野市村上町21-1,9:00~18:00,有,0283-85-7211,
(株)フレンド佐野調剤薬局,092045,栃木県,佐野市,36.362247,139.559235,0283-26-1171,0283-26-1172,327-0103,佐野市石塚町2399-3,月火木金8:45~18:00 水8:45~17:45 土8:45~12:45,有,090-2144-1438,
エンゼル薬局,092045,栃木県,佐野市,36.364361,139.581024,0283-85-8202,0283-85-8204,327-0312,佐野市栃本町2243-7,月~金 9:00~18:30土 9:00~12:30,有,070-3625-3579,
かみや調剤薬局田沼店,092045,栃木県,佐野市,36.366291,139.582184,0283-61-1211,0283-61-1212,327-0312,佐野市栃本町1772,8:45~18:30,有,0283-61-1211,
そうごう薬局田沼店,092045,栃木県,佐野市,36.371513,139.582382,0283-62-9155,0283-62-9154,327-0317,佐野市田沼町1431-2,月~金9:00-17:30,有,0283-62-9155,
亀田調剤薬局,092045,栃木県,佐野市,36.371513,139.582382,0283-61-1233,0283-61-1232,327-0317,佐野市田沼町1431-2,月~金8:30~18:00土8:30~16:00,有,0283-61-1233,
かみや調剤薬局葛生店,092045,栃木県,佐野市,36.400589,139.61142,0283-84-1811,0283-84-1812,327-0501,佐野市葛生東1-635-5,月~土8:45~18:30 日・祝祭日・年末年始は休み,有,0283-84-1811,
コスモ薬局,092045,栃木県,佐野市,36.323982,139.604279,0283-85-9550,0283-85-9551,327-0803,佐野市犬伏新町1306-8,月・火・水・金9:00~18:00木8:30~16:30土8:30~12:30,有,0283-85-9550,
かみや薬局高萩店,092045,栃木県,佐野市,36.300747,139.599594,0283-27-1182,0283-27-1163,327-0821,佐野市高萩町1216-1,月火水金9:00~18:30 木9:00~17:00 土9:00~13:00,有,0283-27-1182,
ウエルシア薬局佐野植上店,092045,栃木県,佐野市,36.301723,139.5793,0283-20-5030,0283-20-5031,327-0832,佐野市植上町1786-2,"9:00~13:00,14:00~19:00",無,,
花・花薬局植上店,092045,栃木県,佐野市,36.303951,139.5802,0283-27-0717,0283-27-0718,327-0832,佐野市植上町1728-1,月火木金9:00~18:30 水9:00~17:00 土9:00~13:00,有,0283-27-0717,
ファ-コス薬局かもめ,092045,栃木県,佐野市,36.298874,139.576126,0283-27-2312,0283-27-2313,327-0835,佐野市植下町2470-1,月・金・土9:00~18:30日・火9:00~13:00 ,有,090-1044-6817,
あきやま薬局,092045,栃木県,佐野市,36.327332,139.57518,0283-25-8882,0283-25-8883,327-0843,佐野市堀米町3966-1,月~金 8:30~18:00第1・3・5土 8:30~13:00第2・4土 9:00~13:00,有,0283-25-8882,
いるか薬局,092045,栃木県,佐野市,36.32766,139.576309,0283-27-0025,0283-27-0026,327-0843,佐野市堀米町3946-7,8:30~18:30,有,0283-27-0025,
エムハ-ト薬局朱雀店,092045,栃木県,佐野市,36.327332,139.57518,0283-20-1320,0283-21-4770,327-0843,佐野市堀米町3947-14,月水木8:15~18:30  火金8:15~17:30 土8:15~12:30,有,080-6965-9663,
かみや薬局,092045,栃木県,佐野市,36.325302,139.571945,0283-21-1818,0283-21-1819,327-0843,佐野市堀米町1723-4,月~金8:45~18:00 第1・3・5土8:45~13:00第2・4土9:30~13:00日・祝休み,有,0283-21-1818,
クオ-ル薬局佐野堀米店,092045,栃木県,佐野市,36.327332,139.57518,0283-27-1747,0283-24-9229,327-0843,佐野市堀米町3921-3,月火木金9:00~18:00 水9:00~12:30 土9:00~12:30,有,080-3533-1526,
スズラン薬局,092045,栃木県,佐野市,36.327332,139.57518,0283-20-2077,0283-20-2095,327-0843,佐野市堀米町3936-7,月~水・金 9:00~18:00木 9:00~17:00土 9:00~13:00,有,070-3625-3563,
花・花薬局堀米南店,092045,栃木県,佐野市,36.323757,139.571991,0283-86-9191,0283-86-9192,327-0843,佐野市堀米町1661-1,月9:00~18:00/火9:00~18:00/水9:00~18:00/木9:00~18:00/金9:00~18:00/土9:00~13:00,有,070-4156-0018,
日本調剤佐野薬局,092045,栃木県,佐野市,36.323757,139.571991,0283-86-9910,0283-86-9911,327-0843,佐野市堀米町1664,月~金9:00~18:00 土9:00~13:00,無,,
アップル調剤薬局,092045,栃木県,佐野市,36.317345,139.594955,0284-23-4410,0283-23-8338,327-0844,佐野市富岡町1571-3,月・火・水・金:8:15-12:45 14:30-18:30木:8:15-12:45 14:30-18:00土:8:15-12:45,有,080-5005-4410,
クレマチス薬局,092037,栃木県,栃木市,36.39415,139.74353,0282-28-6266,0282-28-6267,328-0012,栃木市平柳町2-12-40-5,月・火・水・金9:00~18:30土9:00~17:00,無,,
しらかば薬局,092037,栃木県,栃木市,36.385521,139.730164,0282-20-8282,0282-20-8281,328-0017,栃木市錦町7-48,月水木金 9:00~19:00 火土 9:00~17:00 第1・3日曜 9:00~12:00,有,070-2194-7418,
ワイアンドワイ薬局栃木南店,092037,栃木県,栃木市,36.363651,139.754608,0282-24-0657,0282-21-7455,328-0024,栃木市樋ノ口町396-17,月水金9:00~18:30 火木9:00~17:00 土9:00~14:00,無,,
あゆみ薬局,092037,栃木県,栃木市,36.387135,139.74765,0282-27-0157,0282-27-0257,328-0027,栃木市今泉町1-5-11,月~金9:00~18:00,有,0282-27-0157,
ウエルシア薬局栃木日の出町店,092037,栃木県,栃木市,36.385677,139.740631,0282-20-3901,0282-20-3902,328-0031,栃木市日ノ出町5-14,9:00~19:00,無,,
ワイアンドワイ薬局神田町店,092037,栃木県,栃木市,36.378296,139.744507,0282−25−6636,0282−25−6636,328-0032,栃木市神田町10-13,月火水金9:00~18:00 木11:00~19:00 土9:00~17:00,無,,
ウイン調剤城内町薬局,092037,栃木県,栃木市,36.370792,139.746185,0282-20-1311,0282-20-1331,328-0033,栃木市城内町2-25-23,月・火・木・金9:00~18:00水9:00~17:00土9:00~12:30,有,070-1597-7795,
大沢調剤薬局 本町店,092037,栃木県,栃木市,36.379875,139.738312,0282-20-1303,0282-20-1304,328-0034,栃木市本町16-6,月9:00~19:00/火9:00~19:00/水9:00~19:00/金9:00~19:00/土8:00~13:30/日9:00~12:00/備考:第1、第3日曜日のみ開局,無,,
ウエルシア薬局栃木駅前店,092037,栃木県,栃木市,36.373196,139.731644,0282-20-7288,0282-20-7388,328-0041,栃木市河合町3-1桐屋ビル,9:00~13:30/14:30~19:00 土曜は18:00まで,有,080-3153-8398,
大沢調剤薬局駅南店,092037,栃木県,栃木市,36.368549,139.730179,0282-20-0100,0282-20-0101,328-0042,栃木市沼和田町 10-15,月・火・水・金9:00~18:30 土9:00~18:00,無,,
ファ-コス薬局片柳,092037,栃木県,栃木市,36.368187,139.715302,0282-23-6818,0282-23-6820,328-0053,栃木市片柳町4-15-29,月~水・金9:00~18:30木9:00~17:00土9:00~13:00,無,,
めぐみ薬局片柳店,092037,栃木県,栃木市,36.37257,139.723618,0282-20-6670,0282-20-6955,328-0053,栃木市片柳町1-6-6,月・火・木~土8:30~18:00,無,,
大沢調剤薬局西支店,092037,栃木県,栃木市,36.372749,139.726212,0282-25-2424,0282-25-2425,328-0053,栃木市片柳町1-3-5,月火水金土9:00~13:30/15:00~18:30 木9:00~13:00,有,0282-25-2424,
大沢調剤薬局片柳店,092037,栃木県,栃木市,36.374134,139.723434,0282-22-7788,0282-23-3111,328-0053,栃木市片柳町1-6-35,月9:00~18:30/火9:00~18:30/水9:00~17:00/木9:00~18:30/金9:00~18:30/土9:00~18:00,有,0282-22-7788,
ワイアンドワイ薬局栃木店,092037,栃木県,栃木市,36.396759,139.733154,0282-24-9996,0282-24-9996,328-0071,栃木市大町22-60,8:30~12:30 14:30~18:30,有,0282-24-9996,
大町調剤,092037,栃木県,栃木市,36.396038,139.736649,0282-25-0710,0282-25-1060,328-0071,栃木市大町27-24,月~金8:30~18:30土8:30~12:30,有,0282-25-0710,
グレイス薬局,092037,栃木県,栃木市,36.389393,139.732025,0282-28-6670,0282-28-6671,328-0072,栃木市嘉右衛門町6-9,月・火・木~土8:30~18:00,有,070-2640-0353,
SFC薬局箱森店,092037,栃木県,栃木市,36.397999,139.730652,0282-20-1789,0282-25-1898,328-0075,栃木市箱森町51-38,月火水金9:00~18:00 木9:00~12:00 土9:00~13:30,無,,
有限会社ディ・カスタ-ニエ くら薬局,092037,栃木県,栃木市,36.393147,139.720428,0282-25-4005,0282-25-4008,328-0075,栃木市箱森町25-69,月火木金土 8:30~18:00  水 9:00~17:00,有,080-9288-9678,
あい調剤薬局,092037,栃木県,栃木市,36.391888,139.726608,0282-20-5818,0282-20-6818,328-0075,栃木市箱森町38-73,8:00~19:30,有,0282-20-5818,
アップル薬局はこのもり店,092037,栃木県,栃木市,36.398735,139.733978,0282-20-7363,0282-20-7365,328-0075,栃木市箱森町53-30,月・火・水・金9:00~18:30木9:00~18:00土9:00~13:00,有,080-6566-9717,
ひばり薬局,092037,栃木県,栃木市,36.427975,139.748184,0282-29-3017,0282-29-3016,328-0111,栃木市都賀町家中5986-15,9:00~18:00,有,0282-29-3017,
コスモ薬局,092037,栃木県,栃木市,36.400909,139.735153,0282-25-2277,0282-23-4328,328-0123,栃木市川原田町199-7,9:00~18:00 土9:00~15:00 日・祝日休み,有,070-2193-3295,
ウエルシア薬局 栃木日の出町店,,,,36.385677,139.740631,0282-20-3911,0282-20-3912,329-0031,栃木市日ノ出町5番14号,月~土 9:00~19:00,無,,郵便番号
ひまわり調剤薬局,093645,栃木県,下都賀郡野木町,36.228798,139.728409,0280-54-1211,0280-54-1212,329-0101,野木町友沼5320-4,9:00~18:30土9:00~13:00,無,,
ファ-コス薬局のぎ,093645,栃木県,下都賀郡野木町,36.231419,139.738907,0280-54-4141,0280-57-3118,329-0111,下都賀郡野木町丸林420-6,9:00~18:00,無,,
有限会社髙橋薬局,093645,栃木県,下都賀郡野木町,36.231823,139.739288,0280-55-0607,0280-57-3995,329-0111,下都賀郡野木町丸林421-1,月~金9:00~19:00土9:00~18:00,無,,
あすなろ薬局,092088,栃木県,小山市,36.257454,139.779526,0285-45-1101,0285-45-1501,329-0205,小山市間々田16-2,月火水金9:00~19:00 木9:00~17:00 土9:00~14:00,有,090-2148-0752,
間々田調剤薬局,,,,36.271915,139.766312,0285-45-9987,0285-45-9994,329-0205 ,小山市間々田1627-1,月・火・木・金9:00~18:00土9:00~17:30,有,070-1392-7061,郵便番号
フレンド薬局下野笠原店,092169,栃木県,下野市,36.387169,139.841949,0285-40-0360,0285-40-0362,329-0402,下野市笠原230-7,月火木金9:00~18:30 水土9:00~18:00,無,,
ウエルシア薬局下野小金井店,092169,栃木県,下野市,36.379421,139.849945,0285-43-1058,0285-43-1059,329-0412,下野市柴830-9,月~土9:00~19:00日10:00~19:00,無,,
あおぞら薬局,092169,栃木県,下野市,36.381023,139.839249,0285-38-8967,0285-38-8968,329-0414,下野市小金井4-1-15,月火水金8:45~18:30 木8:45~12:45 土8:45~16:00,有,070-2612-0497,
いずみ薬局,092169,栃木県,下野市,36.381271,139.843948,0285-35-1037,0285-35-4754,329-0414,下野市小金井2977-2,月~金9:00~18:00(第3水曜日9:00~12:00) 土9:00~12:00,無,,
中央薬局国分寺店,092169,栃木県,下野市,36.391445,139.843796,0285-40-8002,0285-40-8006,329-0414,下野市小金井駅776-1,月火水金8:30~18:00 木土8:30~12:30,無,,
ピノキオ薬局南河内店,092169,栃木県,下野市,36.397083,139.862579,0285-40-1256,0285-40-1257,329-0431,下野市薬師寺3171-31,月~金9:00~18:00土9:00~13:00,有,090-4838-6456,
アイン薬局自治医大店,092169,栃木県,下野市,36.397045,139.860947,0285-40-1280,0285-40-1282,329-0434,下野市祇園2-36-1,月9:00~18:00/火9:00~18:00/水9:00~18:00/木9:00~18:00/金9:00~18:00/土9:00~13:00,有,0285-40-1280,
アップル薬局,092169,栃木県,下野市,36.394493,139.859085,0285-44-5711,0285-44-5712,329-0434,下野市祇園2-3-3,月~金9:00~18:00土9:00~13:00,有,090-2259-3905,
祇園薬局,092169,栃木県,下野市,36.395199,139.856812,0285-44-5455,nan,329-0434,下野市祇園1-2-1,月~金 9:00~18:00土 9:00~16:30,有,070-8515-2128,
ふたば薬局,092169,栃木県,下野市,36.391888,139.864944,0285-40-1481,0285-40-1482,329-0434,下野市祇園2-14-3,月~土9:00~19:00,有,0285-40-1481,
フレンドグリ-ンタウン調剤薬局,092169,栃木県,下野市,36.395657,139.8591,0285-44-0938,0285-44-0985,329-0434,下野市祇園1-13-6S・E・K BLD1階,月~土8:45~18:00,有,080-1232-8113,
日本調剤自治医大前薬局,092169,栃木県,下野市,36.4034,139.858521,0285-39-8913,0285-39-8914,329-0498,下野市薬師寺3311-1 立体駐車場棟1階,2,有,028-539-8913,
くまのこ薬局,092169,栃木県,下野市,36.44381,139.859299,0285-32-6161,0285-32-6162,329-0502,下野市下古山2-6-28,月火水金9:00~18:00 土8:45~16:00,有,090-4596-9863,
さくら薬局下野下古山店,092169,栃木県,下野市,36.446705,139.866135,0285-53-0180,0285-53-0191,329-0502,下野市下古山88-9,月火木土9:00~17:30 水金 9:00~17:00,有,0285-53-0180,
ツルハドラッグ石橋店,092169,栃木県,下野市,36.452774,139.865067,0285-39-8277,0285-39-8277,329-0502,下野市下古山3327-3,月~金10:00~14:00、15:00~19:00,無,,
ニコニコ薬局石橋店,092169,栃木県,下野市,36.45628,139.860504,0285-38-7312,0285-38-7314,329-0502,下野市下古山3294-5,火~金9:00~18:00土9:00~16:00,無,,
文教薬局,092169,栃木県,下野市,36.446186,139.861252,0285-39-6913,0285-39-6914,329-0507,下野市文教2-8-2,月・火・木~土9:00~18:30水 9:00~12:00,有,0285-39-6913(転送),
わかば薬局石橋店,092169,栃木県,下野市,36.448914,139.861771,0285-52-1491,0285-52-1492,329-0507,下野市文教3-10-3,8:30~18:00,有,0285-52-1491,
クオ-ル薬局石橋店,092169,栃木県,下野市,36.435612,139.857285,0285-51-1212,0285-51-1213,329-0511,下野市石橋812-2,8:30~19:00,有,080-8754-5556,
石橋調剤薬局,092169,栃木県,下野市,36.440823,139.856537,0285-52-0874,0285-52-0152,329-0511,下野市石橋966-1,9:00~18:00,有,0285-38-7437,
セイムスふじ薬局,092169,栃木県,下野市,36.439648,139.857712,	0285-	52-	2481,nan,329-0511,下野市石橋968-8,平日9:00から18:00土曜日9:00から14:00日曜、祝日休み,有,	0285-	52-	2481,
はぁと薬局,092169,栃木県,下野市,36.430347,139.852493,0285-37-6801,0285-37-6802,329-0516,下野市大光寺1-11-11,月火木金9:00~18:30 水8:30~16:30 土9:00~17:00,有,090-47305916,
株式会社フレンド本郷台調剤薬局,093017,栃木県,河内郡上三川町,36.480373,139.918274,0285-55-1371,0285-55-1372,329-0607,河内郡上三川町西汗1701-45,月火水金8:45~18:15 木土8:45~17:45 日・祝休み,有,090-1122-1371,
さくら新上三川病院前薬局,093017,栃木県,河内郡上三川町,36.43549,139.920624,0285-39-8039,0285-39-8037,329-0611,河内郡上三川町上三川2360-1,月~金9:00~18:00 土9:00~13:00 日・祝日は休み,無,,
セイムス上三川薬局,093017,栃木県,河内郡上三川町,36.449013,139.905319,	0285-	56-	4738,	0285-	56-	4743,329-0617,河内郡上三川町上蒲生2200,月、火、水、金曜日:8:30-19:00土曜日:8:30-17:30日、木曜日、祝日休み,無,,
みのり薬局,093017,栃木県,河内郡上三川町,36.446316,139.909897,0285-37-6737,0285-37-6738,329-0618,河内郡上三川町しらさぎ2-25-7,月~水・金 9:00~18:00木・土 9:00~17:00,有,0285-37-6737,
調剤薬局ツルハドラッグ宇都宮白沢店,092010,栃木県,宇都宮市,36.619812,139.932343,028-671-8268,028-671-8268,329-1102,宇都宮市白沢町2017-45,月~金9:00~13:00、14:00~18:30土9:00~13:00,無,,
セイムスおかもと薬局,092010,栃木県,宇都宮市,36.595451,139.942383,	028-	673-	8220,	-	-	,329-1104,宇都宮市下岡本町4074-2,月・火・木・金:9:00-18:30 水:9:00-13:00 土:9:00-17:00 ,無,	-	-	,
アイン薬局岡本店,092010,栃木県,宇都宮市,36.606853,139.93367,028-671-2552,028-671-1136,3291-105,宇都宮市中岡本町3710-80,9:00~19:00,有,028-671-2552(転送),
有限会社富士ファ-マシ-つくし薬局,092010,栃木県,宇都宮市,36.60788,139.946564,028-671-2211,028-671-2200,329-1105,宇都宮市中岡本町2692-12,月~水・金9:00~18:00木 9:00~13:00、14:00~18:00土 9:00~13:00,有,070-4565-5158,
ミルキ-薬局,092010,栃木県,宇都宮市,36.6469,139.910233,028-672-7201,028-672-7202,329-1113,宇都宮市相野沢町98-12,月・火・水・金:9:00~18:00、木・:9:00~13:00,有,080-8776-3495,
アルファ-ム薬局高根沢店,093866,栃木県,塩谷郡高根沢町,36.650288,140.008698,028-676-8010,028-676-3838,329-1207,塩谷郡高根沢町大字花岡2478-2,月~金9:00~18:00 土9:00~13:00,有,090-3147-9455,
とちの木薬局高根沢店,093866,栃木県,塩谷郡高根沢町,36.618088,139.989639,028-612-7995,028-612-7996,329-1232,塩谷郡高根沢町光陽台3-16-9,9:00~18:00,有,080-9042-2061,
ピノキオファ-マシ-ズ高根沢店,093866,栃木県,塩谷郡高根沢町,36.616905,139.981644,028-666-0712,028-666-0716,329-1232,塩谷郡高根沢町光陽台5-7-3,月・火・木・金・土9:00~18:00,無,,
光陽台薬局,093866,栃木県,塩谷郡高根沢町,36.618675,139.984268,028-675-7123,028-675-7123,329-1232,塩谷郡高根沢町光陽台4-2-2,月~土9:00~18:00 日曜祝日休み,無,,
ピノキオ薬局烏山店,093866,栃木県,塩谷郡高根沢町,36.660034,140.153137,0287-80-0678,0287-80-0677,329-1233,那須烏山市中央3-2-15,9:00~18:00,有,0287-80-0678,
ポピ-薬局,092142,栃木県,さくら市,36.685341,140.008881,028-681-5501,028-681-5502,329-1305,さくら市狹間田1924-3,月9:00~18:00/火9:00~18:00/水9:00~18:00/金9:00~18:00/土9:00~17:00,無,,
しらさわ薬局,092142,栃木県,さくら市,36.629826,139.941284,028-689-8624,028-689-8648,329-1306,宇都宮市白沢町1814,9:00~17:00,有,090-8390-9300,
だるま薬局氏家店,092142,栃木県,さくら市,36.680756,139.966171,028-681-8118,028-681-8119,329-1311,さくら市氏家2565-33,9:00~18:00,無,,
だるま薬局氏家北店,092142,栃木県,さくら市,36.686775,139.966873,028-681-8181,028-681-8188,329-1311,さくら市氏家3390-6,月~金9:00~18:30土8:30~13:30,無,,
ポプリ薬局,092142,栃木県,さくら市,36.702873,139.967453,028-681-6088,028-681-6077,329-1311,さくら市氏家3245-16,月8:30~18:30/火8:30~18:30/水8:30~18:30/木8:30~17:00/金8:30~18:30/土8:30~18:30,無,,
レモン薬局氏家店,092142,栃木県,さくら市,36.686775,139.966873,028-681-1351,028-681-1352,329-1311,さくら市氏家2645-4,9:00~18:00,有,080-5510-7734,
中央薬局きぬの里店,092142,栃木県,さくら市,36.661804,139.961487,028-682-0188,028-682-0190,329-1316,さくら市上阿久津1779-5,9:00~18:30,有,090-4055-7690,
卯の里調剤薬局,092142,栃木県,さくら市,36.681137,139.958984,028-681-7543,028-681-7544,329-1323,さくら市卯の里1-17-4,8:45~18:00,有,080-1234-3062,
中央薬局喜連川店,092142,栃木県,さくら市,36.731621,140.008545,0286-66-7801,028-666-7802,329-1412,さくら市喜連川759-1,月・火・水・金8:30~18:00木8:30~12:30土8:30~17:00,有,080-2373-9170,
フクシ矢板薬局,092118,栃木県,矢板市,36.831425,139.94899,0287-40-2940,0287-40-2941,329-2131,矢板市土屋68-1,9:00~17:30,有,070-3140-5684,
とちの木薬局 矢板店,092118,栃木県,矢板市,36.795013,139.927628,0287-47-4163,0287-47-4164,329-2145,矢板市富田302,月~金 8:30~17:30 土 8:30~12:00,無,,
ポニ-薬局矢板店,092118,栃木県,矢板市,36.806774,139.936096,0287-40-0501,0287-40-0502,329-2162,矢板市末広町64-5,月火木金土8:15~17:30 水9:00~17:00 日祝休み,有,080-1037-3445,
クオ-ル薬局西那須野店,092134,栃木県,那須塩原市,36.885555,139.989639,0287-39-3330,0287-39-3331,329-2722,那須塩原市西朝日町6-42,月火木金9:00~18:00 水9:00~17:00 土9:00~13:00,有,080-8754-5557,
センタ-薬局塩原店,092134,栃木県,那須塩原市,36.938717,139.909592,0287-35-3233,0287-35-2537,329-2811,那須塩原市下田野531-136,月~金:9:00~18:00、土:9:00~12:30,有,070-4142-2098,
ひまわり薬局,092134,栃木県,那須塩原市,36.924618,140.020111,0287-67-3011,0287-67-3033,329-3153,那須塩原市大原間140-4,月木金8:30~17:30 火8:30~12:00 土日8:30~16:30,無,,
ファ-コス薬局すまいる,092134,栃木県,那須塩原市,36.933174,140.016464,0287-65-4440,0287-65-4441,329-3156,那須塩原市方京1-6-1,月~金9:00~17:00土9:00~13:00,無,,
共創未来那須塩原薬局,092134,栃木県,那須塩原市,36.931816,140.017792,0287-65-2323,0287-65-0121,329-3157,那須塩原市大原間西1-6-6,8:15~18:00,有,070-4080-8832,
ふじ調剤薬局 黒田原店,094072,栃木県,那須郡那須町,37.042282,140.097733,0287-74-2323,0287-74-2333,329-3222,那須郡那須町大字寺子丙字前原1-101,月~金 9:00~17:00土 9:00~13:00,有,080-8835-9790,
そうごう薬局富田店,092029,栃木県,足利市,36.315296,139.530914,0284-90-2151,0284-91-3272,329-4214,足利市多田木町134-2,月~金9:00~18:30 土9:00~13:00,有,0284-90-2151,
共創未来岩舟薬局,092037,栃木県,栃木市,36.319794,139.673553,0282-54-3270,0282-54-3271,329-4303,栃木市岩舟町和泉1457-6,月水金9:00~18:00 火木9:00~17:00 土9:00~13:00,有,0282-54-3270,
エムハ-ト薬局いわふね店,092037,栃木県,栃木市,36.313232,139.663803,0282-54-3135,0282-55-6120,329-4307,栃木市岩舟町静5134-7,月火水金 9:00-18:30 土9:00-17:15,有,0282-54-3135,
グレ-プ調剤薬局,092037,栃木県,栃木市,36.323841,139.640198,0282-55-1400,0282-55-1401,329-4309,栃木市岩舟町畳岡534-6,月~金8:30~18:00土8:30~17:00,有,090-3220-1400,
アイン薬局栃木岩舟店,092037,栃木県,栃木市,36.334785,139.630051,0282-55-6777,0282-55-5022,329-4311,栃木市岩舟町古江836-5,月8:30~18:15/火8:30~18:15/水8:30~14:30/木8:30~18:15/金8:30~18:15/土8:30~12:00,有,090-7425-0599,
中央薬局岩舟店,092037,栃木県,栃木市,36.365273,139.63327,0282-57-1222,0282-57-1223,329-4314,栃木市岩舟町小野寺2574-10,月~水・金8:30~18:30木8:30~17:00土8:30~13:00,無,,
ふたば薬局しもつが,092037,栃木県,栃木市,36.362808,139.731461,0282-20-1160,0282-20-1167,329-4401,栃木市大平町牛久453-1,8:30~17:30,有,090-8892-4380,
日本調剤しもつが薬局,092037,栃木県,栃木市,36.366421,139.728577,0282-20-8005,0282-22-2191,329-4401,栃木市大平町牛久471-1,月-金8:30-17:30  土8:30-12:30,有,080-2073-1770,
カケル薬局大平店,092037,栃木県,栃木市,36.338612,139.696838,0282-21-7523,0282-21-7525,329-4404,栃木市大平町富田5210-6,8:45~18:15,有,070-2656-2818,
コスモ薬局大平店,092037,栃木県,栃木市,36.336651,139.701584,0282-45-1361,0282-45-1362,329-4404,栃木市大平町富田5-227,月火水金土8:30~18:30 木9:00~18:00,有,070-2194-7419,
あすなろ薬局,092037,栃木県,栃木市,36.358494,139.718155,0282-28-6699,0282-28-6696,329-4407,栃木市大平町川連419-10,8:30~17:30,有,080-9186-6699,
しもつが薬局大平町店,092037,栃木県,栃木市,36.358494,139.718155,0282-28-6355,0282-22-7055,329-4407,栃木市大平町川連419-9,8:45~18:00,無,,
めぐみ薬局横堀店,092037,栃木県,栃木市,36.351986,139.737808,0282-20-0905,0282-20-0906,329-4411,栃木市大平町横堀850-1,9:00~18:00,有,0282-20-0905,
みずしろ調剤薬局,092037,栃木県,栃木市,36.318363,139.713959,0282-43-0102,0282-43-0069,329-4423,栃木市大平町西水代1834-1,月・火・木・金8:30~18:15水8:30~18:00土8:30~17:00,有,090-5540-0102,
コスモ薬局大平南店,092037,栃木県,栃木市,36.328876,139.712219,0282-45-2022,0282-45-2023,329-4425,栃木市大平町新1471-4,9:00~18:30,有,090-5557-9059,
