施設_名称,施設_市区町村コード,住所_都道府県,住所_市区町村（郡）,住所_緯度,住所_経度,連絡先_電話番号,連絡先_FAX番号,連絡先_郵便番号,連絡先_住所,施設_開局時間,時間外_対応の有無,時間外_電話番号,エラー
アイム薬局,352080,山口県,岩国市,34.171776,132.230927,0827-21-0088,0827-21-0187,740-0012,岩国市元町4-1-15 ,月・水・木・金9:00~18:00火9:00~17:00土9:00~12:15,有,080-3885-5943,
元町薬局,352080,山口県,岩国市,34.171329,132.2276,0827-22-0022,0827-22-0033,740-0012,岩国市元町2-1-17,月~金8:00~18:00土8:00~12:00,有,09073729077,
あい薬局 今津店,352080,山口県,岩国市,34.167809,132.220245,0827-28-6730,0827-28-6729,740-0017,岩国市今津町1-9-25 ,月・火・木・金9:00~18:00水・土9:00~12:30,有,0827-28-6730,
(有)渡辺薬局,352080,山口県,岩国市,34.165073,132.217178,0827-21-5188,0827-21-5180,740-0017,岩国市今津町4-3-2,月~金9:00~19:00土9:00~18:00,有,090-7130-2461,
エスマイル薬局岩国店,352080,山口県,岩国市,34.166363,132.219635,0827-23-0799,0827-23-0799,740-0017,岩国市今津町1-15-27,月・火・水・金9:00~18:00木・土9:00~12:30,有,080-8247-9726,
コスモス薬局,352080,山口県,岩国市,34.172028,132.223236,0827-22-2940,0827-22-2944,740-0018,岩国市麻里布町3-1-27,月~水・金9:00~18:30木9:00~17:00、土9:00~15:00,有,0827222940,
すずらん薬局,352080,山口県,岩国市,34.170403,132.222122,0827-22-1193,0827-23-1193,740-0018,岩国市麻里布町3-5-30 ,月~金9:00~18:00土9:00~13:00,無,090-3372-1193,
いちご薬局 室の木店,352080,山口県,岩国市,34.168804,132.201904,0827-21-1515,0827-21-1526,740-0021,岩国市室の木町5-10-13,月・水・木・金9:00~18:30火9:00~17:00土9:00~13:00,有,090-6849-6020,
岩国薬剤師会会営薬局,352080,山口県,岩国市,34.170826,132.206406,0827-23-3422,0827-23-7978,740-0021,岩国市室の木町3-6-13,月~土9:00~18:00、19:00~22:00日・祝9:00~22:00,有,0827-23-3422,
ア-チ薬局,352080,山口県,岩国市,34.164856,132.213211,0827-23-6737,0827-23-7164,740-0022,岩国市山手町2-18-10,月~水・金9:00~18:00木・土9:00~13:00,無,,
山手ハ-ト薬局,352080,山口県,岩国市,34.168743,132.217346,0827-29-1193,0827-29-1193,740-0022,岩国市山手町1-11-24,月~水・金9:00~18:00木・土9:00~12:30,無,,
ウォンツ岩国中津薬局,352080,山口県,岩国市,34.154106,132.215637,0827-30-7577,0827-30-7578,740-0027,岩国市中津町2-4-33,月~金9:00~18:00,無,,
そうごう薬局 中津町店,352080,山口県,岩国市,34.153137,132.215271,0827-21-0281,0827-21-0282,740-0027,岩国市中津町1-19-17中津・サンフラワ-103,月~金・木(第4)8:30~18:00木・(第1・2・3・5)土8:30~12:30,有,0827-21-0281,
(株)成和薬局 尾津支店,352080,山口県,岩国市,34.138706,132.207733,0827-32-4797,0827-31-4489,740-0032,岩国市尾津町2-18-5,月・火・水・金9:00~18:00木9:00~17:00土9:00~13:00,有,0827-32-4797,
成和薬局高水前店,352080,山口県,岩国市,34.137779,132.20752,0827-32-1147,0827-32-1125,740-0032,岩国市尾津町2-23-13,月・火・水・金9:00~18:00木8:00~16:00土9:00~13:00,有,0827321147,
あおぞら薬局 南岩国店,352080,山口県,岩国市,34.134613,132.204483,0827-28-5002,0827-28-5009,740-0034,岩国市南岩国町1-14-23 ,月・火・水・金9:00~17:30木・土9:00~12:00,無,,
いちご薬局,352080,山口県,岩国市,34.138191,132.192627,0827-34-1110,0827-32-6776,740-0034,岩国市南岩国町2-77-22,月~金9:00~18:30土8:30~17:30,有,090-6849-2933,
センタ-薬局,352080,山口県,岩国市,34.143982,132.203644,0827-35-5000,0827-35-5100,740-0037,岩国市愛宕町1-1-3,24時間開局,無,,
かわち薬局,353213,山口県,玖珂郡和木町,34.205811,132.222565,0827-52-6288,0827-52-0387,740-0061,玖珂郡和木町和木2-8-19,月~水・金8:30~18:00木8:30~16:30土8:30~12:30,有,0827-52-6288,
ワキ薬局,353213,山口県,玖珂郡和木町,34.204056,132.225174,0827-53-3392,0827-53-6352,740-0061,玖珂郡和木町和木3-1-8,月~水・金9:00~18:00木9:00~17:00土9:00~13:00,有,転送,
みわ薬局,352080,山口県,岩国市,34.1665,132.218948,0827-95-0055,0827-95-0056,740-1224,岩国市佐坂371-4,月~水・金8:30~18:00木7:00~15:00土8:30~12:00,有,0827-95-0055,
れもん薬局,352080,山口県,岩国市,34.03664,132.216797,0827-63-3941,0827-35-5530,740-1426,岩国市由宇町由宇崎5-3 ,月・火・水・金9:00~18:00木9:00~17:00土9:00~12:00,無,,
さくら薬局,352080,山口県,岩国市,34.159985,132.187393,0827-41-2933,0827-41-1163,741-0061,岩国市錦見7-17-17 ,月~金8:45~18:00土8:45~12:30,有,0827-41-2933,
みき薬局,352080,山口県,岩国市,34.164902,132.193954,0827-43-3051,0827-44-3056,741-0061,岩国市錦見6-13-10,月・火・水・金9:00~18:00 木8:45~16:45土9:00~12:30,有,080-1640-0955,
(有)健成薬局,352080,山口県,岩国市,34.16703,132.180527,0827-41-2082,0827-41-2083,741-0062,岩国市岩国1-20-50,月・火・水・金9:00~18:00木9:00~17:00土9:00~13:00,有,0827-41-2082,
ひまわり薬局,352080,山口県,岩国市,34.142754,132.186844,0827-32-7588,0827-32-7348,741-0072,岩国市平田4-16-33,月~水・金9:00~18:00木9:00~17:00、土9:00~15:00、祝11:00~15:00,有,0827327588,
成和薬局梅が丘店,352080,山口県,岩国市,34.137524,132.183853,0827-28-6464,0827-28-6466,741-0072,岩国市平田6-11-20,月~水・金 9:00~18:00木 9:00~17:00土 9:00~13:00,有,0827-28-6464,
多田薬局,352080,山口県,岩国市,34.181664,132.166824,0827-44-1026,0827-44-1027,741-0092,岩国市多田3-102-6 ,月~金9:00~18:00土9:00~13:00,有,0827-44-1026,
しんえい薬局,352128,山口県,柳井市,33.965229,132.115097,0820-23-0389,0820-23-8916,742-0005,柳井市天神16-8,月火水金9:00~18:00 木9:00~17:00 土9:00~13:00,有,0820-23-0389,
いしはら薬局,352128,山口県,柳井市,33.966122,132.117691,0820-23-3331,0820-23-3332,742-0007,柳井市東土手15-3,月・火・木・金9:00~18:00水・土9:00~12:00,有,080-7810-7007,
イシマル薬局柳井店,352128,山口県,柳井市,33.962559,132.125214,0820-24-6605,0820-24-6606,742-0021,柳井市柳井1908-5,月-土9:00-17:00,有,090-6404-1399,
きたに薬局,352128,山口県,柳井市,33.98595,132.097336,0820-23-5964,0820-23-5323,742-0021,柳井市柳井5036-3-2,月・火・木・金8:30~18:00水8:30~16:30土8:30~12:30,有,0820-23-5971,
ひかる薬局,352128,山口県,柳井市,33.962749,132.112183,0820-24-5571,0820-24-5570,742-0023,柳井市南浜1-8-6,月・火・水・金9:00~18:00木7:30~15:30土9:00~12:30,有,09041085571,
シクマ薬局,352128,山口県,柳井市,33.967094,132.09729,0820-24-3800,0820-24-3801,742-0024,柳井市ニュ-タウン南町20,月・火・水・金9:00~18:00木8:00~16:00土9:00~12:30,有,0820-24-3800,
いぶき薬局,352128,山口県,柳井市,33.965286,132.101242,0820-24-1250,0820-24-1251,742-0031,柳井市南町1-11-4,月~水・金8:20~18:30木8:00~16:00土8:20~13:00,有,転送,
エスマイル薬局ハ-ト南町店,352128,山口県,柳井市,33.962734,132.100967,0820-23-6089,0820-23-0464,742-0031,柳井市南町6-14-1,月・火・水・金9:00~18:00木・土9:00~13:00,有,0820-23-6089,
南町薬局,352128,山口県,柳井市,33.963081,132.098999,0820-23-7589,0820-23-7598,742-0031,柳井市南町7-9-1,月~水・金9:00 ~18:00木・土9:00 ~13:00,有,0820-23-7589,
わかば薬局,352128,山口県,柳井市,33.962952,132.108047,0820-24-2525,0820-24-2526,742-0031,柳井市南町4-2-15,月~水・金9:00 ~18:00木・土9:00 ~12:00,有,090-1018-7909,
中央薬局,352128,山口県,柳井市,33.96352,132.100708,0820-25-0500,0820-25-0700,742-0031,柳井市南町7-2-1,月・火・水・金9:00~18:00土9:00~13:00,有,090-4345-9006,
やない薬局,352128,山口県,柳井市,33.959858,132.095093,0820-24-5500,0820-24-5501,742-0032,柳井市古開作1000-7,月~金8:30~18:00土8:30~12:00,有,090-5696-5960,
エスマイル薬局沖原店,352128,山口県,柳井市,33.973286,132.082123,0820-23-6689,0820-23-8915,742-0033,柳井市新庄1529-4,月・火・水・金9:00~18:00木・土9:00~13:00,有,0820-23-6689,
エスマイル薬局こがね町店,352128,山口県,柳井市,33.967777,132.10701,0820-22-8989,0820-22-8939,742-0035,柳井市中央2-5-7,月~水・金8:30~18:00木・土8:30~12:30,有,0820-22-8989,
エスマイル薬局大才店,352128,山口県,柳井市,33.966778,132.110107,0820-23-3489,0820-23-1104,742-0035,柳井市中央1-4-15,月-水、金9:00-18:00  木 土9:00-13:00,有,0820-23-3489,
エスマイル薬局柳町店,352128,山口県,柳井市,33.965633,132.108368,0820-23-1389,0820-23-1103,742-0035,柳井市中央1-10-14,月-水、金 9:00-18:00木 9:00-17:00土 9:00-13:00,有,0820-23-1389,
つばさ薬局,352128,山口県,柳井市,33.965893,132.109863,0820-24-3283,0820-22-1283,742-0035,柳井市中央1-8-18,月~金8:30~18:00土8:30~12:30,有,転送,
クロ-バ-薬局 そお店,352080,山口県,岩国市,34.068264,132.115631,0827-85-5040,0827-85-5041,742-0301,岩国市周東町祖生5718-8 ,月~水・金8:30~17:30木・土8:30~12:00,有,080-1638-6554,
りぼん薬局,352080,山口県,岩国市,34.100464,132.092773,0827-81-1850,0827-81-1851,742-0322,岩国市玖珂町558-7,月~水・金8:30~18:00木8:30-16:30土8:30~12:00,有,080-1905-3120,
いちご薬局 本町店,352080,山口県,岩国市,34.100464,132.092773,0827-81-1515,0827-81-1516,742-0325,岩国市玖珂町5951,月~金9:00~18:00土9:00~13:00,有,090-6849-4823,
あい薬局,352080,山口県,岩国市,34.092182,132.050629,0827-83-1888,0827-83-1887,742-0417,岩国市周東町下久原1023-7,月・火・水・金8:00~17:30木8:00~16:00土(第1・2・4・5)8:00~12:00土(第3)8:00~9:00,有,080-1640-0954,
たかもり薬局,352080,山口県,岩国市,34.093231,132.052734,0827-83-0231,0827-83-0232,742-0417,岩国市周東町下久原2481-3,月~金8:30~18:00 土8:30~13:00,有,0827-83-0231,
ひかる薬局周東店,352080,山口県,岩国市,34.09293,132.05072,0827-84-5553,0827-83-1300,742-0417,岩国市周東町下久原2410-2 ,月・火・木・金 9:00~18:00水 9:00~12:00土 9:00~12:00,有,070-4067-3805,
オリ-ブ薬局 平生店,353442,山口県,熊毛郡平生町,33.936855,132.068466,0820-25-3315,0820-25-3316,742-1101,熊毛郡平生町大字平生町字角浜569-1,月~金 9:00~18:00土 8:30~12:30,無,,
あおぞら薬局,353442,山口県,熊毛郡平生町,33.942665,132.079056,0820-57-3378,0820-57-3375,742-1102,熊毛郡平生町大字平生村553-11,月~金 9:00~18:00木 8:30~16:30土 9:00~12:30,有,0820-57-3378,
周東薬局,353442,山口県,熊毛郡平生町,33.945328,132.07637,0820-57-3700,0820-57-3600,742-1102,熊毛郡平生町大字平生村765-2,月~金  8:45~18:15土 8:45~12:15,無,,
ひかる薬局 平生店,353442,山口県,熊毛郡平生町,33.891022,132.091583,0820-58-1193,0820-58-1195,742-1111,熊毛郡平生町大字佐賀森ノ上2287の3,月・火・水・金8:00~17:30木7:30~15:30土8:00~12:00,有,0820-58-1193,
日之出薬局,353434,山口県,熊毛郡田布施町,33.955704,132.047195,0820-52-5022,0820-52-5032,742-1511,熊毛郡田布施町大字下田布施704-1,月~土9:30~19:00,有,転送,
ふじたに薬局,353051,山口県,大島郡周防大島町,33.933773,132.194595,0820-74-4528,0820-74-4550,742-2106,大島郡周防大島町大字小松556-3 ,月・火・水・金 8:30~18:30土 8:30~13:00,有,080-8015-9107,
さくら薬局,353051,山口県,大島郡周防大島町,33.913338,132.308136,0820-73-1118,0820-73-1119,742-2803,大島郡周防大島町大字土居横田764-4,月~金8:00~19:00土8:00~17:00,有,080-1909-8223,
みかん薬局,353051,山口県,大島郡周防大島町,33.913338,132.308136,0820-73-0270,0820-73-0271,742-2805,大島郡周防大島町土居851-2,月~金8:00~19:00土8:00~17:00,有,090-7508-4858,
いちご薬局室積店,352101,山口県,光市,33.93235,131.972748,0833-79-2525,0833-79-2552,743-0008,光市室積中央町4-10,月~金8:30~18:00土8:30~12:30,有,090-7994-5907,
ひまわり薬局 光店,352101,山口県,光市,33.93396,131.970642,0833-75-0555,0833-75-0556,743-0009,光市室積松原4-4,月・火・水・金8:15~18:00木8:15~16:15土8:15~12:00,有,0833-75-0555,
小松薬局,352101,山口県,光市,33.955421,131.957108,0833-72-7861,0833-72-0872,743-0011,光市光井3-7-33,月・火・水・金9:00~18:00木8:00~16:00土9:00~16:00,有,0833-72-7861,
エスマイル薬局みつい中央店,352101,山口県,光市,33.956055,131.947495,0833-74-2489,0833-74-2382,743-0013,光市中央2-12-12,月~水、金9:00~18:00  木、土9:00~17:00,有,転送,
エスマイル薬局浅江店,352101,山口県,光市,33.970852,131.927383,0833-72-7189,0833-72-8269,743-0021,光市浅江1丁目17-23,月~水・金8:30~18:00木8:30~16:30土8:30~17:00,有,0833-72-7189,
あいりす薬局,352101,山口県,光市,33.971565,131.919235,0833-44-7337,0833-44-7338,743-0022,光市虹ケ浜1-9-13,月火木金9:00-18:00 水9:00-17:00 土9:00-13:00,有,0833-44-7337,
オリ-ブ薬局 光店,352101,山口県,光市,33.972317,131.91275,0833-74-0080,0833-74-0081,743-0022,光市虹ヶ浜3-16-30ランドマ-ク虹ヶ浜102,月~水・金9:00~18:00土8:30~12:30,有,0833-74-0080,
なないろ薬局,352101,山口県,光市,33.972904,131.916809,0833-44-9500,0833-44-9502,743-0022,光市虹ヶ浜3-7-25,月~金8:30~18:00土8:30~17:00,有,0833-44-9500,
さくら薬局 ひかり店,352101,山口県,光市,33.9828,131.920364,0833-48-6370,0833-48-8036,743-0023,山口県光市光ヶ丘6番2号,8時30分から17時30分,有,0833-48-6370,
そうごう薬局 三井店,352101,山口県,光市,33.988171,131.95314,0833-76-0600,0833-77-1860,743-0052,光市三井6-17-17,月・火・水・金9:00~18:00木9:00~17:00土9:00~13:00,有,0833-76-0600,
いちご薬局 光店,352101,山口県,光市,33.973991,131.933899,0833-74-1577,0833-74-1578,743-0063,光市島田2-4-3,月~水・金 8:30~18:00木 8:30~16:30土 8:30~14:00,有,090-8064-2648,
そうごう薬局 光店,352101,山口県,光市,33.970474,131.933273,0833-74-0891,0833-74-0892,743-0063,光市島田2-21-3,月~金8:30~17:30土8:30~12:30,有,0833-74-0891,
室積薬局,352101,山口県,光市,33.937885,131.969528,0833-78-1101,0833-78-1104,743-0072,光市室積大町22-16,月・火・水・金・土8:00~18:00木8:00~16:00,無,,
ゆうき薬局,352071,山口県,下松市,34.005753,131.871033,0833-48-7103,0833-48-6313,744-0004,下松市青柳1-3-1,月~土9:00~18:00,有,0833-48-7103,
そうごう薬局 下松中央店,352071,山口県,下松市,34.007149,131.871994,0833-44-3831,0833-44-3832,744-0005,下松市古川町3-5-2,月~金9:00~18:00,有,0833-44-3831,
昭和通薬局,352071,山口県,下松市,34.014011,131.873764,0833-45-5799,0833-45-5900,744-0011,下松市大字西豊井字殿ヶ浴643,月~金8:30~18:00土8:30~13:00,有,080-3876-5660,
めぐみ薬局,352071,山口県,下松市,34.012917,131.870041,0833-44-1567,0833-41-7561,744-0013,下松市栄町3-4-2,月・火・水・金9:00~18:00木9:00~17:00土9:00~12:00,有,0833-44-1567,
あおい薬局,352071,山口県,下松市,34.009861,131.863464,0833-48-6777,0833-48-6778,744-0014,下松市中市2-5-10,月・火・水・金9:00~18:00木9:00~17:00土9:00~13:00,有,転送,
クロ-バ-薬局,352071,山口県,下松市,34.013546,131.868729,0833-41-3869,0833-41-3937,744-0015,下松市大手町2-6-11,月・火・水・金8:45~18:00木・土8:45~12:00,有,090-3378-1403,
健栄薬局,352071,山口県,下松市,34.012928,131.866745,0833-48-3010,0833-48-3011,744-0015,下松市大手町2-5-16,月~金9:00~18:00土9:00~13:00,有,転送,
ミント薬局,352071,山口県,下松市,34.01564,131.866653,0833-48-0091,0833-48-0092,744-0018,下松市西柳3-1-12,9:00~18:00,無,0833-48-0091,
そうごう薬局 下松店,352071,山口県,下松市,34.018559,131.86322,0833-44-3467,0833-44-3466,744-0025,下松市中央町21-3ゆめタウン下松 4F,月・火・水・金9:00~18:00木9:00~17:00土9:00~13:00,有,0833-44-3467,
フタミ薬局 下松店,352071,山口県,下松市,34.035675,131.884003,0833-41-6622,0833-41-6818,744-0032,下松市生野屋西1-5-25,月~金8:40~18:00土8:40~12:00,無,,
下松共同薬局,352071,山口県,下松市,34.032597,131.874741,0833-45-5010,0833-45-5013,744-0033,下松市生野屋南1-13-2,月~金8:45~17:30,無,,
ファ-マシ-イシマル 東陽店,352071,山口県,下松市,34.03363,131.912201,0833-46-3521,0833-46-3522,744-0043,下松市東陽4-21-5,9:00~18:00土9:00~12:00,有,0833-46-3521,
ノゾミ薬局,352071,山口県,下松市,34.026054,131.859711,0833-48-5013,0833-48-5014,744-0072,下松市望町2-4-8 ,月~水・金・土9:00~18:00木9:00~13:00,無,,
ひまわり薬局下松店,352071,山口県,下松市,34.02634,131.852936,0833-48-4567,0833-48-4568,744-0072,下松市望町5-4-8,月・火・水・金9:00~18:00 木・土9:00~12:30,無,,
石丸薬局末武店,352071,山口県,下松市,34.026878,131.861435,0833-45-1400,0833-45-1401,744-0072,下松市望町1-9-11,月・火・木・金8:30~18:00水8:30~17:00土8:30~15:00,無,,
いとう薬局,352071,山口県,下松市,34.021736,131.859756,0833-43-5345,0833-43-5567,744-0073,下松市美里町4-6-24,月~土8:30~21:00,有,転送,
いちのみや薬局下松店,352071,山口県,下松市,34.020947,131.85611,0833-48-5331,0833-48-5332,744-0075,下松市瑞穂町1-6-5,月~金8:30~18:00土8:30~16:00,無,,
かえる薬局,352071,山口県,下松市,34.02438,131.851303,0833-48-5323,0833-48-5324,744-0075,下松市瑞穂町2-20-10 ,月~金9:00~18:00土9:00~13:00,有,0833-48-5323,
くるみ薬局,352071,山口県,下松市,34.015038,131.870316,0833-48-8963,0833-48-8813,744-0076,下松市せせらぎ町2-1-24,月~金9:00~18:00土9:00~16:00,無,,
オリ-ブ薬局徳山中央店,352152,山口県,周南市,34.053566,131.811325,0834-33-8001,0834-33-8002,745-0002,周南市二番町1-4-3,月~水・金8:30~18:00木・土8:30~12:30,有,0834-33-8001転送,
なの花薬局,352152,山口県,周南市,34.058071,131.81012,0834-22-0430,0834-22-4300,745-0005,周南市児玉町3-21-1,月~金9:00~18:00土9:00~14:00,有,0834-22-0430,
はなばたけ薬局,352152,山口県,周南市,34.059376,131.81134,0834-33-8871,0834-33-8872,745-0006,周南市花畠町4-5 ,9:00~18:00,有,0834-33-8871,
アリス薬局,352152,山口県,周南市,34.052773,131.810699,0834-22-1923,0834-22-2897,745-0011,周南市桜馬場通2-8,月~水・金・土9:00~17:30木9:00~12:30,有,0834-22-1923,
石丸薬局,352152,山口県,周南市,34.051575,131.806366,0834-21-3655,0834-21-3665,745-0016,周南市若宮町2-7,月~金9:00~18:30土9:00~18:00土(第3)9:00~17:00,有,090-7544-1608,
亀屋薬局,352152,山口県,周南市,34.051785,131.805939,0834-21-0569,0834-32-8432,745-0017,周南市新町2-15,月~金8:00~19:00土8:00~17:00,無,,
新町PH薬局,352152,山口県,周南市,34.052135,131.805557,0834-21-0038,0834-21-0068,745-0017,周南市新町2-9-3,月~金8:30~18:00土8:30~15:00,有,0834-21-0038,
銀座薬局,352152,山口県,周南市,34.0499,131.805344,0834-39-6403,0834-39-6404,745-0032,周南市銀座2-27,月~金9:30~18:30土9:30~17:30日・祝祭日を除く,有(転送電話),0834-39-6403,
わかば薬局,352152,山口県,周南市,34.054115,131.804489,0834-27-3301,0834-27-3302,745-0037,周南市栄町1-35,月・火・水・金9:00~18:00木9:00~17:00土9:00~17:30,有,0834-27-3301,
代々木薬局,352152,山口県,周南市,34.054287,131.80484,0834-22-2040,0834-32-6120,745-0037,周南市栄町1-5-1,月~水・金8:30~18:00木・土8:30~17:00,有,0834-22-2040,
レモン薬局,352152,山口県,周南市,34.056931,131.807037,0834-34-3367,0834-34-3757,745-0072,周南市弥生町2-8,月火水金 8:30~18:00木 8:30~16:30土8:30~13:00,有,0834-34-3367,
ひまわり薬局,352152,山口県,周南市,34.054951,131.80275,0834-32-3692,0834-32-7724,745-0073,周南市代々木通2-25,月~水・金9:00~18:00木8:30~16:30土8:30~12:30,無,,
高橋薬局,352152,山口県,周南市,34.058117,131.804123,0834-32-2348,0834-32-1224,745-0075,周南市緑町1-53-2,月~金9:00~18:00 土9:00~13:00,有,0834-32-2348転送,
そうごう薬局須々万店,352152,山口県,周南市,34.112503,131.864151,0834-88-3351,0834-88-3352,745-0122,山口県周南市須々万本郷29-1,月~金    8:30~17:00土(第1・3) 8:30~12:00,有,0834-88-3351,
鹿野薬局,352152,山口県,周南市,34.210499,131.825378,0834-68-5050,0834-68-5051,745-0304,周南市大字鹿野下1233-1,月~金9:00~18:00土(第1・3・5)9:00~17:00,有,0834-68-5050,
オリ-ブ薬局呼坂店,352152,山口県,周南市,34.051235,131.941422,0833-92-1320,0833-92-1330,745-0612,周南市呼坂1-6,月~水・金8:30~18:00木8:30~17:00土8:30~1300,有,0833-92-1320転送,
きたに薬局,352152,山口県,周南市,34.037971,131.951538,0833-91-2370,0833-91-2371,745-0612,周南市呼坂390-1,月~水・金8:30~18:00木8:30~16:30土8:30~12:30,無,,
くまげ薬局,352152,山口県,周南市,34.045559,131.956863,0833-92-3333,0833-92-3335,745-0612,周南市大字呼坂838-1,月~金8:30~18:00土8:30~12:00,無,,
そうごう薬局 周南大河内店,352152,山口県,周南市,34.028908,131.952454,0833-91-0999,0833-91-6955,745-0651,周南市大河内256-8,月~水・金8:30~18:00木8:30~17:00土8:30~13:00,有,0833-91-0999,
ココカラファイン薬局 周南久米店,352152,山口県,周南市,34.03455,131.839142,0834-36-1115,0834-36-1116,745-0801,周南市久米中央1-15-13,月~金9:00~18:00土9:00~13:00,有,070-3138-8780,
神女薬局,352152,山口県,周南市,34.051853,131.85611,0834-26-2490,0834-26-2484,745-0801,周南市久米東神女3200-5,月~金9:00~18:00土9:00~17:00,有,0834-26-2490,
ウォンツイオンタウン周南久米薬局,352152,山口県,周南市,34.036911,131.8423,0834-36-0027,0834-36-0028,745-0809,周南市久米中央5-8-1,9:00~18:00,無,,
フタミ薬局 五月店,352152,山口県,周南市,34.036831,131.828629,0834-22-2333,0834-22-2322,745-0811,周南市五月町9-10 ,月~土 8:30~17:30,無,,
さくら薬局徳山中央病院前店,352152,山口県,周南市,34.046474,131.834503,0834-28-8739,0834-28-8741,745-0822,周南市孝田町2-1,月~金8:30~17:30,有,0834-28-8739,
平成薬局,352152,山口県,周南市,34.048897,131.834183,0834-29-2293,0834-29-2294,745-0822,周南市孝田町7-1,月~金8:30~17:30日祝・12/31~1/3 9:00~17:00,有,090-7122-3305,
ウォンツ周南周陽薬局,352152,山口県,周南市,34.050896,131.827469,0834-39-0150,0834-39-0151,7450823,山口県周南市周陽1-1-1,月~金 9:00~18:00,無,,
石丸薬局 周陽店,352152,山口県,周南市,34.047096,131.830338,0834-28-4050,0834-28-8863,745-0823,周南市周陽2-1-3-105,月~金8:30~18:00土8:30~14:00,有,0834-28-4050,
トマト薬局,352152,山口県,周南市,34.04747,131.824997,0834-28-5993,0834-28-5990,745-0824,周南市大内町10-10,月~水・金 8:30~18:00木 8:30~16:30土 8:30~12:30,有,0834-28-5993,
あい薬局 徳山店,352152,山口県,周南市,34.047165,131.812592,0834-34-5757,0834-33-2171,745-0845,周南市河東町8-3,月・火・水・金9:00~18:00木・土9:00~12:30,無,,
御弓町薬局,352152,山口県,周南市,34.073544,131.822449,0834-22-3411,0834-22-3412,745-0851,周南市大字徳山御弓町4186-5,月・火・水・金8:45~18:00木8:45~16:45土8:45~12:30,無,,
あい薬局 新南陽店,352152,山口県,周南市,34.069344,131.788162,0834-33-8718,0834-33-8719,745-0868,周南市南浦山町5-13 ,8:30~17:30,無,,
桜田薬局,352152,山口県,周南市,34.077461,131.684296,0834-82-0009,0834-82-0009,745-1131,周南市戸田2797,月火木金8:00~18:00水8:00~16:00土8:00~12:00,有,090-6849-8216,
古川薬局,352152,山口県,周南市,34.070332,131.776703,0834-64-2288,0834-64-2289,746-0009,周南市川手1-7-16 ,月・火・水・金 8:30~18:00木 8:30~12:30土 8:30~17:00,無,,
サルビア薬局,352152,山口県,周南市,34.073055,131.766663,0834-62-6526,0834-62-6527,746-0012,周南市政所2-13-13,月~金9:00~19:00土9:00~12:00、14:30~19:00,有,0834-62-6526,
アトム薬局,352152,山口県,周南市,34.071762,131.774765,0834-64-2158,0834-64-2159,746-0013,周南市桶川町5-21,月~水・金8:30~18:30木8:30~16:30土8:30~12:30,無,,
ココカラファイン薬局 政所店,352152,山口県,周南市,34.072418,131.773911,0834-62-7000,0834-62-7080,746-0013,周南市桶川町7-11,月・金9:00~18:00火・水・木9:00~17:30土9:00~13:00,有,070-3138-8672,
光星薬局,352152,山口県,周南市,34.07037,131.773132,0834-63-8522,0834-63-8527,746-0014,周南市古川町9-6,月・火・木・金8:30~18:00水8:30~16:30土8:30~12:30,有,0834-63-8522,
フタミ薬局 新南陽店,352152,山口県,周南市,34.072723,131.764618,0834-33-9923,0834-33-9921,746-0017,周南市宮の前2-1533-1,月~金9:00~17:30,無,,
宮の前薬局,352152,山口県,周南市,34.071953,131.763779,0834-64-6550,0834-64-6555,746-0017,周南市宮の前2-6-20,月・火・水・金9:00~18:00木9:00~17:00土9:00~13:00,有,0834-64-6550,
ひまわり薬局 大神店,352152,山口県,周南市,34.080124,131.763687,0834-34-6225,0834-34-6228,746-0018,周南市大神3-12-73,月・火・木・金8:15~18:15水8:15~16:15土8:15~12:30,有,0834346225,
ミドリ薬局,352152,山口県,周南市,34.073311,131.738068,0834-63-0985,0834-63-4423,746-0038,周南市福川3-11-18,月・火・水・金8:00~18:00木8:00~12:00,無,,
そよかぜ薬局,352152,山口県,周南市,34.073341,131.757614,0834-34-1240,0834-34-1241,746-0039,周南市富田新町1-9-24,月・火・水・金8:30~18:00木8:00~16:00土8:30~12:00,有,0834-34-1240,
ホ-ム薬局,352152,山口県,周南市,34.071415,131.734161,0834-64-2601,0834-64-2602,746-0045,周南市新地町4-2,月・火・木・金8:20~18:00水8:20~16:20土8:20~12:20,有,090-6849-7456,
福川薬局 新地店,352152,山口県,周南市,34.071129,131.732498,0834-33-8383,0834-63-8849,746-0045,周南市新地町12-35 ,月~金9:00~18:00土9:00~13:00,無,,
菊川薬局,352152,山口県,周南市,34.090508,131.781235,0834-64-2038,0834-64-2039,746-0082,周南市大字下上2087-1,月~土8:30~18:30,有,0834-64-2038,
メディカルドラッグピスティ-店,352063,山口県,防府市,34.057365,131.597626,0835-22-4502,0835-22-4502,747-0002,防府市酢貝6-7,月~金9:30~18:30土9:30~13:30,有,080-3056-7966,
むれ薬局,352063,山口県,防府市,34.053902,131.596848,0835-28-9606,0835-28-9607,747-0012,防府市牟礼今宿1-5-38,月~水9:00~18:00 木9:00~17:00 金~土9:00~18:00,有,0835-28-9606,
フェリ-ス薬局 松崎店,352063,山口県,防府市,34.056717,131.579025,0835-28-8767,0835-28-9708,747-0027,防府市南松崎町5-24 ,月~水・金9:00~18:00木9:00~17:00土9:00~13:00,有,0835-28-8767,
会営国分寺薬局,352063,山口県,防府市,34.059826,131.579742,0835-38-2707,0835-38-4365,747-0028,防府市東松崎町4-23,月~金8:30~18:30土8:30~16:00,有,090-6843-6910,
いくも薬局天神店,352063,山口県,防府市,34.059319,131.575256,0835-28-7474,0835-28-7529,747-0033,防府市上天神町3-20,月~水・金8:30~18:30木8:30~17:30土8:30~13:00,有,転送,
天神薬局,352063,山口県,防府市,34.057022,131.573105,0835-26-5140,0835-26-5141,747-0034,防府市天神2-2-5,月~土8:30~17:40,有,090-7544-1848,
いくも薬局戎町店,352063,山口県,防府市,34.055698,131.57048,0835-24-5671,0835-24-5113,747-0036,防府市戎町1-6-11,月~水・金9:00~18:30木・土9:00~13:00,無,,
いくも薬局八王子店,352063,山口県,防府市,34.059441,131.565109,0835-27-0088,0835-27-0089,747-0037,防府市八王子2-11-19,月~水・金8:30~18:30木8:30~16:30土8:30~17:30,有,転送,
くすのき薬局,352063,山口県,防府市,34.056618,131.567627,0835-28-7661,0835-28-7662,747-0037,防府市八王子1-24-18 ,月・火・水・金9:00~19:00木・土9:00~17:00,無,,
シブヤ薬局 ,352063,山口県,防府市,34.057724,131.564911,0835-24-8585,0835-24-7676,747-0037,防府市八王子2-6-15,9:00~18:00土・日9:00~12:00,有,090-3171-1177,
えびす薬局,352063,山口県,防府市,34.054031,131.56572,0835-26-5555,0835-26-5556,747-0037,防府市八王子1-7-4,月~水・金8:30~17:30木8:30~16:30土8:30~12:30,有,090-6843-9076,
フェアリ-薬局,352063,山口県,防府市,34.063122,131.565002,0835-20-2010,0835-20-2011,747-0042,防府市今市町22-3,月~水、金9:00~18:00木8:00~16:00土9:00~13:00,有,09020063851,
ヘイワ薬局佐波店,352063,山口県,防府市,34.053379,131.562958,0835-24-8082,0835-24-8082,747-0044,防府市佐波1-3-9,月~金9:00~12:30、14:00~18:30土9:00~16:30,有,080-3885-4629,
フタミ薬局,352063,山口県,防府市,34.064938,131.541992,0835-25-5570,0835-25-5571,747-0065,防府市大字大崎460-1,9:00~18:00,無,,
エスマイル薬局徳地店,352039,山口県,山口市,34.189011,131.636612,0835-53-0080,0835-53-0081,747-0231,山口市徳地堀1624-7,月~金8:30~17:30土8:30~12:30,有,0835-53-0080転送,
そうごう薬局 防府駅南町店,352063,山口県,防府市,34.051903,131.565857,0835-26-6661,0835-26-6662,747-0801,防府市駅南町8-39 ,月・金9:00~18:00火・土9:00~13:00水・木9:00~17:00,有,0835-26-6661,
フタミ薬局 駅南店,352063,山口県,防府市,34.051254,131.565765,0835-28-7876,0835-28-7827,747-0801,防府市駅南町225-3,月~金8:30~18:00,無,,
新くわのやま薬局,352063,山口県,防府市,34.048576,131.568146,0835-25-1810,0835-38-5828,747-0802,防府市中央町9番40号,月~金8:30~18:00 土8:30~13:00,有,090-9464-0888,
三栄堂薬局,352063,山口県,防府市,34.043819,131.56369,0835-25-8010,0835-27-5660,747-0806,防府市石が口1-4-17,9:00~18:00,有,090-6845-3526,
石が口薬局,352063,山口県,防府市,34.045029,131.562347,0835-26-6300,0835-26-6301,747-0806,防府市石が口2-2-37,月~水・金8:30~18:30木8:30~17:00土8:30~12:30,有,0835-26-6300,
いちのみや薬局 伊佐江店,352063,山口県,防府市,34.039089,131.558487,0835-27-5588,0835-27-5589,747-0807,防府市桑南2-14-16,月~金8:30~18:00土8:30~12:30,有,090-7370-9933,
車塚薬局,352063,山口県,防府市,34.052143,131.574356,0835-27-3350,0835-27-3351,747-0811,防府市車塚町4-4,9:00~18:00木・土9:00~13:00,無,,
カワムラ薬局,352063,山口県,防府市,34.043224,131.577591,0835-22-1319,0835-24-5801,747-0814,防府市三田尻2-8-6,月~土8:30~19:00,有,0835-22-1319,
ヘイワ薬局 防府南店,352063,山口県,防府市,34.049534,131.573151,0835-23-3102,0835-28-7400,747-0814,防府市三田尻1-2-7,月~金9:00~18:00土9:00~13:00,有,080-1907-4039,
いちのみや薬局防府店,352063,山口県,防府市,34.038021,131.568329,0835-26-0551,0835-26-0552,747-0816,防府市華浦2-4-18,月~金9:00~18:00土9:00~13:00,有,0835-26-0551,
そうごう薬局三田尻店,352063,山口県,防府市,34.046116,131.572952,0835-23-8111,0835-23-8112,747-0819,防府市お茶屋町10-2,8:30~18:00土8:30~13:00,有,0835-23-8111,
オ-エス中関薬局,352063,山口県,防府市,34.005089,131.530472,0835-28-7481,0835-28-7482,747-0834,防府市大字田島587-6,月・火・水・金8:00~18:30木8:00~16:00土8:00~14:00,有,0835-28-7481,
いちのみや薬局植松店,352063,山口県,防府市,34.048306,131.536545,0835-27-0030,0835-27-0025,747-0836,防府市大字植松559-1,月~金8:30~18:00土(第1・3・5)8:30~17:00土(第2・4)8:30~13:00,有,080-1939-0030,
おおばたけ薬局,352128,山口県,柳井市,33.968517,132.163208,0820-45-2622,0820-45-2633,749-0102,柳井市大畠906,月・火・木・金 8:50~18:00水 8:00~16:00土 8:50~12:00,有,090-806-35869,
新下薬局幸町店,352012,山口県,下関市,33.962799,130.943802,083-229-5100,083-229-5101,750-0001,下関市幸町13-23,月~水・金8:45~18:00木8:00~12:30土8:45~12:30,有,083-229-5100,
(有)のぞみ薬局 幸町店,352012,山口県,下関市,33.961952,130.942917,083-233-2619,083-233-2719,750-0001,下関市幸町6-27,月・火・木・金8:40~18:00水・土8:40~12:30,有,083-233-2629,
(有)伊藤重光堂薬局,352012,山口県,下関市,33.958275,130.946365,083-222-0104,083-232-7155,750-0004,下関市中之町9-1,平日9:00~18:00土9:00~13:00,有,083-222-0104,
秋本調剤薬局 唐戸店,352012,山口県,下関市,33.958839,130.945358,083-233-2415,083-233-2416,750-0007,下関市赤間町9-7,月・火・水・金・土9:00~18:00木9:00~13:30,有,0832332415,
エ-デル薬局,352012,山口県,下関市,33.961311,130.940674,083-232-1155,083-232-1252,750-0008,下関市田中町1-13,月・火・水・金9:00~18:00木8:30~16:30土9:00~12:30,有,083-232-1155(時間外は携帯電話に転送),
田中町薬局,352012,山口県,下関市,33.958286,130.940842,083-224-1363,083-233-1563,750-0008,下関市田中町7-11,月~水・金9:00~18:00木9:00~17:00土9:00~12:45,有,083-224-1363,
(有)のぞみ薬局,352012,山口県,下関市,33.958984,130.94194,083-231-7237,083-232-3406,750-0008,下関市田中町4-6,"月・火・水・金9:00~18:00木8:30~16:30土(第1,3,5)9:00~13:00土(第2,4)9:00~16:30",有,0832317238,
サンキュ-ドラッグ上田中町薬局,352012,山口県,下関市,33.962364,130.940506,083-227-0139,083-227-0138,750-0009,下関市上田中町2-9-3,月~土9:00~19:00日祝9:00~13:00,有,083-227-0139,
秋本薬局 細江店,352012,山口県,下関市,33.950489,130.930878,083-229-3312,083-229-3313,750-0016,下関市細江町3-3-1-1F,月~土9:00~18:00,有,083-229-3312,
竹崎薬局,352012,山口県,下関市,33.951897,130.924728,083-232-0680,083-233-5428,750-0025,山口県下関市竹崎町1丁目14-25,月、火、水、金曜日:8:30-17:30 木曜日:8:30-  .16:30. 土曜日:8:30- 12  :30  休み:日曜日 祝日,有,083-232-0680,
有限会社コトブキ薬局,352012,山口県,下関市,33.95229,130.922241,083-232-3314,083-233-2580,750-0025,下関市竹崎町3-5-25,月~水・金9:00~18:00木8:00~16:00土9:00~13:00,有,090-7592-3131,
下関薬剤師会薬局,352012,山口県,下関市,33.964676,130.930344,083-250-5020,083-250-5082,750-0041,下関市向洋町1-14-2,月~金8:30~17:30,無,,
そうごう薬局 東駅店,352012,山口県,下関市,33.968502,130.928482,083-235-6611,083-235-1395,750-0046,下関市羽山町1番1-202号,月~金8:30~18:00土8:30~13:00,有,083-235-6611,
(有)ベル薬局 東駅店,352012,山口県,下関市,33.968735,130.929276,083-231-3088,083-231-3088,750-0046,下関市羽山町4-1,月・金 8:30~18:00火・水 8:30~17:00木8:30~16:30土8:30~12:30,有,090-5704-6830,
しおさい薬局,352012,山口県,下関市,33.964401,130.91806,083-250-9113,083-250-9116,750-0057,下関市筋川町3-7,月~水・金9:00~18:00木8:00~16:00土9:00~12:30,有,070-5056-6173,
ダリヤ下関薬局,352012,山口県,下関市,33.959427,130.919754,083-228-2770,083-228-2771,750-0061,下関市上新地町3-3-3,月~金:8:30~18:00,有,090-6598-2866,
はるみ薬局,352012,山口県,下関市,33.957794,130.921402,083-233-2323,083-233-2373,750-0061,下関市上新地町1-2-7,月~水・金8:30~18:00木8:30~15:00土8:30~12:30,有,083-233-2323,
サンキュ-ドラッグ 彦島中央薬局,352012,山口県,下関市,33.935921,130.91095,083-261-5239,083-261-5240,750-0074,下関市彦島本村町7-3-9,月~金9:00~18:00土9:00~13:00,有,083-261-5239,
本村中央薬局,352012,山口県,下関市,33.943439,130.911026,083-267-5911,083-267-5912,750-0074,下関市彦島本村町4-1-2,月・火・水・金8:20~18:00木8:00~16:00土8:20~12:30,有,083-267-5911,
パワフル薬局,352012,山口県,下関市,33.928944,130.917526,083-267-8026,083-267-5403,750-0075,下関市彦島江の浦町9-7-5,月・火・木・金9:00~18:30水9:00~18:00土9:00~13:00,有,090-7135-4308,
ゆうなぎ薬局,352012,山口県,下関市,33.937359,130.916,083-242-1388,083-242-1387,750-0075,下関市彦島江の浦町1-1-11 ,月~水・金 9:00~18:00土      9:00~13:00,無,,
ゆう薬局,352012,山口県,下関市,33.936848,130.913727,083-227-3146,083-227-3148,750-0075,下関市彦島江の浦町1-7-2 登根ビル1F ,月・火・水・金9:00~18:00木・土9:00~13:00,無,,
健和薬局 江の浦店,352012,山口県,下関市,33.928986,130.914658,083-261-5888,083-261-5887,750-0075,下関市彦島江の浦町3-5-8,月~金9:00~18:10土9:00~12:40,有,090-7135-4308,
有限会社江の浦薬局,352012,山口県,下関市,33.936623,130.912338,083-266-8579,083-266-8510,750-0075,下関市彦島江の浦町1-5-2,月~金8:30~18:30土8:30~13:00,有,090-4801-1249,
彦島薬局,352012,山口県,下関市,33.926044,130.914566,083-266-3193,083-266-9913,750-0081,下関市彦島角倉町1-11-27,月・火・水・金8:45~17:30木8:00~16:00土8:45~12:30,無,,
フラワ-薬局 菊川店,352012,山口県,下関市,34.108871,131.038406,083-288-1488,083-288-1455,750-0313,下関市菊川町大字田部宇上ヶ道1141-17,月・火・木・金9:00~18:00水・土9:00~12:30,有,070-6690-0631,
(株)N・R 菊川薬局,352012,山口県,下関市,34.125946,131.034164,083-287-2515,083-287-2558,750-0317,下関市菊川町下岡枝374-7,月~水・金 9:00~18:00木 9:00~17:00土 9:00~12:30,有,083-287-2515,
木屋川薬局,352012,山口県,下関市,34.191704,131.071838,083-766-0141,083-766-2680,750-0441,下関市豊田町大字中村5,月・火・水・金8:00~18:00木8:00~16:00土8:00~12:00,有,083-766-0141,
かわさき薬局,352012,山口県,下関市,34.070225,131.034698,083-282-0256,083-282-0837,750-1143,下関市小月駅前1-2-45,月~水・金8:00~19:00木8:00~18:00土8:00~16:00,有,083-282-0256,
あすなろ薬局,352012,山口県,下関市,34.06852,131.030304,083-282-4321,083-283-2357,750-1144,下関市小月茶屋2-1-18,月~水・金8:00~18:00木・土8:00~16:00,有,080-1909-1158,
パワフル薬局小月店,352012,山口県,下関市,34.068764,131.030258,083-250-8626,083-250-8627,750-1144,下関市小月茶屋1-8-20,月~金8:00~18:00土8:00~16:00,有,090-7135-4308,
くるみ薬局,352012,山口県,下関市,34.064457,131.026321,083-281-3963,083-281-2963,750-1153,下関市清末鞍馬3-4-9 ,月~水・金9:00~18:00木8:30~16:30土9:00~12:30,有,070-2294-3085,
はすの実薬局,352012,山口県,下関市,34.063454,131.026794,083-227-2133,083-227-2134,750-1153,下関市清末鞍馬3-5-12-2,月・火・木・金9:00~19:00水9:00~18:00土9:00~12:30,有,083-227-2133,
いちのみや薬局,352012,山口県,下関市,33.995312,130.951996,083-257-0870,083-257-1727,751-0806,下関市一の宮町4-1-21,月~金8:30~18:00土8:30~12:30,有,0832570870,
うしろだ薬局,352012,山口県,下関市,33.971291,130.931473,083-228-0197,083-228-0198,751-0826,下関市後田町2-1-43,月~水・金9:00~18:00木8:00~16:00土9:00~12:30,無,,
愛・感動・NEXT薬局,352012,山口県,下関市,33.96859,130.93428,083-242-4189,083-242-5189,751-0826,下関市後田町1-1-2 ,月~金9:00~17:30土9:00~12:30,有,083-242-4189,
秋本東駅薬局,352012,山口県,下関市,33.968868,130.930527,083-222-2015,083-222-3015,751-0826,下関市後田町1-8-18,月~水・金9:00~18:00木・土9:00~13:00,有,083-222-2015,
ひまわり薬局 生野店,352012,山口県,下関市,33.985859,130.937988,083-251-4515,083-251-4520,751-0832,下関市生野町2-34-11,平日8:30~18:00土8:30~13:00,有,083-251-4515,
アクア薬局,352012,山口県,下関市,33.981487,130.924957,083-250-6403,083-250-6708,751-0833,下関市武久町1-14-16,月8:00~16:00火~金9:00~19:00土9:00~14:00,有,0832506403,
(有)くれない薬局,352012,山口県,下関市,33.981758,130.917938,083-255-3311,083-255-3321,751-0833,下関市武久町2-55-5,平日8:30~17:00,無,,
アイテル薬局山の田店,352012,山口県,下関市,33.989422,130.929108,083-252-3434,083-252-3435,751-0838,下関市山の田本町6-4,月・水・金9:00~18:00火・木9:00~17:00土9:00~13:00,有,090-6419-3434,
ミドリ薬局,352012,山口県,下関市,33.988991,130.929291,083-254-2266,083-254-1954,751-0838,下関市山の田本町1-1,月・火・水・金9:00~18:00木9:00~17:00土9:00~13:00,有,083-254-2266,
菜の花薬局,352012,山口県,下関市,33.992592,130.927338,083-251-2787,083-251-2788,751-0841,下関市垢田町1-23-12,月・火・水・金8:30~18:00木8:30~16:30土8:30~13:00                  ,有,09041413262,
まさむね薬局,352012,山口県,下関市,34.001957,130.926208,083-249-5997,083-249-5998,751-0849,下関市綾羅木本町2-3-11 ,月~金9:00~18:30土9:00~13:00,有,083-249-5997,
秋本薬局綾羅木店,352012,山口県,下関市,34.004681,130.92366,083-254-4415,083-254-4414,751-0849,下関市綾羅木本町4-8-28,月・火・水・金8:40~18:00木8:00~16:00土8:40~12:30,有,083-254-4415,
いちのみや熊野薬局,352012,山口県,下関市,33.990723,130.941559,083-250-1888,083-250-1881,751-0852,下関市熊野町1丁目7-5,月~金8:30~18:00 土8:30~16:00,有,080-9792-8118,
そうごう薬局 下関店,352012,山口県,下関市,33.993504,130.940292,083-251-6051,083-255-8392,751-0853,下関市川中豊町7-14-6N1ビル1F,月・火・木・金9:00~18:00水9:00~17:00土9:00~13:00,有,083-251-6051,
杉山薬局,352012,山口県,下関市,33.994308,130.939896,083□242□2530,083□242□2531,751-0853,下関市川中豊町7丁目1□36,月9:00~18:00/火9:00~18:00/水9:00~17:00/木9:00~18:00/金9:00~18:00/土9:00~12:00,無,,
有限会社川中薬局,352012,山口県,下関市,33.993164,130.939224,083-255-5557,083-255-5556,751-0853,下関市川中豊町7-12-13,月~金9:00~18:00土9:00~13:00,有,090-4801-1249,
(有)杉山薬局,352012,山口県,下関市,33.994308,130.939896,083-242-2530,083-242-2531,751-0853,下関市川中豊町7-1-36,月・火・木・金9:00~18:00水9:00~17:00土9:00~12:00,有,0832422530,
(有)稗田薬局,352012,山口県,下関市,33.996067,130.932587,083-254-6220,083-254-6228,751-0857,下関市稗田北町13-37,月・火・水・金8:30~18:00木8:00~16:00土8:30~12:30,有,083-254-6220,
いちのみや薬局 勝山店,352012,山口県,下関市,34.018246,130.945496,083-263-3358,083-263-3858,751-0868,下関市大字有冨167-1,月~金9:00~18:00土9:00~13:00,有,070-2640-2509,
そうごう薬局 新下関店,352012,山口県,下関市,34.006107,130.942032,083-255-1151,083-255-1152,751-0869,下関市伊倉新町1-2-6,月・火・木・金8:30~18:00水8:30~16:30土8:30~14:00,有,083-255-1151,
のぞみ薬局伊倉店,352012,山口県,下関市,34.005592,130.935913,083-227-2222,083-227-2224,751-0869,下関市伊倉新町4-2-14 ,月~水・金8:30~18:10木8:30~12:10土8:30~13:40,有,083-227-2223,
下関在宅支援薬局,352012,山口県,下関市,34.0084,130.954727,083-227-2198,083-256-9019,751-0872,下関市秋根南町2-3-1 ,月~水・金 9:00~12:00,無,,
フラワ-薬局新下関店,352012,山口県,下関市,34.00843,130.944901,083-227-4173,083-227-4174,751-0873,下関市秋根西町1-7-24,月~水・金9:00~18:00木・土9:00~13:00,無,,
たくら薬局,352012,山口県,下関市,34.021545,130.971832,083-257-6190,083-257-6191,751-0883,下関市田倉767 ,月~金 9:00~18:00土 9:00~13:00,有,083-257-6190,
あおい薬局,352012,山口県,下関市,34.015202,130.953964,083-257-6588,083-257-6589,751-0885,下関市形山みどり町14-19 ,月・火・木・金9:00~18:00水・土9:00~13:00,有,083-257-6588,
いちのみや薬局新下関店,352012,山口県,下関市,34.015644,130.949402,083-249-6110,083-249-6112,751-0886,下関市大字石原127 コスパ新下関クリニックビル1F,月~金9:00~18:00 土9:00~13:00,有,070-4152-5464,
健和薬局,352012,山口県,下関市,34.040916,131.015823,083-248-5348,083-248-1162,752-0915,下関市王司本町1-17-21 ,月~金9:00~18:00土9:00~12:30,有,08016310767,
だんしん薬局,352012,山口県,下関市,34.038166,131.012253,083-248-2442,083-248-2016,752-0916,下関市王司上町5-8-17,月~水・金9:00~18:30木8:00~16:00土9:00~13:00,有,転送,
新くわのやま薬局 王司店,352012,山口県,下関市,34.042679,131.013931,083-248-3957,083-248-3597,752-0916,下関市王司上町1-8-9,月~金8:30~18:00土8:30~16:00,有,083-248-3957,
大信薬局長府店,352012,山口県,下関市,34.022633,131.004562,083-248-6340,083-248-6340,752-0928,下関市長府才川2-12-8,月~金9:00~18:30      土9:00~12:30,有,090-1868-3158,
エスマイル薬局松小田店,352012,山口県,下関市,34.017586,130.999496,083-227-4805,083-227-4806,752-0933,下関市長府松小田本町521-3 ,月・火・水・金9:00~18:30木9:00~17:00土9:00~13:00,有,083-227-4805,
松小田薬局,352012,山口県,下関市,34.019329,131.000992,083-242-8193,083-242-5193,752-0933,下関市長府松小田本町5-13,月~土9:00~18:00,有,転送,
オリ-ブ薬局長府店,352012,山口県,下関市,34.012737,130.992218,083-227-2136,083-227-2138,752-0944,下関市長府中六波町300-1 ,月・火・木・金9:00~18:30水8:30~16:30土9:00~13:00,有,0832272136,
有限会社永松薬局,352012,山口県,下関市,34.000977,130.989441,083-245-0563,083-245-0523,752-0973,下関市長府中之町5-27,月~土9:00~20:00,無,,
さくら薬局長府店,352012,山口県,下関市,33.997726,130.989899,083-245-8439,083-245-8521,752-0976,下関市長府南之町3-32,月~水・金9:00~18:00木・土9:00~13:00,有,083-245-8439,
そうごう薬局 長府店,352012,山口県,下関市,33.997059,130.989563,083-241-0061,083-246-9432,752-0976,下関市長府南之町2-27,月・火・木・金8:30~18:00水8:30~16:30土9:00~13:00,有,083-241-0061,
城下町つばき薬局,352012,山口県,下関市,33.997757,130.990112,083-241-2340,083-241-2341,752-0976,下関市長府南之町3-34 ,月~金8:50~18:00土8:50~17:00,有,080-2944-9157,
ワイズ薬局,352012,山口県,下関市,33.994869,130.991699,083-246-1235,083-246-1254,752-0977,下関市長府東侍町5-6,月~水・金8:30~18:00木8:00~16:00土8:30~13:00,有,080-5237-8528,
こくりつ薬局,352012,山口県,下関市,33.988811,130.99147,083-241-0038,083-241-0039,752-0985,下関市長府外浦町2-20,月~金8:30~18:00土9:00~12:00,有,080-2714-8006,
関門薬局,352012,山口県,下関市,33.988811,130.99147,083-241-0222,083-241-0223,752-0985,下関市長府外浦町2-20,月~金8:30~17:30土8:30~12:30,有,転送,
みき薬局山口店,352039,山口県,山口市,34.192631,131.498795,083-928-8900,083-928-8908,753-0021,山口市桜畠2-6-6,月・火・水・金8:30~18:00木8:30~16:30土8:30~12:30,有,083-928-8900,
ウォンツ上山口薬局,352039,山口県,山口市,34.185951,131.488998,083-933-1207,083-933-1217,753-0023,山口市三の宮1-2-47,月~金9:00~18:00土9:00~13:00,無,,
三の宮薬局,352039,山口県,山口市,34.188869,131.490158,083-924-8535,083-922-5558,753-0023,山口市三の宮2-7-6,月~金9:00~18:00土9:00~13:00,有,09075958018,
ほたる薬局,352039,山口県,山口市,34.181705,131.479095,083-902-2505,083-902-2515,753-0034,山口市下竪小路65-1,月・火・木・金9:00~18:00水・土9:00~12:00,有,083-902-2505,
あい薬局山口店,352039,山口県,山口市,34.181919,131.481735,083-902-5780,083-902-5781,753-0036,山口市円政寺77番5 ,月・火・水・金 9:00~18:00水・土 9:00~13:00,無,,
トマト薬局,352039,山口県,山口市,34.183464,131.485031,083-924-6380,083-925-7714,753-0037,山口市道祖町6-13,月~金9:00~18:00土9:00~13:00,有,083-924-6380,
サンセル薬局,352039,山口県,山口市,34.17487,131.478928,0839237781,0839237786,753-0048,山口市駅通り2丁目2-17,月~金)8:30~18:00 土)8:30~13:00,有,08066344966,
ファイン薬局,352039,山口県,山口市,34.164265,131.46019,083-928-8476,083-928-6234,753-0056,山口市湯田温泉1-5-26,月~水・金8:00~18:00木8:00~16:00土8:00~13:00,有,090-3172-2241,
オリ-ブ薬局,352039,山口県,山口市,34.166439,131.450943,083-934-3700,083-934-3701,753-0066,山口市泉町8-21,月~水・金8:30~18:30木8:30~16:30土8:30~17:30,有,090-3880-0099,
メイプル薬局,352039,山口県,山口市,34.166676,131.451263,083-934-6680,083-934-6681,753-0066,山口市泉町8-17,月・火・水・金8:00~18:00木8:00~16:00土8:00~12:30,有,090-8605-5749,
三浦薬局,352039,山口県,山口市,34.167946,131.447571,083-902-5677,083-902-5688,753-0067,山口市赤妻町3-33-2 ,月・火・木・金9:00~18:00水9:00~17:00土9:00~16:00,有,0839025677,
そうごう薬局 春日町店,352039,山口県,山口市,34.181068,131.471375,083-921-9771,083-921-9772,753-0073,山口市春日町2-15,月・火・木・金9:00~18:00水14:00~18:00土9:00~13:00,有,083-921-9771,
コスモ薬局,352039,山口県,山口市,34.168667,131.464249,083-932-1115,083-932-1114,753-0076,山口市泉都町1-3,月・火・水・金9:00~18:00木9:00~17:00土9:00~13:00,有,070-5671-2038,
アイン薬局山口湯田店,352039,山口県,山口市,34.166786,131.460693,083-925-3332,083-925-3352,753-0076,山口市泉都町9-14 ,月・火・木・金8:45~17:30水8:45~16:45土8:45~13:00,有,083-925-3332,
アイテル薬局白石店,352039,山口県,山口市,34.178177,131.473511,083-902-5362,083-902-5363,753-0088,山口市河原町2-14,月~金 8:30~17:30土 8:30~12:30,有,080-2151-3436,
チュ-リップ薬局,352039,山口県,山口市,34.17963,131.471283,083-934-3125,083-934-3126,753-0089,山口市亀山町6-2,月・火・水・金8:45~18:30木8:45~16:45土8:45~14:00,無,,
菜のはな薬局,352039,山口県,山口市,34.128128,131.546036,083-941-1020,083-927-7001,753-0212,山口市大字下小鯖1331-8,月~水・金8:30~18:00木8:00~16:00土8:30~12:30,有,083-941-1020,
新いちのみや大内薬局,352039,山口県,山口市,34.152596,131.490448,083-941-2882,083-941-2788,753-0214,山口市大内千坊4-15-30,月~水・金8:30~18:00木8:30~17:00土8:30~13:00,無,,
不動薬局御堀店,352039,山口県,山口市,34.167011,131.48381,083-925-7442,083-925-7443,753-0214,山口市大内御堀1-6-1,月~金8:30~18:30土8:30~12:30,有,083-925-7442,
みほり薬局,352039,山口県,山口市,34.156063,131.50119,083-927-7522,083-927-7523,753-0221,山口市大内矢田北1-19-18,月~金9:00~18:00土9:00~13:00,有,090-3798-1684,
(有)光栄薬局,352039,山口県,山口市,34.154171,131.509247,083-927-2217,083-927-6050,753-0221,山口市大内矢田北5-12-15,月・火・水・金8:30~17:30木8:30~16:30(12:30以降は訪問のため薬局には不在)土8:30~12:30,有,090-8063-6953,
あとも薬局,352039,山口県,山口市,34.156242,131.452179,083-901-2220,083-901-2221,753-0825,山口市矢原町7-18,月・火・水・金9:00~18:00木9:00~17:00土9:00~13:00,有,080-3941-8288,
メロディ薬局,352039,山口県,山口市,34.158031,131.450211,083-921-8273,083-921-8274,753-0826,山口市幸町3-49-3,月~金:9:00~18:00 土  :9:00~13:00,有,083-921-8273,
平井薬局,352039,山口県,山口市,34.157471,131.466324,083-976-4653,083-976-4654,753-0831,山口市平井298-6 ,月・火・木・金8:30~18:00水8:30~13:00土8:30~13:00,有,083-976-4653,
ペリカンみんなの薬局,352039,山口県,山口市,34.145081,131.458374,083-934-1700,083-934-1701,753-0831,山口市平井1439-1 ,月~金 8:30~18:00土 8:30~15:30,有,083-934-1700,
ソレイユ薬局,352039,山口県,山口市,34.14212,131.448853,083-941-6416,083-941-6417,753-0851,山口市黒川771-13,月~水・金9:00~18:30木9:00~17:00土9:00~13:00,有,083-250-6403,
ウォンツ山口小郡薬局,352039,山口県,山口市,34.103943,131.393967,083-976-0211,083-976-0213,754-0002,山口市小郡下郷797-8,月~水・金・土8:30~20:00木8:30~13:00,無,,
オオタ薬局 山手店,352039,山口県,山口市,34.098068,131.385254,083-974-1355,083-974-1356,754-0002,山口市小郡下郷748-1 ,8:30~18:30土8:30~17:30,有,083-974-1355,
ホワイト薬局,352039,山口県,山口市,34.103199,131.395538,083-973-6663,083-973-6664,754-0002,山口市小郡下郷842-9,8:30~18:00,有,083-973-6663,
三好薬局,352039,山口県,山口市,34.102245,131.395676,083-972-7143,083-972-7432,754-0002,山口市小郡下郷844-4,月~金9:00~18:30土9:00~17:30,有,転送,
秀栄薬局,352039,山口県,山口市,34.101963,131.399307,083-973-6977,083-973-6978,754-0002,山口市小郡下郷965,月~金 9:00~18:00土 9:00~17:00,有,083-973-6977(携帯電話に転送),
中央薬局,352039,山口県,山口市,34.103893,131.3974,083-974-3420,083-974-2000,754-0002,山口市小郡下郷867-9,月~金8:30~18:00土9:00~12:00,有,0839743420,
中領薬局,352039,山口県,山口市,34.106709,131.398026,083-976-5555,083-976-5553,754-0002,山口市小郡下郷319-7,月・火・水・金9:00~18:00木8:00~16:00土9:00~12:30,有,083-976-5555,
仁成堂薬局小郡店,352039,山口県,山口市,34.094746,131.403854,083-976-8400,083-976-8410,754-0012,山口市小郡船倉町1-8,月~土8:30~18:00,有,083-976-8400,
山口介護保険薬局,352039,山口県,山口市,34.087227,131.393784,083-974-2356,083-974-2355,754-0025,山口市小郡平砂町7-6,月~土9:00~18:00,有,0839742300,
オオタ薬局,352039,山口県,山口市,34.114712,131.399475,083-973-5508,083-972-8289,754-0031,山口市小郡新町4-2-17,月~金8:30~18:00土8:30~13:00,有,083-973-5508,
オオタ薬局 新町店,352039,山口県,山口市,34.11237,131.400375,083-972-7478,083-972-2918,754-0031,山口市小郡新町1-6-10,月~金8:30~18:00土8:30~12:00,有,083-972-7478,
光ヶ丘薬局,352039,山口県,山口市,34.119385,131.399033,083-972-6778,083-972-5549,754-0031,山口市小郡新町7-1-37,月・火・水・金9:00~18:00木9:00~17:00土9:00~12:30,無,,
ひなた薬局,352039,山口県,山口市,34.097614,131.395828,083-976-8777,083-976-8778,754-0043,山口市小郡明治1-13-23,9:00~18:00木9:00~17:00土9:00~16:00,有,083-976-8777,
石川薬局,352039,山口県,山口市,34.097187,131.392487,083-972-1262,083-972-1262,754-0043,山口市小郡明治1-2-5,8:30~18:30土8:30~13:00,有,090-3375-1039,
メディカルパ-ク薬局,,,,34.096107,131.391922,083-976-0788,083-976-0790,754-0052,山口市小郡長谷一丁目1番5号,月-水金土8:30-18:30木8:30-16:30,無,,郵便番号
美秋薬局,352136,山口県,美祢市,34.232838,131.357422,08396-2-1711,08396-2-1712,754-0211,美祢市美東町大田3810-14,月曜日-金曜日 8:30-17:30 日曜日  8:30-12:30,有,08396-2-1711,
秋芳薬局,352136,山口県,美祢市,34.232285,131.297791,0837-63-0470,0837-63-0471,754-0511,美祢市秋芳町秋吉5341-4,月 8:15~18:00 火 8:15~18:00 水 8:15~16:15 木 8:15~18:00 金 8:15~18:00 土 8:15~17:00,有,0837-63-0470,
オオタ薬局 嘉川店,352039,山口県,山口市,34.062386,131.367233,083-941-5892,083-941-5893,754-0896,山口市江崎2475-3,月~金8:30~18:00土8:30~13:00,有,083-941-5892,
あいお薬局,352039,山口県,山口市,34.013096,131.431885,0839840155,0839840152,754-1101,山口市秋穂東6279,月・火・木・金9:00~18:00 水9:00~17:00 土9:00~13:00,有,0839840155,
イケダ薬局,352039,山口県,山口市,34.016357,131.343506,0836-65-5433,0836-65-5435,754-1277,山口市阿知須4790-10,月~金8:30~18:30土8:30~14:00,有,09089900687,
仁成堂薬局阿知須店,352039,山口県,山口市,34.016357,131.343506,0836-38-8280,0836-38-8281,754-1277,山口市阿知須4515-10,月~水・金9:00~18:00木・土9:00~13:00,有,0836-38-8280,
かめうら薬局,352020,山口県,宇部市,33.942692,131.28746,0836-37-2580,0836-37-2636,755-0002,宇部市亀浦1-2-19,月・火・水・金8:30~18:00木8:00~16:00土8:30~12:30,有,0836-37-2580,
ときわ公園前薬局,352020,山口県,宇部市,33.943012,131.280594,0836-33-2662,0836-33-7797,755-0003,宇部市則貞5-5-8,月~水・金8:30~18:00木8:00~16:00土8:30~12:30,有,09068410138,
ひなた薬局,352020,山口県,宇部市,33.94128,131.273438,0836-39-5577,0836-39-5425,755-0004,宇部市草江二丁目1番44号,月・火・木・金9:00~18:00水・土9:00~12:30,有,0836-39-5577,
あおば薬局,352020,山口県,宇部市,33.936878,131.266357,0836-35-5571,0836-35-5572,755-0005,宇部市五十目山町15-2,月・火・水・金9:00~18:30(但し12/30は17:30)木9:00~17:00土9:00~13:00,有,0836-35-5571,
みさき薬局,352020,山口県,宇部市,33.932655,131.26207,0836-37-4537,0836-37-4538,755-0006,宇部市岬町1-7-6,9:00~19:00木9:00~17:00土9:00~13:30,無,,
平成薬局,352020,山口県,宇部市,33.934528,131.258209,0836-35-3588,0836-35-1628,755-0011,宇部市昭和町4-4-14,(月・火・木・金)8:15-18:15(水)8:15-16:15(土)8:15-12:45,有,090-7137-2390,
恩田薬局,352020,山口県,宇部市,33.944012,131.26091,0836-39-6700,0836-39-6701,755-0023,宇部市恩田2-4202-7,月・水・金9:00~18:00火・木8:00~16:00土9:00~12:30,有,0836-39-6700,
のはら薬局,352020,山口県,宇部市,33.950268,131.270065,0836-37-3731,0836-37-3732,755-0024,宇部市野原1-5-1,月~水・金8:30~18:30木・土8:30~13:00,無,,
トモエ薬局,352020,山口県,宇部市,33.951603,131.248993,0836-22-1120,0836-22-1331,755-0031,宇部市常盤町1-4-2,月・火・水・金8:30~18:00木8:00~16:00土8:30~13:00,有,0836-22-1120,
緑橋薬局,352020,山口県,宇部市,33.952682,131.247208,0836-31-8143,0836-31-0901,755-0031,宇部市常盤町1-1-5,"月火水金9:00~13:00,14:00~18:00木9:00~13:00土9:00~13:00,14:00~17:00",有,0836-31-8143(転送),
あい薬局,352020,山口県,宇部市,33.953236,131.249069,0836-32-6787,0836-31-5789,755-0032,宇部市寿町1-3-18,月~金8:30~18:00土8:30~13:30,有,0836-32-6787,
こころ薬局,352020,山口県,宇部市,33.951782,131.252777,0836-37-0033,0836-37-0032,755-0032,宇部市寿町3-2-25,月~水・金8:30~18:00木8:30~17:30土8:30~12:30,有,0836-37-0033,
はら薬局寿町店,352020,山口県,宇部市,33.953579,131.248032,0836-22-7587,0836-22-7537,755-0032,宇部市寿町1-3-31,月~水・金8:15~18:00木8:15~16:15土8:15~12:15,有,090-7531-9944,
寿薬局,352020,山口県,宇部市,33.953033,131.248749,0836-21-7021,0836-33-9077,755-0032,宇部市寿町1-3-22,月~水・金8:45~18:00木8:00~16:00土8:45~12:30,有,0836-21-7021,
ウォンツ宇部琴芝薬局,352020,山口県,宇部市,33.957153,131.258026,0836-37-1507,0836-37-1517,755-0036,宇部市北琴芝2-11-45,月~金9:00~13:00、14:00~18:00,無,,
五葉つつじ薬局,352020,山口県,宇部市,33.96032,131.259018,0836-36-7007,0836-36-7008,755-0036,宇部市北琴芝2-3-1 ,月~水・金 9:00~18:00木・土 9:00~12:00,無,090-1184-9100,
上宇部あおば薬局,352020,山口県,宇部市,33.958874,131.263077,0836-36-7005,0836-22-3266,755-0038,宇部市海南町2-21,月・火・金9:00~17:30水9:00~19:30木9:00~17:00土8:50~12:50,有,0836-36-7005,
かりん薬局,352020,山口県,宇部市,33.948265,131.264465,0836-37-0888,0836-37-0880,755-0039,宇部市東梶返3-17-24,月・火・水・金8:30~18:00木8:00~16:00土8:30~12:00,有,080-2927-2442,
回生堂薬局,352020,山口県,宇部市,33.960098,131.247498,0836-21-1394,0836-32-8833,755-0046,宇部市南小串2-3-5,8:30~18:00土9:00~13:00,有,0836-21-1394,
小松原薬局,352020,山口県,宇部市,33.96265,131.241425,0836-32-6250,0836-39-5506,755-0047,宇部市島3-8-14,月~水・金9:00~18:00木・土9:00~12:30,無,,
エビス薬局,352020,山口県,宇部市,33.963467,131.242599,0836-33-5914,0836-35-4180,755-0047,宇部市島3-10-23,月・火・水・金8:30~18:00木8:00~16:00土8:30~15:00,有,0836-33-5914,
ペリカンこころ薬局,352020,山口県,宇部市,33.964272,131.248199,0836-39-8330,0836-39-8331,755-0049,宇部市西小串6-5-52 ,月~水・金8:30~18:00木・土8:30~12:00,有,0836-39-8330,
そうごう薬局宇部店,352020,山口県,宇部市,33.965038,131.243835,0836-22-6160,0836-22-3137,755-0049,宇部市西小串5-6-19,月~水・金9:00~18:00木9:00~17:00土9:00~13:00,有,0836-22-6160,
そうごう薬局宇部新川店,352020,山口県,宇部市,33.958916,131.240219,0836-35-5631,0836-35-5632,755-0051,宇部市上町1-4-28 金藤ビル1F,月~金9:00~17:00土9:00~14:00,有,0836-35-5631転送,
マリン薬局,352020,山口県,宇部市,33.959606,131.236984,0836-39-8314,0836-39-8324,755-0052,宇部市西本町2-13-25 ,月~水・金 8:30~18:00木・土 8:30~12:30,有,0836-39-8314,
若松薬局,352020,山口県,宇部市,33.959435,131.243393,0836-34-2141,0836-34-1838,755-0061,宇部市若松町4-17,月火水金8:30~18:30木8:00~16:00土8:30~12:30,有,09068420827,
つばさ薬局,352020,山口県,宇部市,33.965084,131.233994,0836-37-2830,0836-37-2831,755-0065,宇部市浜町2-11-14 ,月火水金9:00~18:00木9:00~12:30土8:30~12:30,有,0836-37-2830,
あゆみ薬局,352020,山口県,宇部市,33.964405,131.248245,0836-43-7123,0836-43-7132,755-0067,宇部市西小串2-6-10 ,月・火・木・金8:30~18:00水8:00~16:00土8:30~12:30,有,0836-43-7123,
みらい薬局,352020,山口県,宇部市,33.963314,131.253113,0836-39-9963,0836-39-9964,755-0068,宇部市東小串2-1-3,月・火・水・金9:00~18:00木9:00~17:00土9:00~13:00,有,080-5610-1856,
小串薬局,352020,山口県,宇部市,33.962963,131.251587,0836-43-9792,0836-43-9819,755-0068,宇部市東小串1-1-64,月~水・金9:00~19:00木・土9:00~13:00,有,転送,
たにだ薬局中尾店,352020,山口県,宇部市,33.96917,131.267532,0836-39-7431,0836-39-0088,755-0073,宇部市中尾1-7-13 グリ-ンハイツ琴崎,月・火・木・金 8:30~18:30水 8:30~16:30土 8:30~13:30,有,0836-39-7431,
小川薬局 小羽山店,352020,山口県,宇部市,33.977604,131.259216,0836-35-0136,0836-35-0416,755-0081,宇部市北小羽山町2-6-3,月・火・水・金9:00~18:00木8:00~16:00土9:00~16:00,有,0836-35-0136,
オ-ランド薬局,352020,山口県,宇部市,33.982971,131.263153,0836-37-5101,0836-37-5102,755-0082,宇部市東小羽山町4-1-5,月・水・金・土 8:30~18:00,有,070-4133-5723,
おおしま相談薬局,352020,山口県,宇部市,33.97308,131.255829,0836-22-1141,0836-22-0741,755-0083,宇部市南小羽山町1-9-18,月~土9:00~19:00,有,0836-22-1141,
スカイ薬局,352020,山口県,宇部市,33.974983,131.258347,0836-38-7100,0836-38-7272,755-0083,宇部市南小羽山町2-19-14 ,月・水・木・金8:30~18:00火8:30~13:00土8:30~12:30,有,0836-38-7100,
グリ-ン薬局,352020,山口県,宇部市,33.960117,131.279449,0836-21-8246,0836-21-8235,755-0096,宇部市開6-11-6-1,月~金8:30~18:30土8:30~12:10,有,0836-21-8246,
ひらき薬局,352020,山口県,宇部市,33.964931,131.278809,0836-31-1153,0836-31-6708,755-0096,宇部市開1-3-2,月~水・金8:30~19:00木・土8:30~12:00,無,,
ぐうです薬局,352020,山口県,宇部市,33.969315,131.307983,0836-51-2220,0836-51-2230,755-0151,宇部市西岐波323番,月~金9:00~18:00 土9:00~13:00,有,0836-51-2220,
ひのき薬局,352020,山口県,宇部市,33.948727,131.291229,0836-51-8465,0836-51-8474,755-0151,宇部市大字西岐波4739-24,月・火・水・金8:30~18:30木8:30~13:30土8:30~17:30,有,080-1554-6507,
フジモト薬局西岐波店,352020,山口県,宇部市,33.969315,131.307983,0836-54-0446,0836-54-0495,755-0151,宇部市西岐波浜田1550-10,8:30~19:00,無,,
サン薬局,352020,山口県,宇部市,33.963207,131.304794,0836-54-4570,0836-54-4571,755-0155,宇部市今村北5-12-1,月~金8:30~17:30土8:30~13:00,有,0836-54-4570,
(有)西岐波薬局,352020,山口県,宇部市,33.957626,131.307358,0836-51-0217,0836-51-3169,755-0155,宇部市今村北4-26-12,月・火・水・金9:00~19:00木8:30~16:30土9:00~14:00,有,09068411403,
オオタ薬局 丸尾店,352020,山口県,宇部市,33.980255,131.331787,0836-52-8722,0836-52-8723,755-0241,宇部市東岐波丸尾4327-39 ,月~水・金 9:00~18:00木・土 9:00~17:00,無,,
はなぞの薬局,352020,山口県,宇部市,33.988216,131.345688,0836-59-2347,0836-59-2348,755-0241,宇部市大字東岐波1052-2,月・火・水・金・土9:00~18:30木9:00~17:00,有,080-2895-0481,
あんず薬局,352020,山口県,宇部市,33.969051,131.233353,0836-32-0132,0836-32-0133,755-0803,宇部市東藤曲2-5-13,月・火・木9:00~17:30水9:00~19:00金9:00~17:00土9:00~12:30,有,080-2890-6622,
おひさま薬局,352160,山口県,山陽小野田市,34.009682,131.163055,0836-39-8561,0836-39-8562,756-0057,山陽小野田市西高泊672-3,月・火・木・金8:30~18:00水8:30~16:30土8:30~12:30,有,080-5753-8331,
スマイル薬局,352160,山口県,山陽小野田市,34.009682,131.163055,0836-84-6113,0836-84-1691,756-0057,山陽小野田市西高泊590-5,月・火・水・金8:30~18:00木8:30~16:30土8:30~12:30,有,0836-84-6113,
第一薬局 小野田バイパス店,352160,山口県,山陽小野田市,34.009682,131.163055,0836-84-1543,0836-84-3248,756-0057,山陽小野田市西高泊669,月~金9:00~18:00土9:00~12:30,無,,
めで薬局,352160,山口県,山陽小野田市,34.00309,131.181793,0836-84-7590,0836-84-7591,756-0076,山陽小野田市目出7035-5,月・火・水・金8:30~18:00木8:00~16:00土8:30~13:00,有,0836-84-7590,
アイエム薬局,352160,山口県,山陽小野田市,34.00309,131.181793,0836-84-0625,0836-84-0679,756-0080,山陽小野田市楴山2-1-8,月~水・金8:30~18:00木8:00~16:00土8:30~12:30,有,0836-84-0625,
みつば薬局,352160,山口県,山陽小野田市,34.00309,131.181793,0836-81-0505,0836-81-0504,756-0080,山陽小野田市楴山1-17-12,月・火・木・金9:00~18:00水9:00~19:30土9:00~13:00,有,0836-81-0505,
グリ-ン薬局,352160,山口県,山陽小野田市,33.997986,131.1745,0836-83-0836,0836-83-0837,756-0088,山陽小野田市東高泊1614-7,月~金8:25~18:00土8:25~9:25,有,0836-83-0836,
はな薬局 市民病院前店,352160,山口県,山陽小野田市,33.997986,131.1745,0836-81-2066,0836-81-2077,756-0088,山陽小野田市東高泊1614-3 ,月~金8:30~17:30土8:30~9:30,有,0836812066,
みき薬局 小野田店,352160,山口県,山陽小野田市,34.012409,131.180222,0836-84-9707,0836-84-9730,756-0088,山陽小野田市東高泊1275-9,月・火・水・金8:30~18:00木8:00~16:00土8:30~12:00,有,0836-84-9707,
新生薬局,352160,山口県,山陽小野田市,34.00132,131.184036,0836-84-2892,0836-84-8418,756-0088,山陽小野田市東高泊2055-1,月~水・金8:30~18:00木8:30~16:30土8:30~12:30,有,080-2884-9221,
西日本薬局小野田店,352160,山口県,山陽小野田市,33.997986,131.1745,0836-81-5220,0836-81-5230,756-0088,山陽小野田市東高泊1588-2,月~金8:30~17:30土13:00~14:00,有,090-6844-7803,
そうごう薬局 小野田店,352160,山口県,山陽小野田市,34.006882,131.183807,0836-81-0151,0836-81-0152,756-0091,山陽小野田市日の出3-8-12,月・火・金9:00~18:00木・土9:00~13:00,有,0836-81-0151,
ひまわり薬局,352160,山口県,山陽小野田市,34.00563,131.185303,0836-84-4100,0836-84-4231,756-0091,山陽小野田市日の出4-5-2,月~水・金8:45~19:00木8:30~16:30土8:45~12:30,有,080-2891-8734,
日の出調剤薬局,352160,山口県,山陽小野田市,34.007179,131.184189,0836-84-5285,0836-84-5329,756-0091,山陽小野田市日の出3-7-5,月・火・水・金8:20~18:00木8:20~14:00土8:20~12:00,有,09037458798,
みずほ薬局,352160,山口県,山陽小野田市,33.988689,131.177277,0836-81-4193,0836-81-4194,756-0806,山陽小野田市中川4-4-1,月・水・金9:00~18:00火9:00~17:00木8:00~16:00土9:00~12:00,有,090-7592-3840,
千代町薬局,352160,山口県,山陽小野田市,33.983505,131.177887,0836-83-0880,0836-83-0988,756-0811,山陽小野田市稲荷町11-19,月~水・金9:00~18:00木9:00~16:00土9:00~13:00,有,090-7503-0154,
ファミリ-薬局 本町店,352160,山口県,山陽小野田市,33.98032,131.177689,0836-84-6135,0836-84-1687,756-0813,山陽小野田市住吉本町1-5-30,月~金9:00~18:00土9:00~16:00,有,0836-84-6135,
第一薬局住吉店,352160,山口県,山陽小野田市,33.979855,131.177475,0836-81-4321,0836-81-4320,756-0813,山陽小野田市住吉本町1-3-22,月・火・水・金8:30~18:00木・土8:30~12:30,有,0836-81-4321,
さくら坂薬局,352160,山口県,山陽小野田市,33.957695,131.172302,0836-81-1320,0836-81-1330,756-0817,山陽小野田市大字小野田字弐番溜井6106-56    ,月~金8:30~18:00土8:30~10:30,有,090-9739-0647,
さゆり薬局,352160,山口県,山陽小野田市,33.986275,131.184525,0836-81-1150,0836-81-1151,756-0817,山陽小野田市大字小野田1315-30,月~金8:30~18:00土8:30~10:30,有,080-2884-9224,
のぞみ薬局,352160,山口県,山陽小野田市,33.957695,131.172302,0836-81-5885,0836-83-0613,756-0817,山陽小野田市大字小野田6106-81,月~金8:30~18:00土10:00~12:00,有,0836-81-5885,
竜王薬局,352160,山口県,山陽小野田市,33.955372,131.185486,0836-89-0150,0836-89-0155,756-0817,山陽小野田市大学通2-15-12,月~金8:30~17:30、土12:00~13:00,有,0836-89-0150,
セントラル薬局,352160,山口県,山陽小野田市,33.975842,131.177261,0836-83-2646,0836-81-0173,756-0824,山陽小野田市中央1-5-22,月~金8:30~17:30土8:30~12:30,有,0836-83-2646,
南小野田薬局,352160,山口県,山陽小野田市,33.968098,131.177032,0836-81-0608,0836-81-0610,756-0832,山陽小野田市南竜王町1-20,月・火・水・金8:30~18:00木8:00~16:00土8:30~12:30,有,0836-81-0608,
さつき薬局,352160,山口県,山陽小野田市,33.970272,131.17662,0836-81-2177,0836-81-2188,756-0833,山陽小野田市北竜王町10-8,月・火・水・金8:30~18:00木8:00~16:00土8:30~12:00,有,090-3248-1281,
すえ薬局,352160,山口県,山陽小野田市,33.971745,131.179428,0836-81-2005,0836-81-2008,756-0836,山陽小野田市須恵1-12-2,月・火・水・金8:30~17:30木8:30~16:30土8:30~12:30,有,090-6837-7231,
さくら薬局,352160,山口県,山陽小野田市,33.962391,131.173767,0836-88-3121,0836-88-3152,756-0841,山陽小野田市赤崎2-10-2,月~金9:00~18:00土9:00~12:30,有,090-6837-7238,
さんよう薬局,352160,山口県,山陽小野田市,34.057594,131.17453,0836-73-0809,0836-73-1659,757-0001,山陽小野田市大字厚狭上ヶ田1042-1,月~金8:30~18:00土8:30~13:00,有,0836-73-0809,
花咲薬局 厚狭店,352160,山口県,山陽小野田市,34.053097,131.164917,0836-72-3100,0836-72-3101,757-0001,山陽小野田市大字厚狭458-7,月・火・金8:30~18:00水8:30~19:00木8:30~12:00土8:30~12:00,有,090-3742-5822,
つくし薬局,352160,山口県,山陽小野田市,34.056297,131.156586,0836-71-0555,0836-71-0550,757-0005,山陽小野田市大字鴨庄11-13,月・火・水・金8:30~18:00木8:30~16:30土8:30~12:30,有,090-8363-3392,
きずな薬局,352160,山口県,山陽小野田市,34.033928,131.104874,0836-79-0001,0836-79-0003,757-0011,山陽小野田市津布田2501-1 ,月・火・木・金8:30~12:30、13:30~17:30水・土8:30~12:30,無,,
だいだい薬局,352047,山口県,萩市,34.426121,131.413086,0838-21-0220,0838-21-0221,758-0011,萩市大字椿東北前小畑4162-14,月~金8:30~18:30土8:30~13:30,有,090-4893-1263,
椿東中央薬局,352047,山口県,萩市,34.418407,131.411194,0838-21-5670,0838-21-5671,758-0011,萩市椿東2863-15 ,月~土8:45~18:15,有,0838215670,
椿薬局,352047,山口県,萩市,34.413593,131.412231,0838-24-2233,0838-24-2266,758-0011,萩市大字椿東2972-9,月~金8:50~18:00土8:50~12:00,有,090-8244-2566,
そよかぜ薬局,352047,山口県,萩市,34.419563,131.401642,0838-21-0210,0838-21-0211,758-0024,萩市大字東浜崎町90 ,月~金8:30~18:30土8:30~12:30,有,0838-21-0210,
あすなろ薬局,352047,山口県,萩市,34.412106,131.406128,0838-21-7010,0838-21-7011,758-0025,萩市土原560-4,月~金 8:30~18:00 土 8:30~12:00 ,有,0838-21-7010,
さくらぎ薬局,352047,山口県,萩市,34.414646,131.406479,0838-26-1124,0838-26-1134,758-0025,萩市土原357-1,月~金8:30~18:00 土8:30~16:30,有,0838-26-1124,
土原薬局,352047,山口県,萩市,34.412998,131.408813,0838-22-0709,0838-22-0809,758-0025,萩市大字土原369-2,月~金8:30~18:00 土8:30~13:00,有,0838-22-0709,
さむろ薬局,352047,山口県,萩市,34.415619,131.403183,0838-25-7780,0838-25-7781,758-0027,萩市吉田町51-11,月~金:8:30~18:00 土:8:30~12:30,有,0838-25-7780,
あおぞら薬局,352047,山口県,萩市,34.414143,131.39743,0838-24-2070,0838-24-2080,758-0036,萩市大字塩屋町8,月~金8:30~18:00土8:30~12:00,有,0838-24-2070,
そうごう薬局萩店,352047,山口県,萩市,34.407932,131.401871,0838-24-3331,0838-24-3332,758-0041,萩市江向417-2,月~金8:30~18:30日9:00~17:00,有,0838-24-3331,
ささむら薬局,352047,山口県,萩市,34.412922,131.403473,0838-24-4747,0838-26-2772,758-0047,萩市大字東田町18-4,月~金8:30~18:30土8:30~12:00,有,0838-24-4747,
東郷薬局 東田町店,352047,山口県,萩市,34.411926,131.402344,0838-25-7765,0838-25-7741,758-0047,萩市東田町22,月~金8:30~18:00土8:30~13:00,有,0838-25-7765(薬剤師携帯転送),
(有)オリ-ブ薬局,352047,山口県,萩市,34.414803,131.388687,0838-24-4567,0838-24-4568,758-0057,萩市大字堀内236番地,月~金8:30~18:00土8:30~12:15,有,0838-24-4567,
てんじん薬局,352047,山口県,萩市,34.389774,131.405716,0838-21-7611,0838-21-7612,758-0061,萩市大字椿金谷2788-10,月~水・金8:30~18:00 木8:30~17:00 土8:30~13:00,有,0838-21-7611,
青海薬局,352047,山口県,萩市,34.389774,131.405716,0838-24-4755,0838-24-4766,758-0061,萩市大字椿字青海4082-4,月~金8:30~18:00 土8:30~12:30,有,0838-24-4755,
グロ-バル薬局,352020,山口県,宇部市,33.972759,131.209854,0836-45-0088,0836-45-0087,759-0204,宇部市大字妻崎開作502-2,月・火・木・金9:00~18:00水9:00~17:00土9:00~12:30,有,080-2884-9223,
厚南薬局,352020,山口県,宇部市,33.978737,131.217499,0836-45-3573,0836-45-3574,759-0204,宇部市大字妻崎開作110-1,月~金8:30~17:30土8:30~15:00,有,0836-45-3573,
友薬局,352020,山口県,宇部市,33.981586,131.202042,0836-43-6775,0836-43-6774,759-0206,宇部市大字東須恵1963,月~水・金9:00~18:30木9:00~17:00土:9:00~13:30,有,0836-43-6775転送,
フジモト薬局 中野店,352020,山口県,宇部市,33.990604,131.207245,0836-43-1791,0836-43-0815,759-0206,宇部市大字東須恵751-20,月~金9:00~18:30土9:00~15:00,有,0836-41-3828,
厚南薬局,352020,山口県,宇部市,33.994659,131.213501,0836453573,0836453574,759-0212,宇部市厚南中央5丁目8-2-35,月-金8:30-18:00 土8:30-15:00,有,0836453573,
寿薬局厚南店,352020,山口県,宇部市,33.996769,131.222443,0836-39-5150,0836-39-5354,759-0212,宇部市厚南中央1-2-65 ,月~水・金9:00~18:00木8:00~16:00土9:00~12:30,有,0836395150,
ゆずり葉薬局,352020,山口県,宇部市,33.99609,131.21965,0836-43-7350,0836-43-7360,759-0212,宇部市厚南中央2-1-10 ,月・火・水・金8:30~18:30木8:30~16:30土8:30~15:30,有,08052349935,
G&F藤井薬局 美祢店,352136,山口県,美祢市,34.181473,131.208405,0837-54-3600,0837-54-3600,759-2212,美祢市大嶺町東分字前川290-2,月~水・金 8:30~18:30木・土 8:30~12:30,有,0837-54-3600,
おおみね薬局,352136,山口県,美祢市,34.181473,131.208405,0837-52-9209,0837-52-9208,759-2212,美祢市大嶺町東分字沖田1210-4 ,月~金9:00~18:00土9:00~12:30,有,080-2925-1185,
セレッソ薬局,352136,山口県,美祢市,34.167782,131.208023,0837-52-1344,0837-52-1355,759-2212,美祢市大嶺町東分322番2,月~金 8:20~18:00 土 8:20~13:00,有,0837-52-1344,
みね薬局,352136,山口県,美祢市,34.170692,131.20462,0837-53-0141,0837-53-1477,759-2212,美祢市大嶺町東分3368-1,月・火・水・金8:20~19:00木8:20~16:20土8:20~12:30,無,,
美祢シティ薬局,352136,山口県,美祢市,34.181473,131.208405,0837532637,0837532638,759-2212,美祢市大嶺町東分11313-79,月~金:8:30~18:00 土:8:30~17:00 日・祝日:お休み,無,0837532637,
篠田薬局,352136,山口県,美祢市,34.165871,131.219421,0837-54-1412,0837-54-1413,759-2222,美祢市伊佐町伊佐4848-1,月・火・水・金8:30~18:10木8:30~17:00土8:30~12:30,有,0837-54-1412,
マユサン薬局,352136,山口県,美祢市,34.233124,131.202881,0837-56-5066,0837-56-5063,759-2302,美祢市於福町下3271-6,月~金8:30~17:30土8:30~13:00,有,0837-56-5066,
さくら薬局,352047,山口県,萩市,34.468403,131.458984,0838-28-5678,0838-28-5679,759-3611,萩市大井字唐ノ嶋1723-11,平日8:30~18:00土8:30~12:30,有,0838285678,
くぼた薬局,355020,山口県,阿武郡阿武町,34.515255,131.516464,0838-82-3217,08388-2-3235,759-3622,阿武郡阿武町大字奈古字市2313-2,月~金8:30~18:00土8:30~14:00,有,08388-2-2047,
みすみ薬局,352110,山口県,長門市,34.367825,131.238068,0837-43-2688,0837-43-2685,759-3803,長門市三隅下1362-1,月~金8:30~18:00土8:30~13:00,有,0837-43-2688,
さくら薬局,352110,山口県,長門市,34.388309,131.196503,0837-26-5026,0837-26-5027,759-4101,長門市東深川字西新開145-5,月~金9:00~18:00土9:00~13:30,有,0837-26-5026,
シティ薬局,352110,山口県,長門市,34.37117,131.186829,0837-22-6250,0837-22-6264,759-4101,長門市東深川中山203-1,月~金8:30~19:00 土8:30~14:00,有,0837-22-6250(転送),
ふかわ薬局,352110,山口県,長門市,34.377472,131.185745,0837-23-6660,0837-23-6665,759-4101,長門市東深川890-43,月~金8:30~17:30   土8:30~12:30,有,0837-23-6660,
フラワ-薬局,352110,山口県,長門市,34.373165,131.184723,0837-23-1091,0837-22-1158,759-4101,長門市東深川924-12,月~水・金9:00~18:00木9:00~17:00土9:00~12:30,有,転送,
ワダ薬局,352110,山口県,長門市,34.37468,131.188171,0837-22-2431,0837-22-3252,759-4101,長門市東深川817,9:00~19:30,有,090-3370-2098,
青海薬局,352110,山口県,長門市,34.367535,131.179092,0837-22-6705,0837-22-6712,759-4101,長門市東深川2005,月・火・水・金8:00~17:30木8:00~16:00土8:00~12:30,有,0837-22-6705,
長門中央薬局,352110,山口県,長門市,34.377472,131.185745,0837-22-3950,0837-22-3935,759-4101,長門市東深川890-22,月~土8:30~17:30,無,,
よしず薬局,352110,山口県,長門市,34.373173,131.19873,0837-23-1107,0837-23-1108,759-4106,長門市仙崎283-4,月~金8:30~18:00土9:00~13:00,有,0837-23-1107,
芝草薬局,352110,山口県,長門市,34.395355,131.199722,0837-26-4893,0837-26-5893,759-4106,長門市仙崎1945-2,月~金8:00~18:00 土8:00~12:30,有,0837-26-4893,
仙崎薬局,352110,山口県,長門市,34.390049,131.198837,0837-23-3300,0837-23-3301,759-4106,長門市仙崎横田204-1,月~金8:30~17:30土10:00~13:00,無,,
へき中央薬局,352110,山口県,長門市,34.374348,131.098846,0837-37-5300,0837-37-2580,759-4402,長門市日置中2488-4 ,月~金8:30~17:15土8:30~12:30,有,0837-37-5300,
篠原薬局川棚店,352012,山口県,下関市,34.168091,130.95723,083-772-0368,083-227-2368,759-6301,下関市豊浦町大字川棚6927-4 ,月・火・木・金8:30~17:30水8:30~17:30土8:30~12:30,有,083-772-0368,
川棚薬局,352012,山口県,下関市,34.168091,130.95723,083-772-4647,083-772-4648,759-6301,下関市豊浦町大字川棚7287-1,月~金 8:30~18:00土 8:30~12:30,有,083-772-4647,
蘭ファ-マシ-,352012,山口県,下関市,34.148689,130.923615,083-774-3550,083-774-3588,759-6301,下関市豊浦町川棚6919-1,月~水・金8:00~17:30木8:00~16:00土8:00~13:00,有,070-6690-0630,
こぐし薬局,352012,山口県,下関市,34.166733,130.934036,083-774-4030,083-774-4036,759-6302,下関市豊浦町大字小串195-11,月~水・金8:30~18:00木・土8:30~12:30,無,,
篠原薬局,352012,山口県,下関市,34.166256,130.923874,083-772-3624,083-774-0928,759-6302,下関市豊浦町小串7-7,月~金8:30~18:00土8:30~12:30,有,083-772-3624,
日本調剤豊浦薬局,352012,山口県,下関市,34.176769,130.937637,083-775-4520,083-775-4521,759-6302,下関市豊浦町大字小串10008-116,月~金8:30~18:00土8:30~12:30,有,080-2063-2757,
サルビア薬局,352012,山口県,下関市,34.138809,130.917404,083-772-0300,083-772-0099,759-6311,下関市豊浦町大字吉永1733-5 ,月・火・木・金8:30~18:00水8:30~16:30土8:30~12:30,有,080-2927-2443,
れんげ薬局,352012,山口県,下関市,34.042702,130.94101,083-259-8100,083-259-8101,759-6602,下関市大字蒲生野字宮の脇631-1,月~金 8:30~17:30土    8:30~10:30,有,080-2915-5739,
アイン薬局済生会下関病院店,352012,山口県,下関市,34.031532,130.930984,083-227-3171,083-227-3172,759-6603,下関市安岡町8-5-1 ,月~金8:30~18:00,有,083-227-3171,
日本調剤下関薬局,352012,山口県,下関市,34.031532,130.930984,083-262-3411,083-262-3413,759-6603,下関市安岡町8-5-2,月~金8:30~18:30土8:30~12:30,有,080-1340-2322,
パワフル薬局 横野店,352012,山口県,下関市,34.034443,130.910675,083-262-2552,083-262-2553,759-6604,下関市横野町3-14-32,月~金9:00~18:00土9:00~13:00,有,090-7135-4308,
アップル薬局,352012,山口県,下関市,34.013592,130.92009,083-259-7008,083-259-7088,759-6614,下関市梶栗町2-2-17 ,月~土9:00~18:00,有,083-259-7008,
かじくり薬局,352012,山口県,下関市,34.013721,130.920883,083-262-1288,083-262-1287,759-6614,下関市梶栗町3-7-7 ,月~土9:00~18:00,有,083-262-1288,
