施設_名称,施設_市区町村コード,住所_都道府県,住所_市区町村（郡）,住所_緯度,住所_経度,連絡先_電話番号,連絡先_FAX番号,連絡先_郵便番号,連絡先_住所,施設_開局時間,時間外_対応の有無,時間外_電話番号,エラー
ダイリン薬局,,,,33.579617,133.555206,088-846-7866,088-846-7868,780-0011,高知市薊野北町2-10-1,月~金 9:00~18:00 土 8:30~12:30 隔週8:30~17:30,有,090-3183-8550,郵便番号
エ-ル薬局日赤店,392014,高知県,高知市,33.573437,133.543777,088-802-3557,088-802-3210,780-0026,高知市秦南町1-5-40-7,月~金9:00~18:00土14:00~15:00,有(要相談),088-802-3557,
日本調剤 高知薬局,392014,高知県,高知市,33.573437,133.543777,088-873-6488,088-873-6489,780-0026,秦南町1-5-40-11,月~金9:00~18:00 土9:00~13:00,有,080-1135-1304,
あとむ薬局 みその店,392014,高知県,高知市,33.574139,133.533264,088-855-9114,0120-920-653,780-0034,高知市三園町234,月-金9:00-17:30 土9:00-12:30,有,088-855-9114,
しのはら薬局入明店,392014,高知県,高知市,33.565784,133.53183,088-820-7130,088-820-7132,780-0041,高知市入明町5-1,月~金9:00~18:00  土9:00~13:00,有,080-1999-6751,
アイン薬局 愛宕店,392014,高知県,高知市,33.565468,133.536957,088-802-3399,088-802-3398,780-0051,高知市愛宕町1-1-14,月-金8:45-18:00 土8:45-13:00,有,088-802-3399,
あとむ薬局,392014,高知県,高知市,33.568481,133.536499,088-855-4731,088-855-4732,780-0051,高知市愛宕町2丁目19-4,月火木金9:00~18:00 水9:00~17:00 土9:00~13:00,有,088-855-4731,
つちばし薬局あたご店,392014,高知県,高知市,33.57103,133.53685,088-823-6006,088-823-6003,780-0051,高知市愛宕町3-12-5,月~金8:45~18:00土8:45~13:00,有,090-1000-0596,
とまと薬局,392014,高知県,高知市,33.565765,133.536942,088-826-1112,088-826-1113,780-0051,高知市愛宕町1丁目4-9,月-金9:00-18:00 土9:00-13:00,有,088-826-1112,
ブル-クロス江ノ口薬局,392014,高知県,高知市,33.568905,133.536804,088-802-3741,088-802-3747,780-0051,高知市愛宕町2-22-2,月火水金8:30-18:30 木8:30-17:00 土8:30-17:30,有,088-802-3741,
カイセイ薬局,392014,高知県,高知市,33.564125,133.541275,088-873-5750,088-873-5668,780-0052,高知市大川筋1-3-50,月~金 9:00~21:00 土 9:00~18:00日祝(輪番制)9:00~18:00,有,090-6820-0842,
サンファ-マシ-はるかぜ薬局,392014,高知県,高知市,33.564896,133.532654,088-855-5582,088-855-5582,780-0052,高知市大川筋2-5-45,月火木金8:30~18:00水8:30~16:30土8:30~17:00,有,090-7579-1572,
ベル薬局,392014,高知県,高知市,33.564701,133.542038,088-820-5160,088-820-5161,780-0052,高知市大川筋1-1-22, 月・木9:00~19:00 火・木・金9:00~18:00  土9:00~13:00,無,088-820-5160(転送),
相生薬局,392014,高知県,高知市,33.564156,133.545059,088-885-2470,088-885-2472,780-0054,高知市相生町3-30,月-金8:30-17:30 土8:30-12:30,無,,
あじさい薬局 北本町店,392014,高知県,高知市,33.565384,133.551422,088-878-1618,088-878-1619,780-0056,高知市北本町4-3-4,月火水金9:00-17:30 木9:00-17:00 土8:30-17:00,有,090-6288-0808,
ドラッグセイムス高知駅前薬局,392014,高知県,高知市,33.567989,133.542694,088-802-8070,088-802-8071,780-0061,高知市栄田町2-4-12,月~金9:00~19:00 土9:00~13:00,有,088-802-8070,
調剤薬局ツルハドラッグ高知比島店,392014,高知県,高知市,33.569828,133.549103,088-821-7280,088-821-7280,780-0066,高知市比島町2-7-5,月~金9:00~13:00、14:00~18:00土9:00~13:00,無,,
高知調剤薬局ひじま店,392014,高知県,高知市,33.572857,133.549728,088-802-2121,088-802-2122,780-0066,高知市比島町4-7-13,月~金9:00~18:00 土9:00~13:00,有,090-5913-9193,
くろしお薬局インタ-店,392014,高知県,高知市,33.569469,133.554779,088-861-5080,088-861-5082,780-0072,高知市杉井流6-28,月・火・木・金9:00~19:00水9:00~13:30土9:00~18:00,無,,
ひまわり薬局,,,,33.559799,133.521576,088-820-5757,088-820-5755,780-0086,高知市西町109,月火木金9:00~18:00 水9:00~18:30 土9:00~15:00,有,090-7362-2301,郵便番号
ペンギン堂薬局,,,,33.559956,133.555801,088-880-1622,088-880-1722,780-0804,高知市日の出町2-20,月-金9:00-18:00 土9:00-13:00,無,,郵便番号
ドラッグセイムス高知宝永薬局,392014,高知県,高知市,33.56152,133.554245,	088-	855-	5277,nan,780-0818,高知市宝永町7-33,月-土 9時-13時 14時-18時,無,,
アルファ薬局 宝永店,392014,高知県,高知市,33.559486,133.552353,088-885-5020,088-885-5121,780-0824,高知市城見町3-18,月~金8:45~17:45 土8:45~12:45,有,088-885-5020,
つちばし薬局はりまや店,392014,高知県,高知市,33.559135,133.543808,088-884-5876,088-884-5879,780-0833,高知市南はりまや町1-17-27,月・火・木・金9:00~19:00土9:00~18:00,有,080-2988-4733,
こころ薬局追手筋店 ,392014,高知県,高知市,33.562714,133.541901,088-824-6105,088-824-6106,780-0842,高知市追手筋1-3-21,月~金9:00~17:30  土9:00~13:00,有,088-824-6105,
あじさい薬局 横浜新町店,392014,高知県,高知市,33.515915,133.536316,088-855-5842,088-855-5843,780-0850,高知市横浜新町4丁目2210,月火水金9:00-18:00木土9:00-13:00,有,090-6288-0808,
とくひろ薬局,392014,高知県,高知市,33.557941,133.527313,088-820-5858,088-820-5859,780-0861,高知市升形3-11徳弘ビル1F,月-土9:30-19:00 日祝日9:30-13:00 第3月13:00-18:00,有,090-4781-5601 088-820-5858,
ますがた薬局,392014,高知県,高知市,33.556931,133.529449,088-822-8100,088-822-8120,780-0861,高知市升形8-1,月~金9:00~18:00土9:00~13:00,無,,
しのはら薬局本町店,392014,高知県,高知市,33.557648,133.538422,088-820-8933,088-820-8935,780-0863,高知市与力町3-29,月-金9:00-18:00 土9:00-13:00,有,090-2828-8933,
イルカ薬局,392014,高知県,高知市,33.558315,133.529312,088-855-7182,088-855-7183,780-0870,高知市本町5-2-9,月-金9:00-18:00 土9:00-14:00,有,088-855-7182,
つちばし薬局本店,392014,高知県,高知市,33.559757,133.539642,088-823-5876,088-871-3775,780-0870,高知市本町1-1-3,月~土9:30~19:00日10:00~18:00,有,090-5710-4151,
アルファ薬局上町店,392014,高知県,高知市,33.556019,133.51709,088-856-6075,088-856-6085,780-0901,高知市上町5-6-21,月~金8:45~17:45 土8:45~12:45,無,,
ユ-ミン薬局,392014,高知県,高知市,33.55801,133.525253,088-875-9251,0120-75-9252,780-0901,高知市上町1-4-20 渡辺ビル1F,月~金9:00~18:00 土9:00~14:00,有,088-875-9251,
玄白堂薬局上町店,392014,高知県,高知市,33.558014,133.525803,088-820-5540,088-820-5810,780-0901,高知市上町1-4-25,月-金8:30-18:00 土8:30-17:00,有,088-820-5540,
上町薬局 ,392014,高知県,高知市,33.557518,133.523849,088-875-8555,088-825-1755,780-0901,高知市上町2-2-12,月・木8:30~17:30火・水・金8:30~18:00 土8:30~12:30,有,080-1993-7019,
アイン薬局 大膳町店,392014,高知県,高知市,33.559715,133.522614,088-820-5654,088-820-5653,780-0926,高知市大膳町40,月~金9:00~18:00 土9:00~15:00,有,088-820-5654,
しもじま薬局,392014,高知県,高知市,33.554691,133.508148,088-825-3320,088-825-3340,780-0934,高知市下島町10,月~金8:30~18:00 土8:30~12:30,無,,
あとむ薬局 旭店,392014,高知県,高知市,33.55685,133.507111,088-855-5930,088-855-5938,780-0942,高知市南元町26-1,月水9:00~17:00火木金9:00~18:00土9:00~13:00,有,070-5681-6400,
アイン薬局 塚ノ原店,392014,高知県,高知市,33.561214,133.494888,088-840-6777,088-843-4601,780-0952,高知市塚ノ原37-13,月-金8:00-18:00 土8:00-17:00 日祝日8:30-17:00,有,088-840-6777,
四国調剤よさこい薬局,392014,高知県,高知市,33.562878,133.494751,088-828-8880,088-828-8881,780-0952,高知市塚ノ原1,月-金9:00-20:00 土9:00-18:00,有,088-828-8880,
エ-ル薬局口細山店,392014,高知県,高知市,33.567127,133.488159,088-828-9900,088-828-9901,780-0963,高知市口細山206-154,月~金9:00~18:00  土9:00~13:00,有,088-828-9900,
しのはら薬局口細山店,392014,高知県,高知市,33.567127,133.488159,088-850-0311,088-850-0312,780-0963,高知市口細山206-295, 月・水9:00~17:00 火・木・金9:00~19:00  土9:00~13:00,有,090-4782-5741,
ふくい薬局,392014,高知県,高知市,33.570702,133.502945,088-856-8830,088-856-8840,780-0965,高知市福井町811-1,"月水:9:00-18:00,火金:9:00-19:00,木:9:00-17:00,土:9:00-16:00",無,,
ポピ-薬局,392014,高知県,高知市,33.567802,133.503891,088-854-8289,088-854-8589,780-0965,高知市福井町1734-6,月火水金9:00-18:30 木9:00-12:30 土9:00-16:00,有,088-854-8289,
ドラッグセイムス高知福井薬局,392014,高知県,高知市,33.570702,133.502945,088-802-5731,088-802-5732,780-0965,高知市福井町815-1,月~土:9:00~13:00 14:00~18:00,無,,
きらら薬局,392014,高知県,高知市,33.567951,133.510757,088-826-7558,088-826-7558,780-0966,高知市福井扇町1180-2,月-金9:00-18:00 木9:00-17:00 土9:00-13:00,有,090-2296-5123,
四国調剤ふくい薬局,392014,高知県,高知市,33.567951,133.510757,088-826-3010,088-826-3011,780-0966,高知市福井扇町1179-1,月-土 9:00-18:00,有,088-826-3010,
病院通薬局みなみ店,,,,33.55442,133.548141,088-803-5542,088-803-5543,780-8002,高知市役知町15-6,月-水金9:00-18:00 木9:00-17:00 土9:00-13:00,有,090-3183-8550,郵便番号
つちばし薬局梅ノ辻店,392014,高知県,高知市,33.553204,133.543976,088-837-0688,088-834-0658,780-8011,高知市梅ノ辻8-11,月木9:00-18:30 火金9:00-18:00水土9:00-17:00,有,088-837-0688,
ひだまり薬局,392014,高知県,高知市,33.554012,133.544373,088-803-7858,088-803-7857,780-8011,高知市梅ノ辻6-5,月火木金9:00-18:00 水9:00-17:00  土9:00-13:00,有,088-803-7858,
うさぎ薬局,392014,高知県,高知市,33.54903,133.54422,088-833-8118,088-833-8118,780-8015,高知市百石町2-2-9,月火水金9:00~18:00 木9:00~17:00 土9:00~13:00,有,090-4786-6293,
エ-ル薬局百石店,392014,高知県,高知市,33.545971,133.543243,088-837-7177,088-837-7178,780-8015,高知市百石町2-29-13,月・火・木・金9:00~18:00 水9:00~17:00土9:00~13:00,有(要相談),088-837-7177,
うしおえ薬局,392014,高知県,高知市,33.542858,133.542542,088-805-0090,088-805-0091,780-8018,高知市竹島町13-1うしおえメディカルビル・イ-ア1F,月火木金9:00~18:00 水土9:00~17:00,無,,
マリ-ナ薬局,392014,高知県,高知市,33.538086,133.544113,088-805-0680,088-805-0685,780-8023,高知市六泉寺町87-9ハイツ六泉1階,月~金9:00~12:30、14:00~18:30  土9:00~12:30,有,088-805-0680(転送),
あかね薬局六泉寺店,392014,高知県,高知市,33.540108,133.539108,088-833-7033,088-833-7034,780-8027,高知市高見町189-1,月~土:9:00~18:00,有,088-833-7033,
あとむ薬局土佐道路店,392014,高知県,高知市,33.55127,133.511734,088-821-8582,088-821-8582,780-8037,高知市城山町209-1,月-金9:00~17:30土9:00~13:00,有,088-821-8581,
ブル-クロス厚生薬局,392014,高知県,高知市,33.540318,133.501709,088-828-8828,088-828-8833,780-8040,高知市神田19-15,月-金9:00-18:00 土9:00-12:00,有,088-828-8828,
玄白堂薬局神田店厚生調剤薬局,392014,高知県,高知市,33.540318,133.501709,088-828-4151,088-828-4152,780-8040,高知市神田19-5,月~金9:00~18:00 土9:00~12:00,有,088-828-4151,
なの花薬局高知鴨部店,392014,高知県,高知市,33.55093,133.499451,088-855-6712,088-855-6713,780-8051,高知市鴨部上町7-7,月~金9:00~18:00土9:00~13:00,有,088-855-6712(転送),
調剤薬局ツルハドラッグ高知西店,392014,高知県,高知市,33.540737,133.498322,088-854-5752,088-854-5752,780-8061,高知市朝倉甲133-1,9:00~12:0013:00~18:00,無,,
こはる薬局,392014,高知県,高知市,33.552151,133.489426,088-855-3456,088-855-3477,780-8063,高知市朝倉丙354-1,月-金 9:00-18:00 土 9:00-13:00,有,088-855-3456,
さくら薬局,392014,高知県,高知市,33.537579,133.487564,088-843-1550,088-843-1557,780-8065,高知市朝倉戊1438-11,月-金:9:00-18:00土:9:00-13:00,有,088-843-1550,
ひつざん薬局朝倉店,392014,高知県,高知市,33.542919,133.486038,088-840-2030,088-840-2066,780-8081,高知市若草町16-26-101,月~金9:00~18:00  土9:00~13:00,有,080-8636-8677,
調剤薬局ツルハドラッグ朝倉店,392014,高知県,高知市,33.543827,133.485352,088-840-8190,088-840-8191,780-8081,高知市若草町16-40,月~金9:00~19:00土9:00~18:00,無,,
有限会社朝倉薬局,392014,高知県,高知市,33.542999,133.48645,088-844-7434,088-844-7445,780-8081,高知市若草町16-22,月-金8:30-18:30 土8:30-15:30,有,088-844-7434,
うぐるす薬局,392014,高知県,高知市,33.540604,133.48381,088-843-8900,088-843-8901,780-8083,高知市鵜来巣11-38-8-101,月-金9:00-18:00 土9:00-16:00,有,088-843-8900,
メディカル薬局うぐるす店,392014,高知県,高知市,33.540787,133.483719,088-850-0321,088-850-0322,780-8083,高知市鵜来巣11-38-10,月~土8:30-18:00,有,088-850-0321,
土佐道路薬局,392014,高知県,高知市,33.565552,133.498962,088-850-0511,088-850-0512,780-8084,高知市横山町1-2,月火木金土9:00~18:00水9:00~13:00,無,,
病院通薬局あぞの店,392014,高知県,高知市,33.579815,133.555573,088-846-2771,088-846-2781,781-0011,高知市薊野北町2-10-51-14,月-金8:30-17:30 土(隔週)8:30-12:308:30-17:30,有,090-3183-8550,
つちばし薬局あぞの店,392014,高知県,高知市,33.581306,133.564987,088-846-7001,088-846-7002,781-0012,高知市薊野東町9-34,月~水・金8:30~18:30 木8:30~16:30土8:30~13:00,無,,
調剤薬局ツルハドラッグ薊野店,392014,高知県,高知市,33.578205,133.550812,088-855-3228,088-855-3228,781-0015,高知市薊野西町3-8-8,月~金9:30~13:00、14:00~18:30土9:30~14:30,無,,
あかね薬局 北川添店,392014,高知県,高知市,33.573734,133.560532,088-880-5560,088-880-5561,781-0081,高知市北川添19-34,月~金9:00~18:00 土9:00~13:00,有,088-880-5560,
ドラッグセイムス御座薬局,392014,高知県,高知市,33.569267,133.561905,	088-	821-	6033,nan,781-0083,高知市北御座4-38,月-金:9:00-13:00、14:00-18:30土  :9:00-13:00、14:00-16:00,有,,
エ-ル薬局,392014,高知県,高知市,33.53101,133.580902,088-837-6077,088-837-6012,781-0111,高知市池2841-1,月~金:9:00~18:00土:9:00~10:00,有,088-837-6077,
ひなた薬局,392014,高知県,高知市,33.510895,133.57373,088-847-3680,088-847-3681,781-0112,高知市仁井田653-2,月~金8:30~17:30  土8:30~12:30,有,088-847-3680,
病院通薬局 みさと店,392014,高知県,高知市,33.512142,133.570694,088-854-3330,088-854-3335,781-0112,高知県高知市仁井田1617-18,月-金:9:00-18:00 土9:00-13:30,有,090-3183-8550,
ひかり薬局 瀬戸店,392014,高知県,高知市,33.512241,133.544846,088-802-6517,088-802-6518,781-0250,高知市瀬戸1-2-62,月火木金9:00~18:00 水土9:00~17:00,無,,
桂浜通 ひこばえ薬局,392014,高知県,高知市,33.510048,133.544174,088-837-9215,088-837-9216,781-0253,高知市瀬戸南町1丁目2-1,月~水9:00~18:00 木9:00~17:00 土9:00~13:00,無,,
フォレスト調剤薬局 長浜店,392014,高知県,高知市,33.500015,133.54866,088-837-9611,088-837-9612,781-0270,高知市長浜4828-2,月火水金9:00-17:15 木8:30-16:30  土9:00-17:00,有,088-837-9611,
岡本平和薬局,392014,高知県,高知市,33.501118,133.547958,088-841-2443,088-848-0047,781-0270,高知市長浜589,9:00~19:00,有,088-841-2443,
岡本平和薬局 西分店,392014,高知県,高知市,33.499714,133.494766,088-894-5270,088-894-5271,781-0304,高知市春野町西分2028-3,月-金9:00-18:00 土9:00-13:00,有,088-894-5270,
四国調剤 はるの薬局,392014,高知県,高知市,33.507236,133.512589,088-805-2301,088-805-2302,781-0311,高知市春野町芳原1316-2,月~金8:30~18:00 土8:30~13:00,有,088-805-2301,
南ヶ丘薬局,392014,高知県,高知市,33.516628,133.519424,088-856-7061,088-856-7062,781-0314,高知市春野町南ヶ丘1-1-2,月-金8:30-18:00 土8:30-17:30,有,088-856-7061,
四国調剤 しののめ薬局,392014,高知県,高知市,33.558636,133.564087,088-855-8005,088-855-8006,781-0805,高知市東雲町8-48,月~金9:00~18:00 土9:00~12:00,有,088-855-8005(転送電話),
ちより薬局,392014,高知県,高知市,33.558964,133.556442,088-885-1156,088-880-4780,781-0806,高知市知寄町1-5-17,月-土 8:30-17:30,有,070-1546-1333,
ちより薬局北店,392014,高知県,高知市,33.559429,133.556946,088-861-6555,088-887-8555,781-0806,高知市知寄町1-2-1,月~土 8:30~17:30,有,090-6882-5871,
フォレスト調剤薬局 知寄町店,392014,高知県,高知市,33.557907,133.555298,088-882-7510,088-882-7820,781-0815,高知市二葉町1-4,月火水金9:00~18:00 木土9:00~13:00,有,088-882-7510,
病院通薬局 さくら店,392014,高知県,高知市,33.557907,133.547928,088-856-6500,088-856-6501,781-0832,高知市九反田3-9,月~金9:00~18:00 土9:00~13:00,有,090-3183-8550,
あすなろ薬局,392057,高知県,土佐市,33.496525,133.426544,088-856-5799,088-856-5988,781-1101,土佐市高岡町甲2043-4,月-金9:00-18:00 土9:00-13:00,有,070-4076-3479,
たかおか薬局,392057,高知県,土佐市,33.496014,133.425323,088-852-2240,088-852-7818,781-1101,土佐市髙岡町甲2190-1,月~金9:00~18:00  土9:00~16:00,有,088-852-2240,
プラス薬局,392057,高知県,土佐市,33.4958,133.421799,088-856-7005,088-856-7006,781-1101,土佐市高岡町甲2154-37,月・火・水・金9:00~18:00木9:00~17:00土9:00~16:00,有,088-856-7005,
蓮池薬局,392057,高知県,土佐市,33.49128,133.407684,088-828-5055,088-828-5235,781-1105,土佐市蓮池1207-1,月~水金9:00~18:00木土9:00~13:00,有,088-828-5055,
セ-フティカプセルネットキグラ薬局,394033,高知県,高岡郡越知町,33.52248,133.243881,0889-26-0773,0889-26-0776,781-1301,高岡郡越知町越知甲1954-7,月~金9:00~18:00土9:00~14:00,有,088-926-0773,
サン薬局,394033,高知県,高岡郡越知町,33.52972,133.249527,0889-26-3103,0889-26-3131,781-1303,高岡郡越知町越知甲2130,月~金9:00~18:00 土9:00~13:00,有,0889-26-3103,
病院通薬局いの店,393860,高知県,吾川郡いの町,33.54734,133.429016,088-893-4900,088-893-4901,781-2105,吾川郡いの町新町26,月~金9:00~18:00 土9:00~13:00,有,090-3183-8550,
いの薬局,393860,高知県,吾川郡いの町,33.547287,133.435364,088-892-6900,088-892-6902,781-2110,吾川郡いの町1368-1,月-金8:50-18:00 土9:00-12:00,有,088-892-6900,
ベル薬局伊野店,393860,高知県,吾川郡いの町,33.548691,133.427582,088-850-4133,088-850-4186,781-2110,吾川いの町1328-7,月-金9:00-18:00 土9:00-13:00,有,088-850-4133,
花りん薬局,393860,高知県,吾川郡いの町,33.527596,133.442474,088-855-7371,088-855-7372,781-2122,吾川郡いの町天王3-2-1,月~金9:00~18:00 土9:00~13:00,有,088-855-7371,
みなみ薬局,393860,高知県,吾川郡いの町,33.528168,133.441544,088-850-1001,088-850-1002,781-2123,吾川郡いの町天王南1丁目5-4,月-金9:00-18:00 土9:00-13:00,有,088-850-1001,
エ-ル薬局さめうら店,393630,高知県,土佐郡土佐町,33.736897,133.532104,0887-70-1500,0887-70-1501,781-3521,土佐郡土佐町1372-5,月~金:8:30~17:30、土:8:30~13:00,無,,
エ-ル薬局れいほく店,393410,高知県,長岡郡本山町,33.759628,133.590332,0887-70-2320,0887-70-2321,781-3601,長岡郡本山町本山580-1,月~金9:00~18:00 第2・第4土9:00~13:00,有,0887-70-2320,
ヨシムラ薬局バイパス店,393410,高知県,長岡郡本山町,33.758896,133.589096,0887-76-4372,0887-76-4375,781-3601,長岡郡本山町本山579-1,月~土8:45~19:00祝日9:00~17:00,有,070-4365-1703,
ハロ-薬局大津店,392014,高知県,高知市,33.571056,133.594055,088-878-3338,088-878-3339,781-5102,高知市大津593-4,月~金:9:00~18:00、土:9:00~17:30,有,088-878-3338,
エ-ル薬局たかす店,392014,高知県,高知市,33.566456,133.579758,088-878-5666,088-878-5667,781-5103,高知市大津乙2705-3,月~金:8:30~19:30、土:8:30~13:00,有,088-878-5666,
アイン薬局 野市店,392111,高知県,香南市,33.561569,133.717697,0887-57-7037,0887-57-7038,781-5213,香南市野市町東野354-16,月-土9:00-18:00 日祝9:00-17:30,有,0887-57-7037,
わかば薬局,392111,高知県,香南市,33.557293,133.699463,0887-56-3858,0887-56-3860,781-5232,香南市野市町西野2345-7,月~水・金9:00~18:30土9:00~17:00,無,,
アルファ薬局 香南店,392111,高知県,香南市,33.544495,133.724609,0887-52-8117,0887-52-8119,781-5310,香南市赤岡町2067-1,月水木金土8:50-17:50 火8:50-12:50,有,0887-52-8117,
四国調剤 山北薬局,392111,高知県,香南市,33.580421,133.743927,0887-52-8200,0887-52-8207,781-5453,香南市香我美町山北1305-2,月水木金8:50~17:50 土8:40~12:40,無,,
高知調剤薬局やす店,392111,高知県,香南市,33.540569,133.754227,0887-55-5670,0887-55-5671,781-5601,香南市夜須町坪井25-3,月-金8:30-17:30 土8:30-12:30,無,,
芸西薬局,393070,高知県,安芸郡芸西村,33.536697,133.841644,0887-33-3444,0887-33-3412,781-5701,安芸郡芸西村和食甲1513-1,月-金9:00-18:00 土9:00-13:00,有,0887-33-3444,
はまゆう薬局,393037,高知県,安芸郡田野町,33.427727,134.00827,0887-38-2151,0887-38-2161,781-6410,安芸郡田野町1810-2,月~金8:30~17:30 土8:30~12:30,有,080-1993-7016,
調剤薬局ツルハドラッグ田野店,393037,高知県,安芸郡田野町,33.427711,134.008209,0887-38-3268,0887-38-3268,781-6410,安芸郡田野町1795-1,月~金9:00~19:00土9:00~14:00,無,,
らいおん堂薬局 吉良川店,392022,高知県,室戸市,33.397346,134.148407,0887-25-3578,0887-25-3582,781-6831,室戸市吉良川町甲3947,月火水金8:30-18:00 木8:30-16:30 土8:30-13:00,有,0887-23-1066,
タキ薬局,392022,高知県,室戸市,33.29232,134.145767,0887-23-2535,0887-23-2535,781-7105,室戸市浮津2番町44-1,月-金9:00-19:00 土9:00-17:00,無,,
らいおん堂薬局 甲浦店,393010,高知県,安芸郡東洋町,33.549774,134.297302,0887-24-3011,0887-29-3010,781-7411,安芸郡東洋町甲浦541,月火水8:30-17:30 木8:30-16:30 金8:30-17:30 土8:30-12:30,有,0887-23-1066,
きらら薬局 北新田店,392014,高知県,高知市,33.552902,133.551605,088-856-7133,088-856-7132,781-8003,高知市北新田町9-15,月~金9:00~18:00 木9:00~17:00 土9:00~13:00,有,090-2296-5123,
ドラッグセイムス潮江薬局,392014,高知県,高知市,33.551697,133.552963,	088-	855-	8896,nan,781-8003,高知市北新田町17-11,月から金 9:00-13:00 14:00-18:30土    9:00-13:00 14:00-16:00日・祝  休業,有,	088-	855-	8896,
ミモザ薬局,392014,高知県,高知市,33.546364,133.553116,088-837-1387,088-837-1388,781-8006,高知市萩町1-6-47,月-水9:00-18:00 木9:00-17:00金9:00-19:00土9:00-13:00,有,090-1329-6050,
クロ-バ-薬局,392014,高知県,高知市,33.549816,133.549683,088-831-9585,088-831-9585,781-8008,高知市潮新町2-7-3,月・火・水・金 9:00~12:30 13:30~18:00木 9:00~13:00 14:00~18:00土 9:00~13:30 14:00~16:30,無,,
アイン薬局 桟橋店,392014,高知県,高知市,33.548279,133.54837,088-837-1050,088-837-1051,781-8010,高知市桟橋通2-7-7,月-土9:00-18:00,無,,
オリ-ブ薬局,392014,高知県,高知市,33.551777,133.544937,088-833-9765,088-833-9765,781-8010,高知市桟橋通1-13-4,月・火・水・金・土9:00~18:00  木9:00~13:00,無,,
こなつ薬局,392014,高知県,高知市,33.550911,133.546478,088-821-8824,088-821-8824,781-8010,高知市桟橋通1-10-6 アステ-ルK 105号,月・火・水・金9:00~12:30、14:00~18:00木・土9:00~12:30,無,,
アイン薬局 高須店,392014,高知県,高知市,33.56052,133.586838,088-878-8777,088-878-8778,781-8104,高知市高須2町目18-11,月~金9:00~18:00 土9:00~17:00,有,088-878-8777,
あっぷる・ふぁ~ましぃ,392014,高知県,高知市,33.558277,133.572769,088-883-9540,088-883-9545,781-8121,高知市葛島1丁目10-75,月~金9:00~19:00 土9:00~17:00,有,088-883-9540,
エ-ル薬局 きっず店,392014,高知県,高知市,33.557175,133.573334,088-803-5151,088-803-5157,781-8121,高知市葛島2-6-33,月-金9:00-18:00 土9:00-13:00,有,088-803-5151,
エ-ル薬局かづらしま店,392014,高知県,高知市,33.558067,133.572083,088-880-4100,088-880-4102,781-8121,高知市葛島1-9-51,月-金:9:00-18:00土:9:00-13:00,有,088-880-4100,
ドレミ薬局,392014,高知県,高知市,33.589363,133.578506,088-826-5160,088-826-5170,781-8132,高知市一宮東町5-4-16,月火木金9:00~17:30 水9:00~17:00 土9:00~12:30,有,090-7786-7791,
ひかり薬局高知インタ-店,392014,高知県,高知市,33.581589,133.56604,088-802-5347,088-802-5348,781-8135,高知市一宮南町1丁目15-13,月-金9:00-18:30土9:00-17:00日9:00-13:00 15:00-17:00,有,080-6379-6117,
つちばし薬局一宮店,392014,高知県,高知市,33.583099,133.567688,088-826-5310,088-826-5325,781-8136,高知市一宮西町1-3-9 ブル-ハイツII 1F,月~金9:00~18:00土9:00~13:30,有,090-5140-8520,
浜田薬局 バイパス店,,,,33.52248,133.243881,0889-26-1599,0889-26-3385,781-8301,高岡郡越知町越知甲1682-5,月~金8:30~18:30 土8:30~15:00,有,0889-26-0013,郵便番号
四国調剤 あさひ薬局,392120,高知県,香美市,33.606747,133.691132,0887-53-2070,0887-53-2014,782-0031,香美市土佐山田町東本町4-1-36,月~金9:00~18:00 土9:00~13:00,有,0887-53-2070,
ベル薬局 山田店,392120,高知県,香美市,33.606956,133.693634,0887-57-0133,0887-57-0143,782-0033,香美郡土佐山田町旭町5-3-11,月~金9:00~18:00 土9:00~13:00,有,0887-57-0133,
ドラッグセイムス土佐山田薬局,392120,高知県,香美市,33.603214,133.680389,	0887-	52-	8818,nan,782-0034,香美市土佐山田町宝町5-1-36,月曜日-金曜日 9時-19時土曜日 9時-13時日曜祝日 休み,有,,
あい薬局,392120,高知県,香美市,33.608044,133.696167,0887-57-0357,0887-57-0353,782-0035,香美市土佐山田町百石町1-9-6,月-土 9:00-18:00,有,0887-57-0357,
薬局清流,392120,高知県,香美市,33.614311,133.712784,0887-57-0501,0887-57-0502,782-0051,香美市土佐山田町楠目39-1,月-金8:30-18:00 土8:30-12:30,有,090-7577-4397,
西田順天堂薬局 中町店,392049,高知県,南国市,33.576611,133.647018,088-878-6105,088-878-6106,783-0002,南国市駅前町3-1-39,月~金8:30~18:00 土8:30~12:00,有,090-2780-8622,
なんごく薬局,392049,高知県,南国市,33.575638,133.648926,088-863-1824,088-863-1996,783-0003,南国市西野田町1丁目23-6,月-金8:30-17:30 土8:30-12:30,無,,
高知調剤薬局おおそね店,392049,高知県,南国市,33.665726,133.57457,088-821-7266,088-821-7267,783-0004,南国市大埇甲1453,月-金8:30-17:30 土8:30-12:30,有,080-2974-4624,
西田順天堂薬局,392049,高知県,南国市,33.665726,133.57457,088-864-2502,088-863-6877,783-0004,南国市大埇甲1705,月-金9:00-18:00 土9:00-13:00,有,090-2780-8622,
調剤薬局ツルハドラッグ南国中央店,392049,高知県,南国市,33.665726,133.57457,088-863-6508,088-863-6508,783-0004,南国市大そね甲2317-1,月~金9:00~18:00,無,070-7404-4145,
西田順天堂薬局 オオソネ店,392049,高知県,南国市,33.665726,133.57457,088-864-4110,088-864-4576,783-0005,南国市大埇乙1258-1,月~金9:00~18:00 土9:00~13:00,有,090-2780-8622,
アイン薬局 篠原店,392049,高知県,南国市,33.577637,133.638641,088-855-3181,088-855-3182,783-0006,南国市篠原1887-3,月-水、金9:00-18:00 木9:00-17:00 土9:00-13:00,有,088-855-3181,
らいむ薬局,392049,高知県,南国市,33.572796,133.630859,088-856-8007,088-856-9083,783-0006,南国市篠原162-4,月-土 9:00-18:00,有,088-856-8007,
アイン薬局 明見店,392049,高知県,南国市,33.569798,133.624756,088-878-6400,088-878-2333,783-0007,南国市明見800-2,月火木金8:00~17:30水 8:00~16:00土 8:00~13:00,有,088-878-6400,
アイン薬局JA高知病院前店,392049,高知県,南国市,33.569698,133.62236,088-878-2700,088-878-6667,783-0007,南国市明見538-6,月~金8:30~18:30 第1.3.5土8:30~17:00 第2.4土8:30~13:00,有,080-2879-0986,
そうごう薬局 後免町店,392049,高知県,南国市,33.575657,133.64476,088-880-6101,088-880-6102,783-0011,南国市後免町1-8-35 アグライア1階,月-水金9:00-18:00 木9:00-17:00 土9:00-17:30,有,088-880-6101,
いの薬局,392049,高知県,南国市,33.57547,133.642593,088-880-6688,088-880-6689,783-0024,南国市東崎1348-2,月水金8:30-17:30 火木8:00-17:00土8:30-13:00,有,080-7020-2258,
ハロ-薬局 こくぶ川店,392049,高知県,南国市,33.593235,133.601562,088-804-5250,088-804-5251,783-0042,南国市岡豊町蒲原39-10,月-金:9:00-18:00 土16:30-17:30,有,088-804-5250,
エ-ル薬局医大前店,392049,高知県,南国市,33.59951,133.616989,088-855-6444,088-855-6445,783-0043,南国市岡豊町小蓮1174-5,月-金:9:00-18:00、土:15:15-16:15,有,088-855-6444,
おこう薬局,392049,高知県,南国市,33.59951,133.616989,088-878-5556,088-878-5557,783-0043,南国市岡豊町小蓮390-3,月~金9:00~18:00  土14:00~15:00,有,088-878-5556,
日本調剤高知東薬局,392049,高知県,南国市,33.594589,133.614716,088-855-3084,088-855-3086,783-0043,南国市岡豊町小蓮185-1,月~金8:30~19:00 土8:30~12:30,有,070-4361-0402,
りょうせき薬局,392049,高知県,南国市,33.618122,133.631683,088-862-0128,088-862-0129,783-0056,南国市領石18-5,"月火木金8:30-13:00,15:00-18:30 水8:30-17:00  土8:30-13:00",有,088-862-0128,
きしもと薬局 十市店,392049,高知県,南国市,33.53212,133.624405,088-865-2055,088-865-2077,783-0085,南国市十市2681,月火水金9:00-17:30木9:00-17:00土9:00-13:00,有,090-4786-6293,
病院通薬局 あき店,392030,高知県,安芸市,33.50285,133.907913,0887-32-0201,0887-32-0206,784-0001,安芸市矢ノ丸3-1-24,月~金9:00~18:00 土9:00~13:30,有,090-3183-8550,
くじら薬局,392030,高知県,安芸市,33.49865,133.908218,0887-32-0123,0887-32-0125,784-0004,安芸市本町2丁目10-11,月~金8:30~18:00 土8:30~13:00,有,090-4784-1161,
エ-ル薬局あき店,392030,高知県,安芸市,33.50045,133.913208,0887-35-7770,0887-35-7786,784-0005,安芸市港町2-7-18,月~金9:00~18:00土9:00~15:00,有,088-735-7770,
ウエルシア薬局 安芸東浜店,392030,高知県,安芸市,33.505234,133.913742,0887-35-1407,0887-35-1408,784-0010,安芸市東浜159-1,月火木金8:20~18:00 水8:20~17:00 土8:20~13:00,無,,
ライオン薬局 安芸店,392030,高知県,安芸市,33.506077,133.898056,0887-35-3880,0887-35-3881,784-0027,安芸市宝永町7-13,月~金8:30~17:30 土8:30~12:30,有,090-6882-3430,
日本調剤 宝永薬局,392030,高知県,安芸市,33.506168,133.898056,0887-35-2115,0887-35-2117,784-0027,安芸市宝永町7-14,月-金8:30-17:30  土8:30-12:30,有,080-2003-8133,
たきぐち薬局,392065,高知県,須崎市,33.421803,133.273941,0889-42-5755,0889-42-5705,785-0030,須崎市多ノ郷甲5756,月~金9:00~18:00 土9:00~13:00,有,0889-42-5755,
(有)メディファ長山薬局グリ-ンロ-ド店,392065,高知県,須崎市,33.411999,133.289764,0889-40-0377,0889-40-0376,785-0036,須崎市緑町5-3,月-金9:00-18:00 土日祝(輪番制)8:30-17:00,有,090-5275-0773,
めいわ薬局,392065,高知県,須崎市,33.411842,133.289337,0889-42-7885,0889-42-7880,785-0036,須崎市緑町4-29,月~金9:00~18:00土日:輪番制,無,,
調剤薬局ツルハドラッグ須崎東店,392065,高知県,須崎市,33.409573,133.292908,0889-40-0268,0889-40-0268,785-0059,須崎市桐間西110,月~金10:00~19:00,有,080-5835-9904,
クオ-ル薬局 姫野々店,394114,高知県,高岡郡津野町,33.438374,133.214996,0889-55-3089,0889-55-3090,785-0202,高岡郡津野町姫野々473-1,月~金8:30~17:00 土8:30~12:30,有,080-9559-9912,
クオ-ル薬局 杉ノ川店,394114,高知県,高岡郡津野町,33.43961,133.152679,0889-56-3189,0889-56-3290,785-0214,高岡郡津野町杉ノ川甲38-3,月~金8:30~18:00 土8:30~12:30,有,080-8812-7485,
ゆすはら薬局,394050,高知県,高岡郡檮原町,33.397385,132.913437,0889-40-2155,0889-40-2156,785-0612,高岡郡梼原町川西路2308,月-金8:30-18:00,有,0889-40-2155,
たきぐち薬局 くぼかわ店,394122,高知県,高岡郡四万十町,33.211281,133.149384,0880-29-0225,0880-29-0227,786-0002,高岡郡四万十町見付901,月-金9:00-18:00 土9:00-17:30,有,0880-29-0225,
調剤薬局技術センタ-,394122,高知県,高岡郡四万十町,33.206055,133.147629,0880-22-1000,0880-22-0991,786-0002,高岡郡四万十町見付925-5,月・木8:30~18:30火水金8:30~18:00土8:30~17:30日(輪番日)9:00~17:00,有,088-022-1000,
エ-ル薬局 サニ-マ-ト四万十店,392103,高知県,四万十市,32.982437,132.953278,0880-34-8388,0880-34-8586,787-0010,高知県四万十市古津賀4-30,月~土10:00~14:0015:00~19:00,有,0880-34-8388,
いわせ薬局,392103,高知県,四万十市,32.985004,132.941879,0880-34-3663,0880-34-2662,787-0013,四万十市右山天神町9-28,月~金 9:00~18:00 土 9:00~13:00,有,0880-34-3663(転送),
ときわ薬局,392103,高知県,四万十市,32.983677,132.943863,0880-31-0621,0880-31-0622,787-0014,四万十市駅前町8-12,月~金9:00~18:00土9:00~14:00,有,090-4976-9730,
メディカル薬局うやま店,392103,高知県,四万十市,32.979706,132.943222,0880-34-8861,0880-34-8860,787-0015,四万十市右山1973-5,月-金9:00-18:00 土9:00-13:00,有,090-5271-4471,
あかね薬局 渡川店,392103,高知県,四万十市,32.982628,132.921478,0880-34-8688,0880-34-8660,787-0019,四万十市具同2075-2,月-金9:00~18:00,無,,
マック中村調剤薬局,392103,高知県,四万十市,32.979618,132.910172,0880-37-5771,0880-37-5772,787-0019,四万十市具同5390,月~土9:00~18:00,無,,
いちご薬局,392103,高知県,四万十市,32.994656,132.932968,0880-35-0093,0880-35-0098,787-0029,四万十市中村小姓町76,月~金8:45~17:45 土8:45~12:45,有,0880-35-0093,
とんぼ薬局,392103,高知県,四万十市,32.991295,132.936462,0880-35-1193,0880-35-1198,787-0033,四万十市中村大橋通5-51-2,月~土8:30~18:00,有,0880-35-1193,
四国調剤四万十薬局,392103,高知県,四万十市,32.988716,132.923752,0880-34-8622,0880-34-8623,787-0050,四万十市渡川1-2-51,月~土8:50~17:50,有,0880-34-8622,
エ-ル薬局具同店,392103,高知県,四万十市,32.984856,132.920288,0880-37-0112,0880-37-0113,787-0051,四万十市具同田黒2-12-48,月-金9:00-18:00,有,0880-37-0112,
エ-ル薬局ロ-ソン清水ヶ丘店,392090,高知県,土佐清水市,32.782784,132.957169,0880-87-9112,0880-87-9113,787-0303,土佐清水市清水ヶ丘7-5,月~金9:00~18:00土9:00~15:00,有,088-087-9112,
しみず薬局,392090,高知県,土佐清水市,32.780888,132.951035,0880-82-1005,0880-82-5006,787-0331,土佐清水市越前町5-1,月~金 9:00~18:00 土9:00~17:30,有,090-2891-5700,
すみれ薬局,,,,32.993931,132.939346,0880-34-4193,0880-34-4194,787-0023,四万十市中村東町1-79,月~金8:30~18:00 土9:00~1300,有,0880-34-4193,郵便番号
吉村調剤薬局,392081,高知県,宿毛市,32.9356,132.730255,0880-63-0469,0880-63-1196,788-0001,宿毛市中央3-8-25,月-金9:00-18:00 土9:00-13:00,有,0880-63-0469,
すみれ薬局 宿毛店,392081,高知県,宿毛市,32.930866,132.714172,0880-62-0093,0880-62-0092,788-0010,宿毛市駅前町2-704,月-金9:00-18:00 土9:00-13:00,有,0880-62-0093,
エ-ル薬局幡多店,392081,高知県,宿毛市,32.946892,132.785233,0880-62-2333,0880-62-2334,788-0783,宿毛市平田町戸内2106-8,月~金9:00~18:00,有,088-062-2333,
すみれ薬局 けんみん前店,392081,高知県,宿毛市,32.965389,132.8069,0880-62-2244,0880-66-1400,788-0783,宿毛市平田町戸内2085-4,月-金8:30-18:00 土9:00-18:00(輪番制),有,0880-62-2244,
くろしお薬局佐川店,394025,高知県,高岡郡佐川町,33.500736,133.297577,0889-20-0660,0889-22-4141,789-1201,高岡郡佐川町甲1356-3,月・火・水・金9:00~18:30木9:00~17:00土9:00~16:30,有,090-4780-8342,
くれ薬局,394017,高知県,高岡郡中土佐町,33.328846,133.228516,0889-52-4797,0889-52-4251,789-1301,高岡郡中土佐町久礼6611-4,月~金9:00~18:00 土9:00~13:00,無,,
すみれ薬局くろしお店,394289,高知県,幡多郡黒潮町,33.018406,133.001465,0880-43-0355,0880-43-0356,789-1931,幡多郡黒潮町入野558-1,月~金8:30~18:00土9:00~12:30,有,0880-43-0355,
