施設_名称,施設_市区町村コード,住所_都道府県,住所_市区町村（郡）,住所_緯度,住所_経度,連絡先_電話番号,連絡先_FAX番号,連絡先_郵便番号,連絡先_住所,施設_開局時間,時間外_対応の有無,時間外_電話番号,エラー
たむら調剤薬局,312010,鳥取県,鳥取市,35.509033,134.231689,0857-27-1861,0857-27-1881,680-0007,鳥取市湯所町2-181,月~金8:30~18:10            土8:30~16:00,有,0857-27-1861,
湯所薬局,312010,鳥取県,鳥取市,35.510376,134.230408,0857-22-5315,0857-22-5305,680-0007,鳥取市湯所町2-324,月~水・金9:00~18:30          木・土9:00~16:00,無,,
徳吉薬局日赤前,312010,鳥取県,鳥取市,35.501461,134.235672,0857-51-1822,0857-51-0380,680-0017,鳥取市尚徳町114-6,月~日8:30~19:00,有,0857-51-1822,
常田調剤薬局,312010,鳥取県,鳥取市,35.505028,134.234528,0857-27-7164,0857-21-9675,680-0022,鳥取市西町3-110-2,月・火・木・金8:30~18:00水8:30~16:30土8:30~12:30,有,0857-27-7164,
常田薬局,312010,鳥取県,鳥取市,35.502247,134.234528,0857-22-4792,0857-21-9215,680-0022,鳥取市西町2-102-1,月~金8:30~18:00土8:30~11:30,有,080-1972-5443,
有限会社大村薬局,312010,鳥取県,鳥取市,35.503048,134.231339,0857-21-1193,0857-29-4193,680-0023,鳥取市片原3-201,月~金8:30~18:30                   土8:30~17:30,有,0857-21-1193,
かわばた薬局,312010,鳥取県,鳥取市,35.502052,134.226807,0857-21-1056,0857-21-1088,680-0036,鳥取市川端5-205,月・火・木・金8:30~18:00        水8:00~16:00                          土8:30~13:00,有,0857-21-1056,
ドラッグストアエ-ス鳥取おうちだに薬局,312010,鳥取県,鳥取市,35.498646,134.238495,0857-22-8556,0857-22-8602,680-0043,鳥取市大榎町17,月~土9:00~18:00,有,070-7044-6175,
アイ・プラス薬局上魚町店,312010,鳥取県,鳥取市,35.500481,134.235214,0857-25-1500,0857-25-1501,680-0047,鳥取市上魚町14-5,月~水・金・土9:00~18:30,有,0857-25-1500,
アイ・プラス薬局 卯垣店,312010,鳥取県,鳥取市,35.487934,134.253845,0857-38-2270,0857-38-2271,680-0074,鳥取市卯垣4-101-1,月~水・金8:30~18:30            木8:30~16:30                  土8:30~12:30,有,0857-38-2270,
アイ・プラス薬局 岩倉店,312010,鳥取県,鳥取市,35.484604,134.257217,0857-32-8992,0857-32-8993,680-0081,鳥取市岩倉452-18 ロッジ452 1号室,月~水・金9:00~18:00                     木・土9:00~13:00,有,0857-32-8992,
つくし薬局,312010,鳥取県,鳥取市,35.485195,134.257446,0857-25-3588,0857-25-3589,680-0081,鳥取市岩倉446-29,月・火・水・金 8:30~18:30                    木・土 8:30~13:00,有,0857-25-3588,
うさぎ薬局,312010,鳥取県,鳥取市,35.465935,134.301697,0857-26-6315,0857-26-6316,680-0136,鳥取市国府町糸谷8-3,月~水・金9:00~18:00                  木9:00~17:00                          土9:00~12:30,有,0857-26-6315,
もみじ薬局,312010,鳥取県,鳥取市,35.481846,134.270325,0857-36-8014,0857-36-8015,680-0151,鳥取市国府町宮下1165-3,月・火・木・金9:00~18:30 水9:00~12:30土9:00~17:00,有,0857-36-8014,
にしむら薬局郡家店,313297,鳥取県,八頭郡八頭町,35.417866,134.257828,0858-72-1230,0858-72-1357,680-0427,八頭郡八頭町奥谷135-4,月~金8:30~18:30                         土8:30~12:30,有,0858-72-0432,
アイプラス薬局郡家店,313297,鳥取県,八頭郡八頭町,35.412556,134.236191,0858-71-0760,0858-71-0761,680-0452,八頭郡八頭町池田205-1,月・火・木・金9:00~18:30                 水9:00~13:00                         土9:00~16:00,有,080-3275-2928,
わかさ薬局,313254,鳥取県,八頭郡若桜町,35.34119,134.401749,0858-82-0253,0858-82-0789,680-0701,八頭郡若桜町若桜926-13,月~水・金8:30~18:30                   木8:30~18:00                          土8:30~13:00,有,0858-82-0253,
徳吉薬局松並店,312010,鳥取県,鳥取市,35.517612,134.219559,0857-29-6348,0857-29-6349,680-0801,鳥取市松並町2-503-7,月~金8:30~18:30                       土8:30~17:00,有,0857-29-6348,
徳吉薬局でんえんちょう,312010,鳥取県,鳥取市,35.511238,134.224823,0857-30-5125,0857-30-5124,680-0803,鳥取市田園町1-242-1,月・火・水・金 8:30~18:30木 8:30~16:30土 8:30~13:00,有,0857-30-5125,
池田薬局,312010,鳥取県,鳥取市,35.497883,134.225601,0857-23-1251,0857-22-1155,680-0822,鳥取市今町1-323,月・火・水・金8:30~18:00                    木・土8:30~12:30,無,,
あみはま薬局,312010,鳥取県,鳥取市,35.49675,134.226303,	0857-	23-	3351,	0857-	23-	3075,680-0822,鳥取市今町1-101,月、火、水、金→9:00-18:30木      →9:00-17:00土      →9:00-15:00 日曜、祝日  定休日,無,,
有限会社徳吉薬局市役所前,312010,鳥取県,鳥取市,35.495392,134.21933,0857-30-5963,0857-30-5771,680-0823,鳥取市幸町95-2,月・火・水・金8:30~18:30                    木8:30~16:30                        土8:30~13:00,有,0857-30-5963,
フジモト薬局,312010,鳥取県,鳥取市,35.500172,134.221207,0857-36-0232,0857-36-0233,680-0824,鳥取市行徳2-647,月・火・水・金9:00~18:30                   木9:00~17:00                           土9:00~14:00,無,,
徳吉薬局さかえまち,312010,鳥取県,鳥取市,35.497974,134.22937,0857-30-5380,0857-30-5381,680-0831,鳥取市栄町210,月・火・木・金8:30~18:30                  水8:30~17:00                       土8:30~17:30,無,,
ひまわり薬局,312010,鳥取県,鳥取市,35.494041,134.232941,0857-21-9691,0857-21-9690,680-0833,鳥取市末広温泉町574,月~金8:30~19:00                   土8:30~17:00,有,0857-21-9693,
はなまる薬局,312010,鳥取県,鳥取市,35.487194,134.24118,0857-30-5120,0857-30-5122,680-0843,鳥取市南吉方3-514-3,月~金9:00~18:30                  土9:00~18:00,有,090-9275-2396,
杏林堂薬局,312010,鳥取県,鳥取市,35.486866,134.232513,0857-21-1750,0857-21-1751,680-0844,鳥取市興南町78,月・火・水・金 8:30~18:15木 8:15~16:15土 8:30~17:00,有,0857-21-1750,
ドラッグストアエ-ス興南町薬局,312010,鳥取県,鳥取市,35.488167,134.231613,0857-50-0281,0857-32-9662,680-0844,鳥取市興南町39-2,月・火・水・金9:00~19:00                     木・土9:00~18:00,無,,
アイ・プラス薬局 吉成店,312010,鳥取県,鳥取市,35.488037,134.221085,0857-30-6825,0857-30-6826,680-0845,鳥取市富安332-5,日9:00~15:00                 火9:00~20:00                     月・水・木9:00~18:00,無,,
みなみ薬局,312010,鳥取県,鳥取市,35.489437,134.22702,0857-27-3730,0857-27-3732,680-0845,鳥取市富安1-76,月・火・木・金8:30~18:30                    水8:30~16:30                      土8:30~17:30,有,0857-27-3730,
アイン薬局鳥取扇町店,312010,鳥取県,鳥取市,35.492851,134.224609,0857-30-1301,0857-30-1381,680-0846,鳥取市扇町123-2,月~金9:00~18:30              土9:00~17:00,有,0857-30-1301,
(有)湯所薬品 ゆたに薬局,312010,鳥取県,鳥取市,35.48106,134.227737,0857-21-1568,0857-21-9788,680-0864,鳥取市吉成206-1,月~水・金8:30~19:00                 木8:30~16:30                           土8:30~17:00,有,0857-21-1568,
みやなが薬局,312010,鳥取県,鳥取市,35.476364,134.22551,0857-50-1120,0857-50-1121,680-0872,鳥取市宮長13-7,月~水・金 8:30~18:45木 8:30~16:30土 8:30~14:00,有,080-2879-0994,
イヌイ薬局宮長店,312010,鳥取県,鳥取市,35.477993,134.219238,0857-53-5805,0857-53-5818,680-0872,鳥取市宮長276-2,月~日(祝)9:00~20:30,無,,
日本調剤 的場薬局,312010,鳥取県,鳥取市,35.474777,134.232498,0857-51-7731,0857-51-7713,680-0873,鳥取市的場2-40,月~金8:30~17:30,有,090-6793-0747,
ウェルネス薬局叶店,312010,鳥取県,鳥取市,35.47443,134.217697,0857-30-7205,0857-30-7206,680-0874,鳥取市叶330-1,9:00~13:30、14:30~18:00,無,,
アイ・プラス薬局叶店,312010,鳥取県,鳥取市,35.473831,134.21962,0857-51-7511,0857-51-7521,680-0874,鳥取市叶289-2,月~水・金8:30~18:30                   木8:30~16:30                        土8:30~12:30,有,0857-51-7511,
はまさか薬局,312010,鳥取県,鳥取市,35.526276,134.215179,0857-30-2345,0857-30-2228,680-0901,鳥取市江津408-8,月~金8:30~18:30                           土8:30~12:30,有,0857-30-2345,
徳吉薬局 とうぶ,312010,鳥取県,鳥取市,35.522282,134.215454,0857-21-3360,0857-21-3380,680-0902,鳥取市秋里723-4,月~金8:30~18:30                土9:00~12:00,有,0857-21-3360,
アイプラス薬局南隈店,312010,鳥取県,鳥取市,35.520374,134.200882,0857-30-5270,0857-30-5271,680-0903,鳥取市南隈163-3,月~水・金9:00~18:00               木9:00~17:00                   土9:00~16:00,有,0857-30-5270,
イオン薬局鳥取北店,312010,鳥取県,鳥取市,35.523964,134.201614,0857-38-3305,0857-38-3725,680-0904,鳥取市晩稲348,9:00~21:00(年中無休),無,,
たむら薬局鳥取北店,312010,鳥取県,鳥取市,35.52618,134.202316,0857-32-9550,0857-32-9551,680-0904,鳥取市晩稲437-4,月・火・木・金9:00~18:30                  水9:00~17:00                          土9:00~13:00,有,0857-32-9550,
アイ·プラス薬局安長店,312010,鳥取県,鳥取市,35.510471,134.204758,0857-30-5705,0857-30-5706,680-0913,鳥取市安長257-3,火~土9:00~18:00,有,0857-30-5705,
ドラッグストアエ-スス-パ-モ-ル鳥取店,312010,鳥取県,鳥取市,35.496223,134.208298,0857-39-8710,0857-39-8711,680-0921,鳥取市古海590-1,月~金9:00~20:00                     土9:00~18:00                 日・祝9:00~16:00,無,,
みずたま薬局,312010,鳥取県,鳥取市,35.502026,134.19313,0857-30-6211,0857-30-6212,680-0935,鳥取市里仁56-7,月~金8:30~18:00                  土8:30~16:00,有,090-5380-5565,
よつば薬局,312010,鳥取県,鳥取市,35.50227,134.189636,0857-30-3300,0857-30-3301,680-0935,鳥取市里仁53-7,月~金8:30~19:00                    土8:30~18:00,有,090-7704-7823,
アイン薬局湖山店,312010,鳥取県,鳥取市,35.520939,134.173859,0857-37-3488,0857-37-3688,680-0941,鳥取市湖山町北2-557,月~金8:30~18:30土9:00~12:00,有,0857-37-3488,
徳吉薬局こやま,312010,鳥取県,鳥取市,35.518776,134.185822,0857-306208,0857-30-6209,680-0942,鳥取市湖山町東2-140-2,月~金8:30~18:30                     土8:30~17:30,有,0857-30-6208,
くるみ薬局,312010,鳥取県,鳥取市,35.40707,134.200729,0858-71-0070,0858-71-0072,680-1251,鳥取市河原町河原48-9,月~木8:30~19:00                     金8:30~16:30                      土8:30~12:30,有,0858-71-0070,
やまだ薬局,312010,鳥取県,鳥取市,35.482189,134.256027,0857-22-0215,0857-22-0216,680-8066,鳥取市国府町新通り3-301-1,月・火・木・金8:30~18:00                   水・土8:30~17:00,有,0857-22-0215,
加藤調剤薬局ふくば店,312037,鳥取県,倉吉市,35.465225,133.849487,0858-48-1550,0858-48-1551,682-0018,倉吉市福庭町1-111,月・火・木~土8:30~18:00                  水8:30~16:30,有,0858-48-1550,
マキタ薬局,312037,鳥取県,倉吉市,35.453854,133.846252,0858-27-4555,0858-27-4556,682-0021,倉吉市上井302-5,月~金 9:00~18:00土 9:00~12:00,有,0858-27-4555,
大陽堂薬局本店,312037,鳥取県,倉吉市,35.452045,133.843704,0858-26-5418,0858-26-2618,682-0021,倉吉市上井27-1,月~金9:00~18:00 土9:00~12:00,有,0858-26-5418,
ウエルシア薬局倉吉上井店,312037,鳥取県,倉吉市,35.452671,133.850006,0858-48-1210,0858-48-1211,682-0022,倉吉市上井町1-11-7,月~金9:00~14:00、15:00~19:00土9:00~14:00,無,,
杏薬局,312037,鳥取県,倉吉市,35.450081,133.852066,0858-48-9213,0858-48-9223,682-0022,倉吉市上井町1-137,月~金8:00~18:00                        土8:00~13:00,有,0858-48-9213,
加藤調剤薬局,312037,鳥取県,倉吉市,35.449039,133.850372,0858-26-6565,0858-26-8178,682-0023,倉吉市山根531-4,月~土9:00~18:00,有,0858-26-6565,
加藤調剤薬局一本木店,312037,鳥取県,倉吉市,35.447063,133.846786,0858-26-5580,0858-26-5910,682-0023,倉吉市山根637-5,月~金8:30~18:00                         土8:30~12:30,有,0858-26-5580,
大陽堂薬局 山根店,312037,鳥取県,倉吉市,35.449436,133.858887,0858-27-4335,0858-27-4336,682-0023,倉吉市山根415-4,月~金9:00~18:00                            土9:00~12:00,有,0858-27-4335,
ウエルシア薬局倉吉厚生病院東口店,312037,鳥取県,倉吉市,35.435688,133.842987,0858-24-2308,0858-24-2309,682-0802,倉吉市東巌城町173-1,月~金9:00~13:00、14:00~18:00,無,,
小林薬局マロニエ店,312037,鳥取県,倉吉市,35.434071,133.837097,0858-23-1233,0858-23-1236,682-0802,倉吉市昭和町1-25-1,月・火・水・金 8:30~18:00木 8:30~16:30土 8:30~17:00,有,0858-23-1233,
(株)エスマイル みどり薬局,312037,鳥取県,倉吉市,35.438004,133.841782,0858-47-6101,0858-47-6102,682-0804,倉吉市東昭和町33-1,月・水・金8:30~18:30                   木8:30~16:30                        土8:30~12:30,有,0858-47-6101,
倉吉薬局,312037,鳥取県,倉吉市,35.43475,133.840866,0858-22-1351,0858-23-5648,682-0805,倉吉市南昭和町17,月~金9:00~18:00                    土9:00~13:00,有,0858-22-1351,
ゆかわ薬局,312037,鳥取県,倉吉市,35.434765,133.839859,0858-27-2556,0858-27-2566,682-0806,倉吉市昭和町2-70,月~金9:00~18:00土9:00~13:00,有,0858-27-2556,
小鴨薬局昭和店,312037,鳥取県,倉吉市,35.435661,133.839523,0858-22-6711,0858-22-6741,682-0806,倉吉市昭和町2-1,月~水・金9:00~18:00                      土9:00~14:00,無,,
有限会社 山田薬局,312037,鳥取県,倉吉市,35.429268,133.840897,0858-23-6539,0858-23-6540,682-0811,倉吉市上灘町171,月~金9:00~18:00                        土9:00~12:30,有,0858-23-6539,
日本調剤 西町薬局,312037,鳥取県,倉吉市,35.431408,133.820663,0858-47-3123,0858-47-3124,682-0824,倉吉市仲ノ町2712-1,月~金9:00~18:00                          土9:00~13:00,有,090-6792-9583,
生田調剤薬局,312037,鳥取県,倉吉市,35.418839,133.806671,0858-48-2080,0858-48-2081,682-0855,倉吉市生田360-3,月・火・水・金8:30~18:30 木8:30~16:30 土8:30~13:00,有,0858-48-2080,
大陽堂薬局新町店,312037,鳥取県,倉吉市,35.433796,133.821198,0858-23-5117,0858-23-5118,682-0861,倉吉市新町3-1081-6,月~水・金8:30~18:15                    木8:30~16:30                        土8:30~12:45,有,0858-23-5117,
小鴨薬局,312037,鳥取県,倉吉市,35.423981,133.807083,0858-28-3755,0858-28-6601,682-0862,倉吉市丸山町477-2,9:00~18:00,有,0858-28-3755(転送),
アイ・プラス薬局宮川店,312037,鳥取県,倉吉市,35.432701,133.829193,0858-27-0071,0858-27-0072,682-0881,倉吉市宮川町174-15,月~水・金8:30~18:00                   木8:30~12:30                       土8:30~12:30,有,0858-27-0071,
小林薬局,312037,鳥取県,倉吉市,35.433144,133.823578,0858-23-1231,0858-23-1235,682-0887,倉吉市明治町1032-6,月~土9:00~18:00,有,0858-23-1231,
西倉薬局,312037,鳥取県,倉吉市,35.425606,133.798538,0858-28-3222,0858-28-3510,682-0925,倉吉市秋喜152-4,月~金8:30~18:00                       土8:30~13:00,有,0858-23-3222(転送),
ウェルネス薬局皆生店,312029,鳥取県,米子市,35.452412,133.365845,0859-23-4775,0859-23-4776,683-0002,米子市皆生新田3-1-1,月~水・木8:30~19:00金8:30~20:00土8:30~17:00,無,,
ケイ・アイ堂薬局,312029,鳥取県,米子市,35.451916,133.365768,0859-22-7396,0859-22-7496,683-0002,米子市皆生新田2-2-15,月~金8:30~18:00                           土9:00~12:30,有,0859-22-7396(転送),
しらとり調剤薬局,312029,鳥取県,米子市,35.450443,133.365341,0859-34-0018,0859-34-0019,683-0002,米子市皆生新田1-9-13,月~金8:30~18:00                         土8:30~12:30,有,080-1900-0329,
ゆのはな薬局,312029,鳥取県,米子市,35.455292,133.367828,0859-39-1150,0859-39-1151,683-0002,米子市皆生新田3-5-19,月~金8:45~17:15 土8:45~11:45,有,0859-39-1150,
福生薬局,312029,鳥取県,米子市,35.446228,133.361465,0859-46-0130,050-3606-2250,683-0003,米子市皆生3-6-1,月~土9:00~19:00,有,0859-46-0130,
かみふくばら薬局,312029,鳥取県,米子市,35.446247,133.359009,0859-31-5661,0859-31-5662,683-0004,米子市上福原2-17-16,月~水・金9:00~18:00                    木9:00~17:00                        土9:00~13:00,有,0859-31-5661,
キンタカファ-マシ-,312029,鳥取県,米子市,35.441994,133.358734,0859-32-0560,0859-32-0565,683-0004,米子市上福原582-1,月・火・木・金9:00~18:30                    水9:00~17:00                     土9:00~13:00,有,0859-32-0560,
薬局レセ-タ,312029,鳥取県,米子市,35.434147,133.349655,0859-34-1133,0859-34-1123,683-0005,米子市中島2-1-47,月・火・木・金8:30~18:30 水8:30~18:00 土8:30~15:00,有,0859-34-1133,
オレンジ薬局,312029,鳥取県,米子市,35.399364,133.374146,0859-26-1492,0859-26-1540,683-0011,米子市福市1723-9,月~水・金・土8:45~18:00                 木8:45~17:00,有,0859-26-1492,
五千石調剤薬局,312029,鳥取県,米子市,35.399708,133.385849,0859-39-7211,0859-39-7212,683-0012,米子市八幡603-16,月~水・金8:00~18:00                  木8:00~16:00                      土8:00~12:30,無,,
かわしま薬局,312029,鳥取県,米子市,35.410404,133.358643,0859-21-5857,0859-21-5858,683-0015,米子市日原61-2,月・火・木・金9:00~18:00                       水9:00~17:00                      土8:30~12:30,無,,
ケアタウン薬局,312029,鳥取県,米子市,35.407761,133.347672,0859-60-9215,0859-60-9216,683-0016,米子市奥谷1135-1,月~水・金8:30~18:15                    木8:30~17:30                     土8:30~13:00,有,0859-60-9215,
クロ-バ-薬局,312029,鳥取県,米子市,35.40369,133.343643,0859-21-0300,0859-21-0301,683-0021,米子市石井700-1,月・火・木・金8:30~18:00                     水・土8:30~17:00,有,0859-21-0300,
すみれ薬局,312029,鳥取県,米子市,35.434269,133.338806,0859-21-3001,0859-21-3002,683-0052,米子市博労町3-83-1,月~水・金9:00~18:30 木9:00~17:00 土9:00~13:00,有,090-3172-9078,
ばくろうまち薬局,312029,鳥取県,米子市,35.430599,133.339539,0859-37-2030,0859-37-2031,683-0052,米子市博労町1-133-2,月~水・金8:30~18:00                   木8:30~16:30                       土8:30~12:30,有,0859-37-2030,
薬局スタッセ,312029,鳥取県,米子市,35.424446,133.345261,0859-34-9355,0859-34-9318,683-0064,米子市道笑町4-92-1,月~水・金9:00~19:00 木9:00~18:30 土9:00~16:00,無,,
サフラン薬局,312029,鳥取県,米子市,35.425022,133.331177,0859-21-5367,0859-21-5369,683-0067,米子市東町282 GOGYOビル2階,月~金9:00~18:00木9:00~17:00土9:00~16:00,有,0859-21-5367,
しおん薬局,312029,鳥取県,米子市,35.471394,133.277542,0859-25-0057,0859-25-6265,683-0103,米子市富益町3533-5,月~金9:00~18:30 土9:00~18:00,有,0859-25-0057,
大崎薬局,312029,鳥取県,米子市,35.472061,133.259018,0859-48-2211,0859-48-2212,683-0104,米子市大崎1242,月~水・金9:00~18:30木9:00~18:00土9:00~16:00,有,0859-48-2211,
有限会社アオト薬局,312029,鳥取県,米子市,35.398998,133.360611,0859-26-4700,0859-26-4441,683-0257,米子市榎原1888-6,月~金8:30~19:00土8:30~16:00,有,070-3776-1851,
おおくに調剤薬局,313890,鳥取県,西伯郡南部町,35.350243,133.327515,0859-39-6250,0859-39-6251,683-0323,西伯郡南部町倭397-20,月~金9:00~18:00                    土8:30~12:30,有,0859-39-6250(転送),
ヤマト薬局,313890,鳥取県,西伯郡南部町,35.350243,133.327515,0859-39-6565,0859-39-6566,683-0323,西伯郡南部町倭381-9,月~金9:00~18:00                   土9:00~12:30,無,,
大陽堂薬局新開店,312029,鳥取県,米子市,35.454475,133.350357,0859-23-5922,0859-23-5923,683-0801,米子市新開2-13-53,月~金9:00~18:30                    土9:00~16:15,有,080-8245-2046,
ア-ル薬局東福原店,312029,鳥取県,米子市,35.445648,133.345032,0859-46-0711,0859-46-0712,683-0802,米子市東福原6-5-6,月~水・金・土9:00~18:00                     木8:30~16:30,無,,
ウエルシア薬局米子東福原店,312029,鳥取県,米子市,35.445946,133.350342,0859-38-3038,0859-38-3037,683-0802,米子市東福原6-12-39,月~土9:00~19:00,無,,
ウェルネス薬局東福原店,312029,鳥取県,米子市,35.435181,133.347824,0859-31-6500,0859-31-6501,683-0802,米子市東福原1-6-16,月~金9:30~13:00、14:30~18:15,無,,
桔梗堂薬局,312029,鳥取県,米子市,35.441036,133.344193,0859-33-6006,0859-34-4661,683-0802,米子市東福原3-8-1,月~水・金9:00~19:00                    木9:00~18:00                      土9:00~13:00,有,0859-22-5567,
ウェルネス薬局米原6丁目店,312029,鳥取県,米子市,35.442623,133.335388,0859-39-1115,0859-39-1125,683-0804,米子市米原6-6-6,月~金9:00~13:00、14:00~18:00 土9:00~13:00,無,,
きらら薬局,312029,鳥取県,米子市,35.454319,133.337997,0859-34-6567,0859-34-6557,683-0805,米子市西福原9-11-15,月~水・金9:00~19:00                     木8:00~16:00                          土9:00~17:30,有,0859-34-6567,
どい薬局,312029,鳥取県,米子市,35.448051,133.341858,0859-22-6807,0859-32-1243,683-0805,米子市西福原6-2-29,月~土9:00~18:30,有,090-3172-9078,
ファ-マシィ薬局西福原,312029,鳥取県,米子市,35.444672,133.340744,0859-36-2131,0859-36-2132,683-0805,米子市西福原4-9-50,月・火・木・金9:00~18:30 水9:00~17:00土9:00~16:00,有,0859-36-2131,
ウェルネス薬局角盤店,312029,鳥取県,米子市,35.435234,133.330414,0859-31-6122,0859-31-6121,683-0812,米子市角盤町3-84,月~金9:00~18:30土9:00~17:30,無,,
かくばんちょう薬局,312029,鳥取県,米子市,35.435905,133.329575,0859-30-3358,0859-30-3732,683-0812,米子市角盤町3-131,月~水・金8:30~18:00                  木8:30~16:30                   土8:30~12:30,有,0859-30-3358,
ぎほう薬局,312029,鳥取県,米子市,35.436775,133.328491,0859-57-5666,0859-57-2702,683-0812,米子市角盤町4-29-1,月~水・金 8:30~18:00                    木8:30~16:30                          土8:30~12:30,有,0859-57-5666,
ロ-リエ薬局角盤店,312029,鳥取県,米子市,35.437996,133.32695,0859-21-9012,0859-21-9013,683-0812,米子市角盤町4-99,月・火・木・金8:30~18:30                   水8:30~16:30                        土8:30~12:30,有,0859-21-9012,
薬局いわがき,312029,鳥取県,米子市,35.429916,133.335205,0859-32-6061,0859-34-4008,683-0812,米子市角盤町1-42,月・火・金10:00~17:00木10:00~16:00,無,,
桜調剤薬局,312029,鳥取県,米子市,35.430519,133.329803,0859-21-5102,0859-21-5103,683-0816,米子市西倉吉町69,月・火・木・金7:00~18:00                  水・土7:00~15:00,有,0859-21-5102,
共創未来 米子中町薬局,312029,鳥取県,米子市,35.430325,133.329025,0859-35-4761,0859-35-9523,683-0822,米子市中町83,月~金9:00~18:30                    土9:00~13:00,有,0859-35-4761,
恵仁会薬局,312029,鳥取県,米子市,35.427753,133.328125,0859-22-9588,0859-35-4340,683-0823,米子市加茂町2-219,月~金8:30~17:00,無,,
あい調剤薬局,312029,鳥取県,米子市,35.443943,133.320374,0859-38-0810,0859-38-0820,683-0841,米子市上後藤2-3-6,月~水・金9:00~18:00                      木8:30~16:30                        土9:00~17:00,無,,
すみよしファミリ-薬局,312029,鳥取県,米子市,35.447742,133.314377,0859-21-7580,0859-21-7581,683-0841,米子市上後藤7-1-57,月・火・木・金9:00~18:00                     水・土9:00~17:00,有,0859-21-7580(転送),
後藤ヶ丘薬局,312029,鳥取県,米子市,35.442745,133.321228,0859-21-8114,0859-21-8115,683-0841,米子市上後藤1-8-28,月~水・金8:30~18:00木・土8:30~12:00,無,,
リブ調剤薬局,312029,鳥取県,米子市,35.444347,133.311584,0859-21-1871,0859-21-1872,683-0845,米子市旗ヶ崎5-16-14,月~金8:30~18:30 土8:30~13:00,有,090-7694-9948,
ほしぞら薬局,312029,鳥取県,米子市,35.441216,133.302826,0859-29-5600,0859-29-5601,683-0846,米子市安倍347-2,月~水・金9:00~13:00/14:00~18:30                            土9:00~12:00/13:00~17:00                    木・日・祝は休み,有,080-2022-7702,
ロ-リエ薬局安倍店,312029,鳥取県,米子市,35.447357,133.305359,0859-21-5534,0859-21-5535,683-0846,米子市安倍526-3,月・火・水・金9:00~19:00 木9:00~18:30土9:00~14:00,無,,
長谷川薬局,312029,鳥取県,米子市,35.471611,133.297409,0859-48-1077,0859-48-1088,683-0851,米子市夜見町3023-29,月・火・木・金8:30~18:30水8:30~16:30土8:30~16:00,有,0859-48-1066,
共創未来ホスピタウン薬局,312029,鳥取県,米子市,35.457626,133.311081,0859-29-8093,0859-24-5793,683-0852,米子市河崎574-1,月~金9:00~18:00                        土9:00~13:00,有,0859-29-8093,
かも調剤薬局,312029,鳥取県,米子市,35.455696,133.319458,0859-30-0888,0859-30-0889,683-0853,米子市両三柳1890-2,月~金8:45~18:00                    土9:00~12:30,有,0859-30-0888,
みどり薬局,312029,鳥取県,米子市,35.455833,133.317871,0859-48-0248,0859-48-0236,683-0853,米子市両三柳3288-5,月~金8:30~18:00                    土9:00~13:00,有,080-6063-0296,
日本調剤 博愛前薬局,312029,鳥取県,米子市,35.455696,133.319458,0859-36-8510,0859-36-8515,683-0853,米子市両三柳1880,月~金8:30~18:00                       日9:00~13:00,有,070-4148-7667,
みずとり薬局,312029,鳥取県,米子市,35.446423,133.29245,0859-30-0840,0859-24-0457,683-0854,米子市彦名町1457-1,月~金8:30~17:30土8:30~12:30,有,080-3871-3131,
日本調剤とりだい薬局,312029,鳥取県,米子市,35.428909,133.324478,0859-23-6565,0859-23-6567,683-8504,米子市西町36-1,月~金8:30~19:00土8:30~13:00,有,090-3405-7916,
エスマイル薬局境港店,312045,鳥取県,境港市,35.539986,133.228622,0859-21-2205,0859-22-2206,684-0021,境港市馬場崎町177-3,月・火・水・金8:30~18:00木8:30~16:30土8:30~12:30,有,0859-21-2205,
なべや薬局明治町店,312045,鳥取県,境港市,35.543858,133.230164,0859-21-0400,0859-47-0789,684-0022,境港市明治町17-1,月・火・水・金9:00~18:00                木9:00~17:00                     土9:00~13:00,有,0859-21-0400,
對山堂薬局,312045,鳥取県,境港市,35.546001,133.230133,0859-42-2250,0859-42-6095,684-0025,境港市本町25-1,月~金8:00~19:00 土10:00~18:00,無,,
境中央薬局,312045,鳥取県,境港市,35.537807,133.232895,0859-42-5922,0859-42-5925,684-0033,境港市上道町3317,月・火・木・金9:00~18:30                水9:00~17:00                   土9:00~13:00,無,,
ナガイ薬局境港店,312045,鳥取県,境港市,35.537495,133.223328,0859-42-5058,0859-42-5078,684-0061,境港市米川町286,月~金9:00~19:00                     土10:00~18:00,無,,
増谷薬局蓮池店,312045,鳥取県,境港市,35.54018,133.22316,0859-47-0325,0859-47-0322,684-0062,境港市蓮池町102,月~金8:30~18:30 土8:30~13:00,有,090-2095-8921,
外江薬局,312045,鳥取県,境港市,35.525829,133.212601,0859-21-7755,0859-21-7788,684-0071,境港市外江町2275-1,月火水金8:30~18:00木8:30~17:30土8:30~12:30,有,0859-21-7755,
徳吉薬局しかの,312010,鳥取県,鳥取市,35.458935,134.062576,0857-84-1201,0857-84-1202,689-0405,鳥取市鹿野町鹿野1092-1,月~水・金8:30~18:30                    木8:30~16:30                        土8:30~13:00,有,0857-84-1201,
ひまわり薬局鹿野店,312010,鳥取県,鳥取市,35.466599,134.052322,0857-84-6008,0857-84-3858,689-0425,鳥取市鹿野町今市1900-8,月~金8:30~18:00                           土9:00~13:00,有,0857-84-6008,
かもめ薬局,312010,鳥取県,鳥取市,35.517418,133.993652,0857-85-5101,0857-85-5102,689-0501,鳥取市青谷町青谷4307-10,月・火・木・金9:00~18:00                 水・土9:00~13:00,有,0857-85-5101,
だいいち薬局,313289,鳥取県,八頭郡智頭町,35.263855,134.224091,0858-75-1189,0858-75-6000,689-1402,八頭郡智頭町智頭1893-5,月~金8:30~18:00                     土9:00~12:00,有,0858-75-1189,
有限会社 トマト薬局,313718,鳥取県,東伯郡琴浦町,35.50108,133.693985,0858-52-1670,0858-52-1671,689-2303,東伯郡琴浦町徳万176-5,月~水・金8:30~18:30                   木8:30~16:30                     土8:30~17:00,有,0858-52-1670,
ことうら薬局,313718,鳥取県,東伯郡琴浦町,35.501163,133.697571,0858-53-6021,0858-53-6022,689-2304,東伯郡琴浦町逢束1212-1,月・火・木・金8:30~18:00 水8:30~15:00土8:30~12:30,有,0858-53-6021(転送),
家森薬局,313718,鳥取県,東伯郡琴浦町,35.5144,133.639587,0858-55-0482,0858-55-7229,689-2501,東伯郡琴浦町赤碕1144-4,月~金7:30~19:00土8:30~19:00,有,0858-55-0482,
中部薬局赤碕店,313718,鳥取県,東伯郡琴浦町,35.511707,133.634476,0858-55-2100,0858-55-2118,689-2501,東伯郡琴浦町赤碕1848-11,月・火・木・金9:00~19:00 水・土9:00~13:00,有,0858-55-2100,
いな薬局,313866,鳥取県,西伯郡大山町,35.497833,133.483017,0859-54-6230,0859-54-6231,689-3221,西伯郡大山町富長749-3,月~金8:00~18:00                   土8:00~12:30,有,0859-54-6230,
淀江調剤薬局,312029,鳥取県,米子市,35.452396,133.395737,0859-39-4567,0859-39-4577,689-3425,米子市淀江町佐陀1400,月・火・木・金8:30~18:00                   水8:30~17:00                     土8:30~13:00,有,0859-39-4567,
春日調剤薬局,312029,鳥取県,米子市,35.409885,133.39209,0859-37-1350,0859-37-1351,689-3532,米子市上新印256-20,月~水・金9:00~18:00                 木8:30~16:30                       土9:00~12:00,無,,
とみよし調剤薬局,313840,鳥取県,西伯郡日吉津村,35.445267,133.379959,0859-39-3250,0859-39-3240,689-3553,西伯郡日吉津村日吉津1417-1,月~金8:30~18:00                     土8:30~12:30,無,,
ヒエズ調剤薬局,313840,鳥取県,西伯郡日吉津村,35.447605,133.382339,0859-39-3777,0859-39-3770,689-3553,西伯郡日吉津村日吉津2284-1,月~水・金8:30~18:30                    木・土8:30~17:00,有,090-2804-0220,
ナガイ薬局,313904,鳥取県,西伯郡伯耆町,35.388317,133.395691,0859-68-3938,0859-68-4948,689-4121,西伯郡伯耆町大殿618,月~土9:00~18:30,無,,
鬼守調剤薬局,313904,鳥取県,西伯郡伯耆町,35.346241,133.432419,0859-39-9955,0859-39-9988,689-4201,西伯郡伯耆町溝口173-5,月~水・金8:30~18:30                  木8:30~16:30                 土8:30~14:00,有,0859-39-9955,
日南薬局,314013,鳥取県,日野郡日南町,35.17411,133.318222,0859-77-1107,0859-77-1108,689-5211,日野郡日南町生山字塚ノ向506-11,月~金8:30~17:30                      土8:30~12:30,無,,
