施設_名称,施設_市区町村コード,住所_都道府県,住所_市区町村（郡）,住所_緯度,住所_経度,連絡先_電話番号,連絡先_FAX番号,連絡先_郵便番号,連絡先_住所,施設_開局時間,時間外_対応の有無,時間外_電話番号,エラー
あい薬局戸越銀座店,131091,東京都,品川区,35.614895,139.715729,03-5750-3621,03-5750-5180,142-0051,品川区平塚1-7-16 1階,月曜日・金曜日:9:00~20:00 /火曜日~木曜日・土曜日:9:00~18:30 /日曜日:9:00~13:00,有,03-5750-3621,
ファ-コス薬局せがさき,111074,埼玉県,さいたま市浦和区,35.879002,139.665634,048-885-2683,048-885-2687,330-0044,さいたま市浦和区瀬ケ崎3-9-8,月~木・土9:00~18:00金・日・休み,無,,
わかば薬局浦和駅東口店,111074,埼玉県,さいたま市浦和区,35.857754,139.659393,488838455,488838456,330-0055,さいたま市浦和区東高砂町14-18前島ビル1階,月~土9:00~19:00、日・祝休み,有,080-3599-2908,
ふたば調剤薬局浦和店,111074,埼玉県,さいたま市浦和区,35.858147,139.661484,048-764-8383,048-764-8825,330-0055,さいたま市浦和区東高砂町17-7,月~金9:00~18:00土9:00~13:00,無,,
ドラッグセイムス浦和駅東口薬局,111074,埼玉県,さいたま市浦和区,35.857727,139.658783,048-813-1670,048-813-1671,330-0055,さいたま市浦和区東高砂町9-1-5SUMIDA ONE1F,月-土 8:30-21:00 日、祝:9:00-20:00,有,070-4031-4701,
雄飛堂薬局東仲町店,111074,埼玉県,さいたま市浦和区,35.862453,139.656265,487649771,487649772,330-0056,さいたま市浦和区東仲町4-8,月曜日-金曜日 8:30-18:00 土曜日 8:30-13:00,無,08084223007,
サンワ薬局,,,,35.859936,139.66066,048-883-1333,048-883-3161,330-0056 , さいたま市浦和区東仲町30-20,月~金9:00~18:30土9:00~17:30 ,有,070-6452-4615,郵便番号
ほんだ薬局,111074,埼玉県,さいたま市浦和区,35.863663,139.652222,048-825-1880,048-825-1880,330-0061,さいたま市浦和区常盤2-9-6,9:00~19:00,無,,
ファルマプリベ薬局,111074,埼玉県,さいたま市浦和区,35.871162,139.645767,048-822-4955,048-822-5050,330-0061,さいたま市浦和区常盤9-19-12ライフステ-ジ北浦和駅前1階,月・火・木・金9:00~19:00水9:00~17:00土9:00~13:00,有,048-822-4955(転送対応),
そうごう薬局常盤店,111074,埼玉県,さいたま市浦和区,35.871773,139.642029,048-827-1331,048-827-1332,330-0061,さいたま市浦和区常盤10-10-18,月9:00~18:00/火9:00~18:00/水9:00~18:00/木9:00~18:00/金9:00~18:00/土9:00~18:00/備考:祝日休み,有,048-827-1331,
そうごう薬局浦和店,111074,埼玉県,さいたま市浦和区,35.866581,139.64621,488235731,488235732,330-0061,さいたま市浦和区常盤9-4-4,月水金土 9:00~19:00 火木 9:00~17:00 日祝 休み,有,488235731,
そうごう薬局ふれあい通り店,111074,埼玉県,さいたま市浦和区,35.871704,139.642883,048-832-4861,048-832-4761,330-0061,さいたま市浦和区常盤9-32-20,月~金9:00~19:00 土日祝9:00~18:00,無,,
セキグチ薬局,111074,埼玉県,さいたま市浦和区,35.87167,139.64238,488220903,488220904,330-0061,さいたま市浦和区常盤9-32-17今井ビル1階,月曜から金曜 9時から19時 土曜9時から17時,有,488220903,
セイムス北浦和,111074,埼玉県,さいたま市浦和区,35.872192,139.64299,048-833-8934,048-834-3335,330-0061,さいたま市浦和区常盤9-34-18,月~土:8:30~17:30,有,048-833-8934(転送),
けんこう薬局,111074,埼玉県,さいたま市浦和区,35.861183,139.643112,048-783-4860,048-783-4870,330-0061,さいたま市浦和区常盤6-12-16,月・火・水・金9:00~18:30木9:00~17:00土9:00~14:00,有,048-783-4860 090-2662-0839,
鈴木薬局浦和店,111074,埼玉県,さいたま市浦和区,35.860027,139.655411,048-762-9420,048-762-9420,330-0062,さいたま市浦和区仲町1-2-9,・月、火、木、金 9:00~19:00 ・水9:00~18:30 ・土9:00~16:00 ・日、祝日 休み,有,080-3454-2128,
日本調剤浦和仲町薬局,111074,埼玉県,さいたま市浦和区,35.859985,139.655579,048-814-0261,048-814-0262,330-0062,さいたま市浦和区仲町1-2-11,月~金9:00~20:00土9:00~18:00,有,080-1014-8708,
日本調剤 浦和中央薬局,111074,埼玉県,さいたま市浦和区,35.860195,139.65448,487649860,487649861,330-0062,さいたま市浦和区仲町1-6-6うらわメディカルBld.1階,月から金 9時から19時 土曜日 9時から18時 日曜日祝日休み,有,09014206096,
コスモス薬局,111074,埼玉県,さいたま市浦和区,35.860687,139.644714,048-864-2206,048-864-2206,330-0062,さいたま市浦和区仲町4-10-13,月~土9:00~21:00祝・日10:00~21:00日休み,有,090-6049-0987,
(株)ユニマットライフ 彩芽薬局,111074,埼玉県,さいたま市浦和区,35.858555,139.654892,048-822-8806,048-822-0318,330-0063,さいたま市浦和区高砂2-7-7 セブンビル2階,月9:15~18:15/火9:15~18:15/水9:15~18:15/木9:15~18:15/金9:15~18:15/土9:15~13:30,有,048-822-8806(携帯に転送),
レジ-ナ薬局,111074,埼玉県,さいたま市浦和区,35.858555,139.654892,048-815-7707,048-815-7708,330-0063,さいたま市浦和区高砂2-7-7 セブンビル1F,月9:00~17:45/火9:00~17:45/水9:00~17:45/木9:00~17:45/金9:00~17:45/土9:00~13:00/備考:祭日は休業,有,048-815-7707,
薬局日本メディカルシステム浦和店,111074,埼玉県,さいたま市浦和区,35.8568,139.655426,048-767-8561,048-767-8526,330-0063,さいたま市浦和区高砂2-1-8,月・水~金9:00~18:00土9:00~13:00,無,,
ファ-コス薬局スミレ浦和,111074,埼玉県,さいたま市浦和区,35.858353,139.652969,048-834-3571,048-823-7352,330-0063,さいたま市浦和区高砂2-11-6,月・火・水・金9:00~18:30土9:00~14:00木・日・祝休み,無,,
そうごう薬局うらわ高砂店,111074,埼玉県,さいたま市浦和区,35.856964,139.657883,048-795-7831,048-795-7832,330-0063,さいたま市浦和区高砂1-2-1エイペックスタワ-浦和106,月9:00~18:00/火9:00~18:00/水9:00~18:00/木9:00~18:00/金9:00~18:00/土9:00~17:00,有,048-795-7831,
セイムス高砂薬局,111074,埼玉県,さいたま市浦和区,35.857269,139.653595,	048-	825-	5512,	048-	815-	8140,330-0063,さいたま市浦和区高砂2-2-20Kビル1階,月-金 9時-19時土 9時-13時日・祝 休み,有,,
あけぼの薬局 アトレ浦和店,111074,埼玉県,さいたま市浦和区,35.858215,139.657028,487111004,487119551,330-0063,さいたま市浦和区高砂1-16-12アトレ浦和 West Area 4F,10時~19時,有,07033604178,
ドラッグセイムス浦和駅西口薬局,111074,埼玉県,さいたま市浦和区,35.855877,139.658401,048-833-8006,048-834-8501,330-0064,さいたま市浦和区岸町4-2-15石内岸町ビル1F,月-金9:00-18:00  土9:00-13:00,有,048-833-8006,
たかさご薬局,111074,埼玉県,さいたま市浦和区,35.855396,139.655289,048-826-6337,048-826-6337,330-0064,さいたま市浦和区岸町4-25-3-102,月9:00~18:30/火9:00~18:30/水9:00~17:00/木9:00~18:30/金9:00~18:30/土9:00~13:00,無,,
そうごう薬局岸町店,111074,埼玉県,さいたま市浦和区,35.851662,139.657639,048-762-3018,048-762-3017,330-0064,さいたま市浦和区岸町2丁目9番28号,月~土9:00~18:00,有,048-762-3018,
セイムス岸町4丁目薬局,111074,埼玉県,さいたま市浦和区,35.854988,139.655762,	048-	825-	4726,nan,330-0064,さいたま市浦和区岸町4-23-7,月火水金 8:30-18:30木 8:30-14:00土 8:30-17:30,無,,
神明台薬局,111074,埼玉県,さいたま市浦和区,35.848686,139.662247,488237222,488237223,330-0065,さいたま市浦和区神明1-23-6,月、水、木、金:9~19:00火9~17:30土9~13:00,有,488237222,
冨士薬局与野店,111074,埼玉県,さいたま市浦和区,35.886097,139.642883,048-814-2850,048-814-2851,330-0071,さいたま市浦和区上木崎4丁目1-13 ,月・火・水・金・土9時~18時、木曜日9時~20時,有,048-814-2850,
たから薬局さいたま新都心店,111074,埼玉県,さいたま市浦和区,35.889908,139.639999,048-823-9341,048-823-9342,330-0071,さいたま市浦和区上木崎2-7-13,月~金9:00~19:00土 9:00~17:30,有,,
かがやき調剤薬局与野駅前店,111074,埼玉県,さいたま市浦和区,35.884483,139.639526,048-767-8775,048-767-8776,330-0071,さいたま市浦和区上木崎1-2-6,月~金9:00~18:30土9:00~13:30,有,090-6306-9221,
セイムス上木崎薬局,111074,埼玉県,さいたま市浦和区,35.886124,139.639648,048-831-1593,048-827-1095,330-0071,さいたま市浦和区上木崎2-3-35,月、火、木、金:9:00-19:00、水:9:00-19:30、土:9:00-14:00、日:9:00-12:00,有,048-831-1593,
クオ-ル薬局上木崎店,111074,埼玉県,さいたま市浦和区,35.885864,139.640717,048-829-8320,048-829-2682,330-0071,さいたま市浦和区上木崎2-14-1,月~水・金8:30~18:00木8:30~16:30土8:30~13:00定休日 日・祝日,有,,
ことぶき薬局 浦和領家店,111074,埼玉県,さいたま市浦和区,35.876434,139.655701,048-884-4500,048-884-4501,330-0072,さいたま市浦和区領家2-10-2,月9:00~18:30/火9:00~18:30/水9:00~18:30/木9:00~17:30/金9:00~18:30/土9:00~13:45,有,090-8042-8121,
日本調剤北浦和東口薬局,111074,埼玉県,さいたま市浦和区,35.871872,139.649155,048-767-6505,048-767-6506,330-0074,さいたま市浦和区元町2-8-13,月~金9:00~19:00土9:00~13:00,有,070-2644-5385,
志宝薬局北浦和店,111074,埼玉県,さいたま市浦和区,35.874306,139.645554,048-824-5066,048-824-5339,330-0074,さいたま市浦和区北浦和3-11-1第2北浦和メゾン1F,月9:00~19:00/火9:00~19:00/水9:00~19:00/木9:00~19:00/金9:00~19:00/土9:00~14:00,有,080-3697-6828,
わかば薬局北浦和店,111074,埼玉県,さいたま市浦和区,35.877209,139.647064,048-767-6137,048-767-6138,330-0074,さいたま市浦和区北浦和2-14-24,月火水金:8:00~19:00 木土:9:00~17:00,有,080-3599-2908,
わかば薬局北浦和駅東口店,111074,埼玉県,さいたま市浦和区,35.872421,139.647339,048-816-4238,0488164239,330-0074,さいたま市浦和区北浦和1-1-7北原ビル1階,月火木金:10:00~19:00 水:9:00~17:00 土:10:00~15:00,有,080-3599-2908,
みどりの薬局,111074,埼玉県,さいたま市浦和区,35.874939,139.648743,048-741-8662,048-741-8662,330-0074,さいたま市浦和区北浦和1-16-7,月~金8:30~18:00土8:30~15:00日・祝休み,無,,
そうごう薬局ハッピ-ロ-ド店,111074,埼玉県,さいたま市浦和区,35.871792,139.644424,048-814-0300,048-834-2116,330-0074,さいたま市浦和区北浦和4-3-8,月9:00~19:00/火9:00~19:00/水9:00~19:00/木9:00~19:00/金9:00~17:00/土9:00~14:00,有,048-814-0300,
そうごう薬局 北浦和駅前店,111074,埼玉県,さいたま市浦和区,35.871822,139.644928,048-823-3951,048-823-3952,330-0074, さいたま市浦和区北浦和4丁目3-11,月9:00~19:00/火9:00~19:00/水9:00~19:00/木9:00~18:00/金9:00~18:00/土9:00~18:00,有,048-823-3951,
キリン堂薬局 浦和元町店,111074,埼玉県,さいたま市浦和区,35.872765,139.647522,048-811-3091,0488113092,330-0074,さいたま市浦和区北浦和1-1-11 登坂ビル1階,月~金 9~19時、土9~18時,有,08096944844,
                                                                                                                                                                                                                                                                                                                                                                                                                                                                                                                                                                                                                                                                                                                                                                                                                                                                            ,111074,埼玉県,さいたま市浦和区,35.873337,139.645493,048-762-9383,048-762-9393,330-0074,さいたま市浦和区北浦和3-7-3,月・火・金8:30~18:00水9:00~13:30、14:30~18:00木8:30~13:00、14:00~18:00土8:30~13:30,無,,
そうごう薬局 針ヶ谷店,111074,埼玉県,さいたま市浦和区,35.87957,139.643616,487117551,487117552,330-0075,さいたま市浦和区針ヶ谷1-8-12,月~土9:00~18:30,有,487117551,
セイムス針ヶ谷薬局,111074,埼玉県,さいたま市浦和区,35.882874,139.643478,048-825-3722,048-825-3806,330-0075,さいたま市浦和区針ヶ谷3-13-18,月-金:9:00-18:30土:9:00-13:30,有,048-825-3722,
南山堂薬局,111058,埼玉県,さいたま市中央区,35.891712,139.630173,048-762-3786,048-762-3787,330-0081,さいたま市中央区新都心4-1 FSKビル 1階,9:00~22:00,無,,
ほんだ薬局新都心店,111058,埼玉県,さいたま市中央区,35.891712,139.630173,048-600-1770,048-600-1771,330-0081,さいたま市中央区新都心4-8-1F,月・火・金9:00~19:00水・木9:00~17:00土9:00~16:00,有,090-4534-1608,
セイムスさいたま新都心薬局,111058,埼玉県,さいたま市中央区,35.892937,139.632156,	048-	600-	1555,	048-	600-	1556,330-0081,さいたま市中央区新都心11-1NTTドコモビル2F,月-土 8:30-20:00日 9:00-13:00,無,,
ウエルシア薬局さいたま新都心けやきひろば店,111058,埼玉県,さいたま市中央区,35.892952,139.631271,048-600-0583,048-600-0584,330-0081,さいたま市中央区新都心10けやきひろば1階,月~金8:30-20:00  土9:00-19:00 祝日9:00-14:00/15:00-19:00,有,048-600-0583,
アイン薬局 さいたま新都心店,111058,埼玉県,さいたま市中央区,35.891815,139.632233,488526701,488526702,330-0081,さいたま市中央区新都心1-5さいたま赤十字病院2階,月-金8時-21時、土日祝日8時30分-17時,有,488526701,
みやこ薬局堀の内店,111031,埼玉県,さいたま市大宮区,35.909706,139.634735,486585505,486585506,330-0804,さいたま市大宮区堀の内町1-330ハ-トフル大宮ビル1F102,月-土 9時-18時,有,09084793951,
ドラッグセイムス堀の内薬局,111031,埼玉県,さいたま市大宮区,35.911167,139.6362,	048-	650-	9770,	048-	650-	9772,330-0804,さいたま市大宮区堀の内町2-48-1,9時,有,	048-	650-	9770,
氷川薬局,111031,埼玉県,さいたま市大宮区,35.919926,139.636169,486588777,486588778,330-0805,さいたま市大宮区寿能町2-70-2,月・火・水・金曜日:9時から18時 木曜日:9時から17時 土曜日:8時45分から14時,有,08032162704,
日本調剤大宮薬局,111031,埼玉県,さいたま市大宮区,35.907436,139.642609,048-648-6159,048-648-6179,330-0834,さいたま市大宮区天沼町1-426-1,月~金9:00~18:00 土9:00~13:00,有,090-1037-4042,
南山堂薬局新天沼店,111031,埼玉県,さいたま市大宮区,35.908333,139.643204,048-650-8600,048-650-8601,330-0834,さいたま市大宮区天沼町1-530-2,月~金9:00~18:00土9:00~13:00,無,,
飛鳥薬局新都心店,111031,埼玉県,さいたま市大宮区,35.895111,139.63324,048-650-2485,048-650-2486,330-0843,さいたま市大宮区吉敷町4-262-10松井ビル1階,月、水、木、金、土9時-18時 火9時-19時,有,080-4066-5831,
ドラッグセイムス吉敷薬局,111031,埼玉県,さいたま市大宮区,35.900963,139.636887,048-658-1235,048-658-1236,330-0843,さいたま市大宮区吉敷町3-212,月~土:10:00~14:00、15:00~19:00,無,,
みよの台薬局大宮店,111031,埼玉県,さいたま市大宮区,35.904156,139.627838,048-642-6114,048-642-6144,330-0844,さいたま市大宮区下町2-16-1 アクロスビル101,月~土9:00~19:00,有,080-4854-0780,
あおぞら調剤薬局大宮店,111031,埼玉県,さいたま市大宮区,35.904072,139.630112,487882866,487882897,330-0844,さいたま市大宮区下町3-7-1S101,月、火、木、金曜は8:30-18:30 水曜8:30-17:00 土曜8:30-13:00,有,080-3216-2704,
ウイング薬局大宮東口店,111031,埼玉県,さいたま市大宮区,35.905388,139.626755,	048-	643-	2855,nan,330-0845,さいたま市大宮区仲町1-54-3ビジョナリ-III B1F,祝日以外9:30-20:00 ,有,,
有限会社福美商事薬品部フクミ薬局,111031,埼玉県,さいたま市大宮区,35.905926,139.626129,048-641-0139,048-645-5288,330-0846,さいたま市大宮区大門町1-60,月~土9:30~20:00日・祝日10:00~20:00,無,,
日本調剤大宮門街薬局,111031,埼玉県,さいたま市大宮区,35.907307,139.627335,048-779-8401,048-779-8404,330-0846,さいたま市大宮区大門町2-118 大宮門街WEST4階,月~金9:30~20:00 土9:30~17:00,有,080-9999-2206,
日本調剤大宮東口薬局,111031,埼玉県,さいたま市大宮区,35.906654,139.627472,048-640-3830,048-640-3831,330-0846,さいたま市大宮区大門町2-108-5,月-金 9:00-19:00 土 9:00-17:00 日 9:00-15:00,有,080-2081-9582,
日本調剤 大宮門街薬局,111031,埼玉県,さいたま市大宮区,35.907307,139.627335,487798401,487798404,330-0846,さいたま市大宮区大門町2丁目118番地大宮門街WEST4階,月-金 9:30-20:00 土 9:30-17:00,有,08099992206,
株式会社グラ-スファルマひまわり薬局,111031,埼玉県,さいたま市大宮区,35.91209,139.607452,487824637,487824638,330-0851,さいたま市大宮区櫛引町1-517,月曜日-金曜日9時-18時 土曜日9時-13時,有,09019978481,
かがやき調剤薬局,111031,埼玉県,さいたま市大宮区,35.909042,139.609665,048-871-9637,048-871-9647,330-0851,さいたま市大宮区櫛引町1-262-102,月9:00~18:30/火9:00~18:30/水9:00~18:30/木9:00~18:30/金9:00~18:30/土9:00~13:30,有,070-4358-5332,
オリ-ブ薬局 大宮大成,111031,埼玉県,さいたま市大宮区,35.918644,139.616501,048-788-4333,048-788-4334,330-0852,さいたま市大宮区大成町3-245-2,月9:00~12:00 14:00~17:00/火9:00~12:00 14:00~17:00/水9:00~12:00 14:00~17:00/木9:00~12:00 14:00~17:00/金9:00~12:00 14:00~17:00/土9:00~12:00 14:00~17:00/日9:00~12:00 ,有,048-788-4333,
薬局トモズ 大宮店,111031,埼玉県,さいたま市大宮区,35.905525,139.621902,0488717201,0486501150,330-0854,さいたま市大宮区桜木町1-1-10,月9:00~20:00/火9:00~20:00/水9:00~20:00/木9:00~20:00/金9:00~20:00/土9:00~18:00/備考:祝日・年末年始閉局,無,,
わかば薬局大宮店 ,111031,埼玉県,さいたま市大宮区,35.90395,139.621185,487882526,487882527,330-0854,さいたま市大宮区桜木町1-183-2ロセ-ル・ビュ-ノ大宮101号室,月~金 9:00~19:00 土   9:00~17:00,有,08035992908,
みらい薬局 大宮店,111031,埼玉県,さいたま市大宮区,35.904377,139.620132,048-729-7792,048-729-7793,330-0854,さいたま市大宮区桜木町1-9-6 大宮センタ-ビル11F,月9:30~18:00/火9:30~18:00/水9:30~18:00/木9:30~18:00/金9:30~18:00/土9:30~18:00,無,,
ドラッグセイムスダイワロイネット大宮西口薬局,111031,埼玉県,さいたま市大宮区,35.903069,139.621201,	048-	782-	6057,nan,330-0854,さいたま市大宮区桜木町1-398-1AddGrace Omiya 1Fセイムス,月-土曜 9:00-14:30、15:30-20:00日曜 9:00-14:30、15:30-18:00祝日休業,有,,
鈴木薬局大宮アルシェ店,111031,埼玉県,さいたま市大宮区,35.906166,139.622147,048-856-9091,048-856-9092,330-0854,さいたま市大宮区桜木町2-1-1 大宮アルシェ6階,月~土9:30~18:00日11:00~16:00,無,,
わかば薬局大宮店,,,,35.90395,139.621185,048-788-2526,048-788-2527,330-0854 , さいたま市大宮区桜木町1-183-2 ロセ-ル・ビュ-ノ大宮101,月~金9:00~19:00土9:00~18:00,有,,郵便番号
東方堂薬局,111031,埼玉県,さいたま市大宮区,35.907345,139.600403,	048-	631-	3123,	048-	631-	3133,330-0856,さいたま市大宮区三橋1-1177-2,平日  9:00-19:00土曜日 9:00-14:00日曜日・祝日休み,無,,
セイムス三橋4丁目薬局,111031,埼玉県,さいたま市大宮区,35.890667,139.603378,	048-	623-	8860,	048-	623-	8735,330-0856,さいたま市大宮区三橋4-898-4,月、火、水、曜曜9:00-18:00、土曜9:00-15:30木曜、日曜、祝日休み,有,,
アサヒ薬局,111015,埼玉県,さいたま市西区,35.937901,139.594086,048-623-0152,048-623-0152,331-0045,さいたま市西区内野本郷696-48,月~水・金・土9:00~17:00木・日休み,有,048-623-0152,
ひだまり薬局,111015,埼玉県,さいたま市西区,35.924946,139.595032,486255339,487272772,331-0046,さいたま市西区宮前町407-1,月-金9:00-19:00 土9:00-13:00,有,07043390305,
かばさん薬局指扇店,111015,埼玉県,さいたま市西区,35.914265,139.570038,048-782-4241,048-782-4241,331-0047,さいたま市西区指扇2338-1,月・水~土9:00~13:00、14:00~18:00,無,,
ドラッグセイムス大宮西薬局,111015,埼玉県,さいたま市西区,35.923203,139.584381,	048-	782-	6914,	048-	782-	6915,331-0052,さいたま市西区三橋6-1737-4,月-土曜 10:00-14:00、15:00-19:00,無,,
こもれび薬局,111015,埼玉県,さいたま市西区,35.923615,139.585403,486260231,486578554,331-0052,さいたま市西区三橋6-1743-3,月・火・木・金 9:00~18:30 水 9:00~17:00 土 9:00~16:00,有,08025665977,
あつみ薬局三橋店,111015,埼玉県,さいたま市西区,35.920429,139.588791,487935418,486235838,331-0052,さいたま市西区三橋6-1616-161,月~金9時~20時 土8時30分~13時,有,07065743585,
アイン薬局島根店,111015,埼玉県,さいたま市西区,35.880955,139.598297,486214193,486214195,331-0054,さいたま市西区島根298-1,月-金9:00-17:00 土9:00-14:00 日祝:休,有,486214193,
アイン薬局島根2号店,111015,埼玉県,さいたま市西区,35.882915,139.598953,486213393,486213395,331-0054,さいたま市西区島根312-1,月-土 9時-18時 日・祝 9時-17時,有,486213393,
ファ-コス薬局二ツ宮,,,,35.895691,139.578232,048-620-3233,048-624-3233,331-0065 , さいたま市西区二ツ宮419-10,月~金9:00~18:30土9:00~13:00,無,,郵便番号
セイムス指扇薬局,111015,埼玉県,さいたま市西区,35.920696,139.566238,	048-	623-	8650,	048-	625-	2112,331-0073,さいたま市西区指扇領別所366-24,月-金9:00-18:30 土9:00-17:00 日・祝日:休み,有,	048-	623-	8650,
ファ-コス薬局本郷,111023,埼玉県,さいたま市北区,35.940735,139.627213,048-782-8161,048-782-8162,331-0802,さいたま市北区本郷町372-3,月・火・木・金9:00~18:30土9:00~16:00水・日・祭日休み,有,048-782-8161,
彩の森薬局,111023,埼玉県,さいたま市北区,35.92728,139.63739,048-788-3381,048-788-3382,331-0804,さいたま市北区土呂町1521-2,9:00~18:00,有,048-788-3381,
ハロ-薬局土呂,111023,埼玉県,さいたま市北区,35.933277,139.63002,048-664-8186,048-664-8186,331-0804,さいたま市北区土呂町1-25-5ハロ-薬局土呂,月・火・木・金曜日 9:00~18:30 土曜日 9:00~12:30  水・日・祝日 休み  (その他夏季・年末年始臨時休業あり),無,09022248612,
ドラッグセイムス土呂駅前薬局,111023,埼玉県,さいたま市北区,35.931557,139.630783,048-667-7297,048-667-5259,331-0804,さいたま市北区土呂町1-12-2,月~土:9:00~20:00、日:10:00~18:00,有,048-667-7297,
コスモ薬局土呂,111023,埼玉県,さいたま市北区,35.932587,139.632996,048-782-9620,048-782-9621,331-0804,さいたま市北区土呂町2-12-20 1階,月・火・水・金9:00~18:30木9:00~17:00土9:00~15:30,有,048-782-9620,
ウエルシア薬局さいたま土呂店,111023,埼玉県,さいたま市北区,35.936981,139.63063,048-651-9270,048-662-1119,331-0804,さいたま市北区土呂町1-59-3,月~金 9:00~19:00 土 9:00~18:00 祝日 10:00-15:00,有,048-651-9270,
あおば薬局,111023,埼玉県,さいたま市北区,35.932522,139.631012,486547776,487833332,331-0804,さいたま市北区土呂町1-18-19ソリストパレスII1階,月、火、木、金9:00~19:00 水9:00~17:00 土9:00~15:00,有,08035992908,
アイン薬局土呂店,111023,埼玉県,さいたま市北区,35.933437,139.630524,487835093,487835094,331-0804,さいたま市北区土呂町1-26-2,月火・木金 9時-18時 水 9時-17時 土 9時-12時30分,有,487835093,
すみれ薬局,111023,埼玉県,さいたま市北区,35.958302,139.602051,048-661-7337,0487834800,331-0811,さいたま市北区吉野町2-192-7,月・火・水・金 9:00-19:00 木 9:00-17:00 土 9:00-13:00,無,08035992908,
鈴木薬局宮原店,111023,埼玉県,さいたま市北区,35.941479,139.610336,048-653-8284,048-654-5017,331-0812,さいたま市北区宮原町3-399,月:9:00~21:00 火:9:00~18:30 水:9:00~17:00 木:9:00~21:00 金:9:00~21:00 土:9:00~18:30,有,080-3545-3459,
中央調剤薬局 宮原店,111023,埼玉県,さいたま市北区,35.942055,139.610992,486662712,486662977,331-0812,さいたま市北区宮原町2-23-6,月火木金9時-18時 水-17時 土-16時,無,080-4913-8111,
川田薬局,111023,埼玉県,さいたま市北区,35.93911,139.609299,048-665-8596,048-654-9369,331-0812,さいたま市北区宮原町3-562,"月火金;9:00-18:30、水;9:00-17:00,木;9:30-18:00、土;9:00-13:00",有,080-4913-8111,
プライム薬局 かものみや店,111023,埼玉県,さいたま市北区,35.936386,139.61882,048-788-2703,048-788-2704,331-0812,さいたま市北区宮原町1-435,月火木金:9:00-18:30、水:9:00-19:00、土:9:00-12:30、第2・第4日曜:9:00-18:30,有,080-4209-9062,
日本調剤ステラタウン薬局,111023,埼玉県,さいたま市北区,35.932701,139.622437,048--788-1745,048--788-1867,331-0812,さいたま市北区宮原町1-854-1ステラタウン薬局棟Y 201,月~金:9:00~20:00土日祝9:00~18:00,有,070-4360-2767,
ドラッグセイムス宮原西口薬局,111023,埼玉県,さいたま市北区,35.939217,139.608658,	048-	652-	1623,nan,331-0812,さいたま市北区宮原町3-558,平日:9:00-20:00土曜日:9:00-19:00日曜祝日:休み,無,,
コスモ薬局大宮,111023,埼玉県,さいたま市北区,35.933407,139.61879,048-651-3800,048-651-3875,331-0812,さいたま市北区宮原町1-83-1,月~金8:30~18:00土9:00~11:00,有,080-5027-9652,
ウエルシア薬局さいたま宮原駅前店,111023,埼玉県,さいたま市北区,35.940853,139.610657,048-662-2261,048-662-2262,331-0812,さいたま市北区宮原町3-372,月9:00~19:00/火9:00~19:00/水9:00~19:00/木9:00~19:00/金9:00~19:00/土9:00~18:00/備考:祝日は閉局,有,090-8453-3173,
アイン薬局宮原店,111023,埼玉県,さいたま市北区,35.93399,139.619522,048-654-4193,048-654-1139,331-0812,さいたま市北区宮原町1-86-1,月~金8:30~17:30土19:00~21:30日祝9:00~21:30,有,048-654-4193,
有限会社野口薬局,111023,埼玉県,さいたま市北区,35.923607,139.621643,048-663-3097,048-653048-00,331-0814,さいたま市北区東大成町1-526,9:00~19:30,有,048-663-3097,
日本調剤大宮中央薬局,111023,埼玉県,さいたま市北区,35.920197,139.62175,048-778-9022,0487789122,331-0814,さいたま市北区東大成町1-333-3,月-土 9:00-18:00,有,07039930981,
みはる薬局大宮店,111023,埼玉県,さいたま市北区,35.928913,139.619385,487827690,487827961,331-0814,さいたま市北区東大成町2-437,月・火・水・金)8:30~18:30 木)9:00~18:00 土)8:30~13:30,有,08095538020,
ファ-コス薬局東大成,111023,埼玉県,さいたま市北区,35.925377,139.621964,048-661-2880,048-661-2881,331-0814,さいたま市北区東大成町2-80-1 東和ビル1階,月-金:8時30分-18時 土:8時30~13時,有,048-661-2881,
アイン薬局東大成店,111023,埼玉県,さいたま市北区,35.92646,139.620789,048-651-4193,048-651-1550,331-0814,さいたま市北区東大成町2-254,月~金10:00~18:30土8:30~18:30,有,080-2864-5014,
アイン薬局大宮中央店,111023,埼玉県,さいたま市北区,35.92025,139.623657,486630847,486527637,331-0814,さいたま市北区東大成町1-626-1野原ビル1F,月~金9:00~18:30 土9:00-14:45,有,486630847,
かおる薬局,111023,埼玉県,さいたま市北区,35.921844,139.613785,487835113,487835114,331-0815,さいたま市北区大成町4-318-3むらのひがしビル1階,月曜日.火曜日.水曜日.金曜日は8時から12時半 14時半から18時 木曜日は、6時から14時 土曜日は、8時から13時,有,08065155113,
パル薬局奈良町店,111023,埼玉県,さいたま市北区,35.950607,139.597473,048-668-1112,048-668-1112,331-0822,さいたま市北区奈良町124-1,月・火・水・金9:00~18:30 木9:00~18:00 土9:00~14:00,有,080-8885-2411,
ウエルシア薬局さいたま奈良町店,111023,埼玉県,さいたま市北区,35.946369,139.602005,048-662-8818,048-662-8828,331-0822,さいたま市北区奈良町39-2,月9:00~18:00/火9:00~18:00/水9:00~18:00/木9:00~18:00/金9:00~18:00/土9:00~13:00 14:00~17:00/備考:祝日閉局,無,,
日進薬局,111023,埼玉県,さいたま市北区,35.922607,139.604843,486668114,486668115,331-0823,さいたま市北区日進町1-321,月火木金曜 9:00-18:00 水曜 8:30-16:30 土曜 9:00-12:00,有,486668114,
リズム薬局日進店,111023,埼玉県,さいたま市北区,35.934372,139.603226,486618631,486618632,331-0823,さいたま市北区日進町2-1650第8ハクサンハイツ2-102号,月~水 9:00~19:00 木 9:00~17:00 金 9:00~19:00 土 9:00~13:00,無,486618631,
みやこ薬局宮原店,111023,埼玉県,さいたま市北区,35.938725,139.604523,487825704,487825705,331-0823,さいたま市北区日進町3-534-1,月、火、木、金9:00~18:30 水9:00~17:00 土9:00~14:00,有,08070119310,
そうごう薬局日進店,111023,埼玉県,さいたま市北区,35.929691,139.606384,486681492,486681490,331-0823,さいたま市北区日進町2-1082-3-101,月、火、水、金 9:00-19:00 木 9:00-18:00 土 9:00-14:00,有,486681492,
アイン薬局日進南口店,111023,埼玉県,さいたま市北区,35.931484,139.606491,486683761,486683764,331-0823,さいたま市北区日進町2-754-2杉山ビル一階,月~土 9:00-19:00 日 9:00-15:00 祝日 定休,有,486683761,
みよの台薬局川口店,112038,埼玉県,川口市,35.809986,139.734253,048-222-2300,048-222-2775,332-0001,川口市朝日2-28-19,月~金9:00~19:00 土9:00~13:00,有,048-222-2300,
フルキ薬局,112038,埼玉県,川口市,35.811062,139.739075,048-225-0811,048-225-0911,332-0001,川口市朝日3-15-20,月~金9:00~18:30 土9:00~12:00,有,048-225-0811,
かばさん薬局朝日店,112038,埼玉県,川口市,35.807701,139.734253,048-475-9722,048-290-8711,332-0001,川口市朝日1-10-11 ペルシェ朝日1F,月水金9:00~19:00木9:00~13:00 15:00~19:00土9:00~17:00,無,,
ドラッグセイムス川口東領家薬局,112038,埼玉県,川口市,35.794136,139.752884,	048-	228-	0915,nan,332-0003,川口市東領家3-7-15,月-金曜日 09:00-19:00土曜日 09:00-18:00日・祝 定休日,有,,
田辺薬局川口領家店,112038,埼玉県,川口市,35.795959,139.739639,048-227-0130,048-227-0131,332-0004,川口市領家1-2-19,月・火・木・金8:30~18:30 土8:30~13:00,有,070-8813-8475,
アステル薬局川口店,112038,埼玉県,川口市,35.7934,139.748016,482280099,482280098,332-0004,川口市領家3-6-14,月~金 9:00~18:00 土 9:00~13:00,有,482280099,
ファ-コス薬局スミレ川口,112038,埼玉県,川口市,35.802071,139.739487,048-222-7177,048-222-7185,332-0005,川口市新井町14-18,月~水・金9:00~19:00木・土9:00~13:00,有,048-222-7177,
たから薬局川口店,112038,埼玉県,川口市,35.808353,139.740982,048-227-7117,048-227-7118,332-0006,川口市末広3-2-3,月9:00-19:15/火9:00-19:15/水9:00-19:15/木9:00-19:15/金9:00-17:00/土9:00-13:15,無,,
グリ-ンファ-マシ-薬局,112038,埼玉県,川口市,35.796875,139.729416,048-227-4922,048-227-4923,332-0011,川口市元郷2-15-4,月火木金:9:00-19:00 水:9:00-17:00 土:9:00-13:00,有,070-6987-6345,
みよの台薬局川口駅前店,112038,埼玉県,川口市,35.799477,139.719376,048-225-8383,048-225-8482,332-0012,川口市本町4-8-19,月~金9:00~19:00 土9:00~16:00,有,080-3362-3623,
ハロ-薬局西川口店,112038,埼玉県,川口市,35.799511,139.720718,482298647,482298647,332-0012,川口市本町4-12-9-205,月-金 9:00-19:00 土   9:00-18:00,有,09030078606,
チェリ-薬局,112038,埼玉県,川口市,35.80109,139.715195,048-240-1113,0482401115,332-0015,川口市川口3-3-1リプレ川口2番街,月・火・木・金 9:00-18:00 水・土 9:00-17:00,無,08040781113,
薬局アポック川口幸町店,112038,埼玉県,川口市,35.804832,139.722458,048-240-3066,048-240-3067,332-0016,川口市幸町1-7-1 川口パ-クタワ-104,月~金9:00~19:00 土9:00~16:00,有,090-5210-6744,
薬局アポック 川口幸町店,112038,埼玉県,川口市,35.804832,139.722458,482403066,482403067,332-0016,川口市幸町1-7-1パ-クタワ-104,月~金 9:00~19:00 土 9:00~16:00,有,09052106744,
調剤薬局日本メディカルシステム川口元郷II店,112038,埼玉県,川口市,35.801826,139.728058,048-242-5165,048-242-5166,332-0017,川口市栄町1-12-21 シティ-デュオタワ-川口105,月・火・木・金9:00~19:00水9:00~18:00土9:00~13:00日・祝休み,有,080-3156-6946,
金子ファ-マシ-,112038,埼玉県,川口市,35.802574,139.720276,048-255-2225,048-255-2544,332-0017,川口市栄町3-8-12,月・火・水・金9:00~19:30木9:00~18:00土9:00~14:00,有,048-255-2225,
アイン薬局川口駅東口店,112038,埼玉県,川口市,35.803974,139.719254,482406767,482423922,332-0017,川口市栄町3-11-27HiroBuild1F,月-水、土9:00-18:00 木9:00-17:00 日は休み,有,482406767,
アイン薬局アインズ&トルペ川口店,112038,埼玉県,川口市,35.802296,139.718781,482715100,482552800,332-0017,川口市栄町3-7-1かわぐちキャスティ3階,月-金10時-20時 土10時-18時 日10時-19時,有,482715100,
薬局メディクス川口元郷店,,,,35.801826,139.728058,048-250-5766,048-250-5760,332-0017 , 川口市 栄町1-12-21 シティ-デュオタワ-川口106号,月~金9:00~19:00土9:00~13:00,有,,郵便番号
太極堂薬局,112038,埼玉県,川口市,35.815418,139.700775,048-255-6500,048-255-6501,332-0021,川口市西川口1-41-5,月~金9:00~20:00土9:00~19:00,有,048-255-6500,
ファ-コス薬局みずき,112038,埼玉県,川口市,35.812958,139.701721,048-259-4387,048-259-4389,332-0021,川口市西川口2-2-10サンフロ-ラ西川口1階101,月~水・金9:00~18:30土9:00~13:00,無,,
ハロ-薬局西川口,112038,埼玉県,川口市,35.815182,139.703644,048-229-8647,048-229-8647,332-0021,川口市西川口1-5-21,月~金9:00~19:00 土9:00~18:00,無,090-3307-8606,
かちどき薬局川口店,112038,埼玉県,川口市,35.809788,139.702423,048-258-3891,048-258-3893,332-0021,川口市西川口5-11-20,月~金:9:00~18:00、土:9:00~15:00、日祝:休み,無,,
アイン薬局西川口店,112038,埼玉県,川口市,35.809875,139.702423,048-291-8405,048-291-8406,332-0021,川口市西川口5-11-21,月9:00~18:00/火9:00~18:00/水9:00~18:00/木9:00~18:00/金9:00~18:00/土9:00~15:00,無,,
アイン薬局川口青木店,112038,埼玉県,川口市,35.803448,139.731674,482806257,482401150,332-0031,川口市青木1-18-2明和ビル一階,月-金9:00-17:30 第1.2.4.5土9:00-13:00 第3土9:30-12:00,有,482806257,
パル薬局川口店,112038,埼玉県,川口市,35.813831,139.717636,048-256-0001,048-256-0031,332-0032,川口市中青木3-9-1-102ハイツ1号棟,月・火・木・金:9時-19時 水:9時-17時 土:9時-13時 日・祝休み,有,070-3101-8949,
薬局ユニファ-,112038,埼玉県,川口市,35.817234,139.705353,048-299-6167,048-299-6276,332-0034,川口市並木3-9-6,月-金9:00-18:30 土日9:00-12:30,無,,
みよの台薬局西川口店,112038,埼玉県,川口市,35.818546,139.707825,048-287-3292,048-287-3293,332-0034,川口市並木3-5-20,月・火・木・金9:00~18:30 水・土9:00~13:00,有,048-287-3292,
西青木薬局,112038,埼玉県,川口市,35.816555,139.714676,048-250-1811,048-250-1812,332-0035,川口市西青木2-16-29,月・水・金9:00~18:30火・木9:00~17:00土9:00~13:00,有,048-250-1811,
みずほ薬局,112038,埼玉県,川口市,35.819534,139.714127,048-240-0211,048-240-0210,332-0035,川口市西青木3-10-21,月~金 9:00-18:00  土 9:00-12:00,有,090-2332-2015,
平成薬局,112038,埼玉県,川口市,35.879875,139.743195,482943594,482953595,333-0801,川口市東川口4-19-3,月~水、金 ... 9:00~19:00 土、第1日 ... 9:00~12:30,有,08012587170,
日本調剤 東川口戸塚薬局,112038,埼玉県,川口市,35.877277,139.744507,482903175,482903176,333-0801,川口市東川口3-1-15コンフォルト東川口1階,月火金9:00~18:30 水9:00~17:00 木土9:00~18:00,無,08010162253,
厚川薬局,112038,埼玉県,川口市,35.879013,139.751236,048-229-2293,048-229-0114,333-0801,川口市東川口6-19-41,月~金8:00~17:00土8:00~12:00,有,048-229-2293,
誠公堂薬局東川口店,112038,埼玉県,川口市,35.873371,139.751587,482945590,482945589,333-0802,川口市戸塚東1-18-32,月~金 9:00~13:15 15:00~19:00 土 9:00~13:30,有,482945590,
寺田薬局,112038,埼玉県,川口市,35.869694,139.75296,048-296-4797,048-296-8818,333-0802,川口市戸塚東3-14-6,月~金9:00~20:00土9:00~17:00日・祝・祭日休み,有,048-296-4797,
やまとどう戸塚薬局,112038,埼玉県,川口市,35.861874,139.756485,482972886,482972886,333-0806,川口市戸塚境町35-21,月~水・金 8:45~12:30 14:45~19:00 木 9:00~17:00 土 8:45~12:30 14:00~17:00 日 7:45~12:00,無,07055466578,
戸塚安行駅前薬局,112038,埼玉県,川口市,35.859127,139.753067,484524940,484524944,333-0808,川口市長蔵新田288-1,月~金 9時~18時 土 9時~13時 木日 休み,有,09048288247,
アポス安行薬局,112038,埼玉県,川口市,35.858467,139.752167,048-420-9030,048-420-9031,333-0808,川口市長蔵新田764-8戸塚安行医療モ-ル102,月~金9:00~19:00土9:00~13:00,有,048-420-9030,
みよの台薬局東川口店,112038,埼玉県,川口市,35.873192,139.746796,048-296-9283,048-296-9145,333-0811,川口市戸塚2-18-18,月~水・金9:00~18:00 木・土9:00~17:00,有,048-296-9283,
クレヨン薬局戸塚安行店,112038,埼玉県,川口市,35.858177,139.749619,0482292310,0482292389,333-0813,川口市西立野535-1 グリ-ンフォレスト1F,月9:00~18:30/火9:00~18:30/水9:00~18:30/木10:30~18:30/金9:00~18:30/土9:00~13:00,無,,
ひかり薬局,112038,埼玉県,川口市,35.860184,139.749939,048-290-8182,048-290-8283,333-0817,川口市戸塚南1-1-4,月・火・木・金 9:00~19:00水・土・日・祝 9:00~18:00,有,048-290-8182,
埼玉きぞろ薬局,112038,埼玉県,川口市,35.859192,139.714157,0482912766,482912767,333-0831,川口市木曽呂1309-1,月曜水曜木曜9:00~18:00 火曜日金曜日9:00~20:00 土曜日9:00~14:00 第2土曜日9:00~12:00,有,482912766,
アイン薬局川口北店,112038,埼玉県,川口市,35.861088,139.716827,482905607,482905476,333-0831,川口市木曽呂1308-3,月-水・金 9:00-18:00 木     9:00-20:00 土(第1.3.4.5)9:00-19:00 日(第2)9:30-11:30,有,482905607,
I&H株式会社 阪神調剤薬局 川口店,112038,埼玉県,川口市,35.859715,139.71637,048-291-5222,048-291-5223,333-0831,川口市木曽呂1346-3,月9:00~20:00/火9:00~18:30/水9:00~20:00/木9:00~18:30/金9:00~18:30/土9:00~14:00/備考:第2土曜日は閉局,無,,
日本調剤川口東薬局,112038,埼玉県,川口市,35.843502,139.732544,048-288-9020,048-288-9021,333-0833,川口市西新井宿305-4,月、水~土:7:40~18:00、火:9:00~18:00,無,,
川口薬剤師会センタ-薬局,112038,埼玉県,川口市,35.843933,139.730652,048-285-1661,048-285-1652,333-0833,川口市西新井宿236-8,9:00~17:00,有,080-1107-8380,
神根薬局,112038,埼玉県,川口市,35.846832,139.732178,482886077,482886084,333-0833,川口市西新井宿竹下301番地14,月~木曜日 9:00~18:00 金曜日 9:00~21:00 第1・3・5土曜日 9:00~14:00,有,482886087,
アイン薬局川口店,,,,35.843502,139.732544,048-288-1788,048-288-1771,333-0833 , 川口市西新井宿301-12,月~金9:00~18:00第1・3・5土9:00~13:00第2・4土10:00~12:00,有,048-288-1788,郵便番号
ハロ-薬局,112038,埼玉県,川口市,35.849861,139.721283,048-288-7037,048-287-9386,333-0835,川口市道合919,月~金9:00~18:00 土9:00~12:00,有,048-288-7037,
アイセイ薬局川口前川店,112038,埼玉県,川口市,35.833069,139.709137,048-264-5061,048-264-5062,333-0842,川口市前川1-1-53,月~金:9:00~19:00、土:9:00~18:30,無,,
みすみ薬局前上店,112038,埼玉県,川口市,35.833267,139.717178,048-261-4861,048-261-4866,333-0843,川口市前上町32-33,月・火・木・金9:00~18:00 土9:00~12:00,有,080-6083-9237,
ドラッグセイムス川口天神橋薬局,112038,埼玉県,川口市,35.824265,139.723892,	048-	423-	8835,nan,333-0844,川口市上青木2-3-11,月-土10:00-14:00 15:00-19:00,有,,
あけぼの薬局川口店,112038,埼玉県,川口市,35.830212,139.717545,048-264-1151,048-261-1370,333-0844,川口市上青木4-2-3,月~金9:00~18:00土9:00~13:00,有,080-2372-0576,
小池薬局,112038,埼玉県,川口市,35.832169,139.710236,048-263-1744,048-263-1746,333-0846,川口市南前川2-19-7,月火木金9:00~18:30 水9:00~17:00 土9:00~13:00,有,048-263-1744,
アイセイハ-ト薬局南前川店,112038,埼玉県,川口市,35.831772,139.706451,482647888,482682038,333-0846,川口市南前川2-4-8,月-金 9:00-19:00 土 9:00-17:00 日 9:00-12:30,有,482647888,
やまとどう薬局芝中田店,112038,埼玉県,川口市,35.830948,139.699539,482621121,482621121,333-0847,川口市芝中田1-30-12,月~金 8時30分~13時 15時~19時 土   8時30分~12時30分,無,482621121,
かちどき薬局わらび店,112038,埼玉県,川口市,35.827682,139.705399,048-264-1234,048-264-1283,333-0847,川口市芝中田2-28-1,月9:00~18:00/火9:00~18:00/水9:00~18:00/木9:00~18:00/金9:00~18:00/土9:00~15:00/備考:年末年始、祝日は休業,無,,
あさがお薬局,112038,埼玉県,川口市,35.837208,139.700302,482681155,482681156,333-0848,川口市芝下1-12-3エスポワ-ル101,月、火、木、金 8時~12時30分、15時~18時30分 水 8時~16時30分 土 8時~12時30分,有,482681155,
ハロ-薬局芝園店,112038,埼玉県,川口市,35.831841,139.682693,048-487-8670,048-487-8670,333-0853,川口市芝園町3-9-101芝園団地,月火木金9:00~18:30 土9:00~13:30,無,,
フクロ-薬局,112038,埼玉県,川口市,35.84256,139.687057,048-263-2960,048-424-2990,333-0855,川口市芝西2-27-16 SSビル1F,月・火・木・金9:00~12:30、14:00~18:30 水9:00~17:00土9:00~14:00,有,090-9209-7996,
フォレスト薬局小谷場店,112038,埼玉県,川口市,35.844692,139.68045,048-423-4252,048-423-4259,333-0857,川口市小谷場444-8ハイムタカチュ-1F,月、金9:00~19:00、火、木9:00~18:30、水9:00~17:00、土9:00~12:00,有,048-423-4252,
リズム薬局川口店,112038,埼玉県,川口市,35.858486,139.704269,484234790,484234791,333-0861,川口市柳崎5-3-20サンライフマンション101,月~水9:00~18:30 木9:00~17:00 金9:00~18:30 土9:00~13:00,無,484234790,
ドラッグセイムス柳崎1丁目薬局,112038,埼玉県,川口市,35.854481,139.700943,	048-	475-	7344,nan,333-0861,川口市柳崎1-30-3,月曜日-土曜日10:00-14:00 15:00-19:00日曜日、祝日は休み,無,,
そうごう薬局 柳崎店,112038,埼玉県,川口市,35.852692,139.697647,482683531,482683532,333-0861,川口市柳崎3-7-26,月~日9:00~18:00,有,482683531,
さくら薬局川口柳崎店,112038,埼玉県,川口市,35.861103,139.702789,048-268-8278,048-268-8343,333-0861,川口市柳崎4-28-31,月~水・金9:00~19:00木・土9:00~18:00,有,048-268-8278,
ひまわり薬局,112038,埼玉県,川口市,35.836411,139.695953,482618773,482618773,333-0866,川口市芝3-7-17,月~金9時~17時30分 土9時~13時,有,482618773,
ウエルシア薬局川口芝薬局,112038,埼玉県,川口市,35.835182,139.696732,048-263-0687,048-263-0688,333-0866,川口市芝3-12-1,月~土9:00~20:00日・祝9:00:13:00、14:00~18:00,無,,
さくら町薬局,112038,埼玉県,川口市,35.83865,139.739151,048-299-5411,048-299-5412,334-0001,川口市桜町5-3-5,月・火・木・金9:00~18:00 水9:00~17:00 土9:00~12:30,無,,
友愛薬局鳩ケ谷店,112038,埼玉県,川口市,35.8326,139.736038,048-285-7150,048-285-7153,334-0003,川口市坂下町1-8-16,月・火・木・金9:00~18:30土9:00~13:00水・日・祝祭日休み,有,070-1240-1217,
日本調剤はとがや薬局,112038,埼玉県,川口市,35.825947,139.738647,048-287-0965,048-287-0967,334-0003,川口市坂下町4-14-6,月-金9:00-18:30 土9:00-13:00,無,,
薬局メディクス鳩ケ谷店,112038,埼玉県,川口市,35.834454,139.729843,048-288-5770,048-288-5771,334-0005,川口市大字里字深町1628,月8:45~18:30/火8:45~18:30/水8:45~18:30/木8:45~17:00/金8:45~18:30/土8:45~14:00,有,07066498630,
ドラッグセイムス川口八幡木薬局,112038,埼玉県,川口市,35.816883,139.748489,	048-	452-	4214,nan,334-0012,川口市八幡木2-5-16,日曜日・祝日休み月-土曜日 10時-14時 15時-19時,無,,
田辺薬局川口榛松店,112038,埼玉県,川口市,35.818611,139.770752,048-287-5720,048-287-5721,334-0062,川口市榛松1-1-5,月・火・木9:00~19:00水・金:00~18:00土9:00~13:00,有,070-6656-1918,
アイン薬局 川口榛松店,112038,埼玉県,川口市,35.823311,139.774811,048-287-9710,048-287-9714,334-0062,川口市榛松2-6-11,月8:45~18:00/火8:45~18:00/水8:45~18:00/木9:00~17:00/金8:45~18:00/土8:45~12:30,有,048-287-9710,
やまとどう薬局東本郷,112038,埼玉県,川口市,35.826462,139.761292,482804686,482804686,334-0063,川口市東本郷1430-3,月~金9:00~18:00 土 9:00~15:00 日曜祝日休業,無,07064276578,
かばさん薬局東本郷店,112038,埼玉県,川口市,35.82716,139.76593,048-452-8848,048-452-8848,334-0063,川口市東本郷906-1,月火・木・金9:00~13:00、15:00~19:00土9:00~17:00水・日・祝祭日休み,無,,
田辺薬局川口新郷店,112038,埼玉県,川口市,35.817787,139.756714,048-287-5610,048-287-5611,334-0075,川口市江戸袋1-14-8,月~金9:00~19:00土9:00~13:00水・日・祝休み,有,090-1407-6313,
フタバ薬局 わらび店,112232,埼玉県,蕨市,35.827427,139.676788,048-291-8590,048-291-8591,335-0001,蕨市北町3-4-28,月・火・木・金 9:00~18:00土 9:00~12:00,無,,
サエラ薬局わらび店,112232,埼玉県,蕨市,35.826698,139.693146,048-290-8140,048-290-8141,335-0002,蕨市塚越1-6-14第一商事ビル103号室,月~木9:00~19:00/金9:00~18:00土9:00~13:00,有,048-290-8140,
ぽらりす薬局,112232,埼玉県,蕨市,35.81496,139.688416,048-229-4906,048-229-4916,335-0003,蕨市南町4-12-39,月~水9:00~19:00木・土9:00~13:00,無,,
日本調剤わらび薬局,112232,埼玉県,蕨市,35.82682,139.690659,484348261,484348262,335-0004,蕨市中央1-7-1シティ-タワ-蕨103,月-金9:00-19:00土9:00-18:00  日9:00-13:00,有,08020103305,
セントラル薬局 蕨,112232,埼玉県,蕨市,35.823948,139.689774,048-299-5157,048-299-5158,335-0004,蕨市中央2-3-10,月9:00~18:00/火9:00~18:00/水9:00~18:00/木9:00~18:00/金9:00~18:00/土9:00~18:00,有,048-299-5157,
セイムス蕨中央薬局,112232,埼玉県,蕨市,35.824303,139.69136,	048-	446-	3571,nan,335-0004,蕨市中央1-17-36,平日:9:00-18:45土日祝日:9:00-17:30,有,	048-	446-	3571,
パル薬局蕨店,,,,35.827698,139.686676,048-432-6676,048-432-6676,335-0004 , 蕨市中央3-15-24,月・火・木・金9:00~18:30水9:00~17:00土・日9:00~13:00,無,,郵便番号
プラザ薬局 ビバモ-ル蕨店,112232,埼玉県,蕨市,35.822811,139.677795,048-229-4585,048-229-4595,335-0005,蕨市錦町1丁目12-1 ビバモ-ル蕨錦町メディカルゾ-ン,月~金 9:00~18:30土 9:00~18:00日 10:00~14:00祝・第2日休み,有,080-4008-6794,
富士薬局戸田店,112240,埼玉県,戸田市,35.814915,139.683563,484411216,484330971,335-0011,戸田市下戸田2-16-2,月-金9:00-18:00 土9:00-17:00,無,09069500079,
戸田公園薬局,112240,埼玉県,戸田市,35.812862,139.68454,048-434-8180,048-434-8181,335-0011,戸田市下戸田 1-18-2パティオ戸田公園ビル,月-金 8:45-18:00 土   8:45-17:00 日 祝日 休み,有,048-434-8180,
コア・ファマシ-株式会社 冨士薬局 戸田店,112240,埼玉県,戸田市,35.814915,139.683563,048-441-1216,048-433-0971,335-0011,戸田市下戸田2-16-2 ,月~金 9:00~18:00  土 9:00~17:00,有,090-6950-0079,
富士薬局喜沢店,112240,埼玉県,戸田市,35.814114,139.694717,048-434-6500,048-434-6571,335-0013,戸田市喜沢1-28-39 ,月~金9:00~18:00、土9:00-16:00,有,080-5347-2662,
コスモ調剤薬局,112240,埼玉県,戸田市,35.814602,139.694931,048-432-1881,048-432-1887,335-0013,戸田市喜沢1-16-16,月~水、金9:00~19:00木9:00~17:00土8:30~12:30,有,090-3006-8607,
ハロ-薬局喜沢南店,112240,埼玉県,戸田市,35.80648,139.69072,048-229-3686,048-229-7799,335-0014,戸田市喜沢南2-7-1,月10:00-18:00 火-土9:00-18:00,有,090-6720-0086,
ハロ-薬局戸田,112240,埼玉県,戸田市,35.805439,139.683807,048-432-0877,048-432-0877,335-0015,戸田市川岸2-5-19,月・火・金8:30~19:00水8:30~18:00木8:30~20:00土8:30~13:00日祝・年末年始休み,有,090-1668-8611,
調剤薬局日本メディカルシステム北戸田店,112240,埼玉県,戸田市,35.828239,139.661819,0482425706,0482425707,335-0021,戸田市新曽1991リノリ-ゾ103,月9:00~19:00/火9:00~19:00/水9:00~19:00/木9:00~19:00/金9:00~19:00/土9:00~19:00/日9:00~19:00,無,,
みやこ薬局戸田店,112240,埼玉県,戸田市,35.819736,139.663544,484302211,484302215,335-0021,戸田市新曽1705,月~金 9:00~18:00 土   9:00~13:00 水、日、祝日 定休,有,08045816498,
ひのき薬局戸田店,112240,埼玉県,戸田市,35.816502,139.673904,048-447-8840,048-447-8844,335-0021,戸田市新曽523,月~水・金9:00~12:30、15:00~18:30,無,,
ドラッグセイムス戸田新曽薬局,112240,埼玉県,戸田市,35.820206,139.66571,	048-	434-	3020,nan,335-0021,戸田市大字新曽字芦原2235,月曜日-金曜日 9:00-20:00 / 土曜日 9:00-19:00日祝 定休日,無,,
コア・ファ-マシ-(株) 富士薬局戸田駅前店,112240,埼玉県,戸田市,35.81588,139.669434,048-434-8015,048-434-8014,335-0021,戸田市新曽330-1 グランド静扇102,月・火・水・金8:45~19:15 木8:45~16:45 土8:45~13:00,有,090-4218-6519,
本町薬局,112240,埼玉県,戸田市,35.811077,139.681046,048-432-6484,048-432-6383(処方せん受付),335-0023,戸田市本町1-13-18,月~金9:00~19:00土9:00~18:00,有,080-3481-6640,
第一薬局,112240,埼玉県,戸田市,35.811203,139.679535,048-445-1526,048-444-7555,335-0023,戸田市本町1-22-3-101,月~金9:00~1900土9:00~18:00日・祝9:00~17:00,有,080-6523-2993,
なの花薬局戸田公園店,112240,埼玉県,戸田市,35.807262,139.676941,048-430-1511,048-430-1512,335-0023,戸田市本町4-17-9,月・火9:00~19:00水・木・金9:00~17:00土9:00~13:00,有,048-430-1511,
スマイル薬局,112240,埼玉県,戸田市,35.807495,139.673813,048-420-9862,048-420-9862,335-0023,戸田市本町3-5-4,月・火・木・金9:00~18:30水9:00~17:00土9:00~13:15,有,070-4217-3574,
アイファ薬局戸田公園店,112240,埼玉県,戸田市,35.806801,139.677521,043-432-7221,043-432-7231,335-0023,戸田市本町5-13-19,月・火・木・金9:00~19:00水9:00~17:00土9:00~14:00日・祝日休み年末年始・お盆休みあり,有,090-8851-5393,
サエラ薬局戸田公園店,,,,35.808014,139.677292,048-420-9135,048-420-9136,335-0023 , 戸田市本町4-16-17 テ-ワイビル1階,月~金9:00~20:00土9:00~13:00日・祝休み年末年始休みあり,有,048-420-9135,郵便番号
あおば薬局戸田公園,112240,埼玉県,戸田市,35.808018,139.666656,048-434-2215,048-434-2216,335-0026,戸田市新曽南2-4-8,月・火・木・金9:00~18:00 土9:00~13:00,無,,
徳永薬局笹目店,112240,埼玉県,戸田市,35.818489,139.653671,048-422-6622,0484226623,335-0034,戸田市笹目1-33-6,月~土 9時から18時  日・祝日 休み,有,0484226622,
ドラッグセイムス戸田笹目薬局,112240,埼玉県,戸田市,35.816391,139.650436,	048-	485-	9738,nan,335-0034,戸田市笹目3-15-1,月-土 10:00-14:00 15:00-19:00,無,,
クオ-ル薬局あすなろ店,112240,埼玉県,戸田市,35.906506,139.488815,049-225-8686,049-225-8688,335-0034,川越市仙波町2-9-3,月~金9:00~18:00土9:00~14:00日・祝休み,有,049-225-8689,
ライオン薬局,111082,埼玉県,さいたま市南区,35.847851,139.68869,	048-	884-	6730,nan,336-0015,さいたま市南区太田窪2924-5,月・火・水・金 9時-18時木 9時-17時土 9時-13時,有,,
染川薬局太田窪店,111082,埼玉県,さいたま市南区,35.862099,139.67244,048-789-6593,048-780-6594,336-0015,さいたま市南区太田窪2-17-6,月~水・金9:00~19:00木9:00~17:00土9:00~13:00,有,090-7239-4140,
サン&グリ-ン薬局だいたくぼ,111082,埼玉県,さいたま市南区,35.852837,139.682404,048-826-5890,048-811-1230,336-0015,さいたま市南区太田窪1980-4,月~金9:00~18:00土 9:00~17:00日・祝日休み,有,080-8438-2930,
ハロ-薬局南浦和駅前店,111082,埼玉県,さいたま市南区,35.846985,139.670593,048-813-8686,048-813-8686,336-0017,さいたま市南区南浦和2-38-7 富士見ビル2-2号室,月・火・水・金9:00~19:30木・土9:00~17:00,有,080-9979-8600,
ハロ-薬局南浦和3号店,111082,埼玉県,さいたま市南区,35.847931,139.671494,048-813-8677,048-813-8677,336-0017,さいたま市南区南浦和2-40-13パ-クパレス103,月・火・木・金:9:30~19:30 水:9:30~18:00 土:9:30~18:30,有,090-4430-0086,
ハロ-薬局,111082,埼玉県,さいたま市南区,35.847458,139.671524,048-881-1590,048-881-1590,336-0017,さいたま市南区南浦和2-44-9-1階,月~土9:00~20:00日・祝休み,有,090-8817-8602,
セイムス南浦和2丁目薬局,111082,埼玉県,さいたま市南区,35.851597,139.674332,	048-	813-	0055,	048-	813-	0066,336-0017,さいたま市南区南浦和2-12-18松永ビル1階,月・火・水・金曜日 9:00-18:30土曜日 9:00-17:00木・日曜日・祝日 休み,無,,
ウエサカ薬局南浦和店,111082,埼玉県,さいたま市南区,35.846668,139.673386,048-813-3633,048-813-3634,336-0017,さいたま市南区南浦和3-3-9,月~水・金9:00~18:00木・土9:00~17:00,有,090-6542-3633,
アイン薬局南浦和店,111082,埼玉県,さいたま市南区,35.847034,139.672592,488834455,488834466,336-0017,さいたま市南区南浦和3-4-14,月火水金9:00-18:30  木8:30-16:30  土9:00-17:00,有,488834455,
一ツ木薬局,111082,埼玉県,さいたま市南区,35.848564,139.666183,048-825-7333,0488257343,336-0018,さいたま市南区南本町2-21-4,月、火、木、金 8:30-18:30、 水 9:00-17:00、土 8:30-16:30,有,09016618608,
かばさん薬局南浦和店,111082,埼玉県,さいたま市南区,35.847492,139.668503,048-711-7244,048-711-7245,336-0018,さいたま市南区南本町2-1-2-311,月~金9:30~13:00、14:00~18:00土9:00~15:00日・祝日休み,無,,
サン&グリ-ン薬局さいたま南,111082,埼玉県,さいたま市南区,35.848179,139.643204,048-866-7968,048-866-7969,336-0021,さいたま市南区別所6-18-7,月~金9:00~18:00土9:00~17:00,有,080-8438-2930,
かりす薬局,111082,埼玉県,さいたま市南区,35.847588,139.64859,048-844-8222,048-844-8222,336-0021,さいたま市南区別所7-2-1-206,月~金9:00~19:00  土9:00~17:00 ,有,070-6646-0072,
南浦和薬局,111082,埼玉県,さいたま市南区,35.84087,139.663437,048-836-2922,048-836-2933,336-0024,さいたま市南区根岸3-3-11,月8:30~18:30/火8:30~18:30/水8:30~18:30/金8:30~18:30/土8:30~15:00,無,,
創健薬局南浦和店,111082,埼玉県,さいたま市南区,35.84304,139.666016,048-865-3988,048-837-9988,336-0024,さいたま市南区根岸1-4-8,月~水・金9:00~18:00 土9:00~12:00,有,048-865-3988,
わかば薬局,111082,埼玉県,さいたま市南区,35.842125,139.657501,048-862-0121,048-862-0120,336-0024,さいたま市南区根岸5-18-3-104,9:00-18:00,有,04-8862-0121(転送),
マエノ薬局,111082,埼玉県,さいたま市南区,35.844742,139.655914,048-836-3103,048-866-2100,336-0024,さいたま市南区根岸5-13-14,月~土 9:00~18:00,有,090-6796-2016,
アリス調剤薬局,111082,埼玉県,さいたま市南区,35.844955,139.66951,048-710-7336,048-710-6331,336-0025,さいたま市南区文蔵2-1-2信太ビル103,月9:00~18:00/火9:00~18:30/水9:00~18:00/木9:00~18:30/金9:00~18:00/土9:00~15:30,有,090-3473-7878,
青葉薬局 六辻店,111082,埼玉県,さいたま市南区,35.838356,139.658936,487896641,487896642,336-0026,さいたま市南区辻3-12-3A103,月-金は8:45-18:30 土8:45-12:30,有,487896641,
青葉薬局,111082,埼玉県,さいたま市南区,35.836426,139.658554,488660023,488661123,336-0026,さいたま市南区辻4-7-3,月-金9:00-18:30 土9:00-16:30,有,09060416751,
ドラッグセイムス浦和辻薬局,111082,埼玉県,さいたま市南区,35.835808,139.658463,048-767-5417,048-767-5418,336-0026,さいたま市南区辻5-2-10,月~土:10:00~19:00,無,,
レ-ブル薬局,111082,埼玉県,さいたま市南区,35.842194,139.643951,487626493,487626494,336-0027,さいたま市南区沼影1-22-7,"月火木金9-13:30,15-18:30 水9-17 土9-14",有,04-8762-6493/090-7173-5159,
アイン薬局武蔵浦和店,111082,埼玉県,さいたま市南区,35.842346,139.643814,488451188,488442388,336-0027,さいたま市南区沼影1丁目45566ラムザタワ-1F,月-金9時-19時 土9時-13時,有,488451188,
ひばり薬局四谷店,111082,埼玉県,さいたま市南区,35.843842,139.635544,487105283,487105284,336-0032,さいたま市南区四谷2-1-5,月-水金9:00-18:00木9:00-17:00土9:00-14:00,有,487105283,
ゆず薬局,111082,埼玉県,さいたま市南区,35.851807,139.636353,048-838-2233,048-838-2234,336-0038,さいたま市南区関1-8-3,月8:30~13:00火・木・金8:30~19:30土8:30~17:00日・祝日休み,有,090-1453-7107,
りんご薬局,111082,埼玉県,さいたま市南区,35.8592,139.688446,048-749-1005,048-749-1006,336-0042,さいたま市南区大谷口2494-1,月~金:9:00~18、土:9:00~12:30、日:9~12:00,有,08084708910,
阪神調剤薬局 浦和店,111090,埼玉県,さいたま市緑区,35.889381,139.679626,048-810-5730,048-810-5731,336-0911,さいたま市緑区三室2466-2,月9:00~18:00/火9:00~18:00/水9:00~18:00/木9:00~18:00/金9:00~18:00/備考:土曜、日曜、祝日は輪番制で9:00~18:00開局している日もあります,有,080-6126-9308,
アイン薬局浦和店,111090,埼玉県,さいたま市緑区,35.884796,139.676117,488105685,488105686,336-0911,さいたま市緑区三室北宿2467-19,月~金 9時~18時,有,488105685,
パル薬局芝原店,111090,埼玉県,さいたま市緑区,35.880909,139.690994,048-755-9595,048-755-9595,336-0917,さいたま市緑区芝原2-2-6,月火木金9:00-18:30 水9:00-17:00 土9:00-13:00,有,08059659556,
サン&グリ-ン薬局,111090,埼玉県,さいたま市緑区,35.883976,139.688156,048-875-6360,048-875-0229,336-0918,さいたま市緑区松木3-16-11,月-金9:00-18:00 土9:00-17:00,有,080-8438-2930,
ハロ-薬局東浦和店,111090,埼玉県,さいたま市緑区,35.865604,139.702805,048-875-6980,048-875-6980,336-0926,さいたま市緑区東浦和4-5-7グランステ-ジ東浦和1F店舗,月~水、金9~19時。 木9~17時 土9~13時,無,048-875-6980,
パル薬局東浦和店,111090,埼玉県,さいたま市緑区,35.862301,139.703705,048-874-3611,0488743611,336-0926,さいたま市緑区東浦和1-21-11,月・火・木・金9:00-18:30 土9:00-13:00,有,08059659554,
ドラッグセイムス東浦和薬局,111090,埼玉県,さいたま市緑区,35.86377,139.702545,	048-	810-	5366,	048-	810-	5367,336-0926,さいたま市緑区東浦和1-4-16,月曜日-土曜日10時-14時、15時-20時,有,,
つくだ薬局,111090,埼玉県,さいたま市緑区,35.871647,139.693573,487539952,487539957,336-0926,さいたま市緑区東浦和9-17-14,月~金9:00-18:30 土9:00-13:00,有,09078135598,
クオ-ル薬局東浦和店,111090,埼玉県,さいたま市緑区,35.870674,139.700821,048-873-0311,048-810-4611,336-0926,さいたま市緑区東浦和7-6-21,月~金9:00~18:30土 9:00~13:00,有,080-8754-5572,
オレンジ薬局,111090,埼玉県,さいたま市緑区,35.869373,139.701004,048-875-2215,048-875-2215,336-0926,さいたま市緑区東浦和4-27-10,9:00~18:30土9:00~12:00,有,048-875-2215,
ウェルパ-ク薬局東浦和駅前店,111090,埼玉県,さいたま市緑区,35.865166,139.704987,048-762-6896,048-762-6897,336-0926,さいたま市緑区東浦和5-10-2,月・水・木・金9:00~20:00火・土9:00~18:00日9:00~13:00,有,070-3339-8840,
雄飛堂薬局,111090,埼玉県,さいたま市緑区,35.870548,139.672256,488137703,488137708,336-0931,さいたま市緑区原山4-1-1,月~金 9:00~18:00 土 9:00~15:00,有,503535969,
レモン薬局,111090,埼玉県,さいたま市緑区,35.869205,139.676193,488165532,488165534,336-0931,さいたま市緑区原山4町目33-25,月-金9:00-18:30 土9:00-13:00,有,488165532,
やわらぎ薬局,111090,埼玉県,さいたま市緑区,35.871986,139.682556,487626081,487626082,336-0932,さいたま市緑区中尾970-1,月火水金 9:00~18:00 木    8:30~16:30 土    8:30~12:30,無,487626081,
太田窪アポス調剤薬局,111090,埼玉県,さいたま市緑区,35.863762,139.673004,048-881-9301,048-885-4793,336-0936,さいたま市緑区太田窪3-2-13,月~金:9:00~18:00 土:9:00~13:00,有,090-6017-9301,
結木薬局,111090,埼玉県,さいたま市緑区,35.899315,139.726746,487675050,487675056,336-0967,さいたま市緑区美園3丁目10-13,月~土:9:00~18:00,有,487675050,
ハロ-薬局浦和美園店,111090,埼玉県,さいたま市緑区,35.896858,139.728607,048-762-8669,048-762-8669,336-0967,さいたま市緑区美園4-14-17,月9~19時 火9~19時 水9~19時 木9~19時 金9~19時 土9~13時 日9~13時,有,08035660086,
アイン薬局浦和美園店,111090,埼玉県,さいたま市緑区,35.896015,139.727982,488297893,488297895,336-0967,さいたま市緑区美園4-18-6,月~水、金9:00~18:30、木9:00~17:00、土9:00~13:00,有,488297893,
さくら薬局浦和代山店,111090,埼玉県,さいたま市緑区,35.902069,139.704163,488126716,488126719,336-0975,さいたま市緑区代山128-1,月~水 金9:00~18:30 木9:00~17:00 土9:00~15:00,有,488126716,
ウエルシア薬局東大宮パトリア店,111040,埼玉県,さいたま市見沼区,35.956856,139.659409,048-682-0649,048-682-0648,337-0002,さいたま市見沼区春野2-7 パトリア東大宮店内,月9:00~19:00/火9:00~19:00/水9:00~13:00  14:00~19:00/木9:00~19:00/金9:00~19:00/土9:00~13:00  14:00~19:00/備考:日曜・祝日閉局,無,,
みやこ薬局 春野店,111040,埼玉県,さいたま市見沼区,35.953812,139.66539,486854888,486855304,337-0003,さいたま市見沼区深作3-40-4,月~金9:00~19:00  土9:00~17:00,有,07013882334,
ウエルシア薬局株式会社,111040,埼玉県,さいたま市見沼区,35.945068,139.662018,048-682-6007,048-682-6008,337-0008,さいたま市見沼区春岡1-16-1,月9:00~24:00/火9:00~24:00/水9:00~19:00/木9:00~24:00/金9:00~24:00/土9:00~24:00/日9:00~19:00,有,048-682-6007,
有限会社高橋薬局,111040,埼玉県,さいたま市見沼区,35.927803,139.676437,486831510,486831510,337-0012,さいたま市見沼区       東宮下2020,月~金9:00~18:00  土 9:00~13:00,有,08051301725,
アイン薬局七里店,111040,埼玉県,さいたま市見沼区,35.927521,139.677582,486891193,486891194,337-0012,さいたま市見沼区東宮下272-5,月~金 9-18 土 9~13 日祝日 休,有,486891193,
アイン薬局七里2号店,111040,埼玉県,さいたま市見沼区,35.927521,139.677582,048-685-9393,048-685-5600,337-0012,さいたま市見沼区東宮下272-1,月~金9:00~18:00土9:00~13:00,有,048-685-9393,
アイン薬局さいたま蓮沼店,111040,埼玉県,さいたま市見沼区,35.92802,139.662857,486888101,486888102,337-0015,さいたま市見沼区蓮沼548-1,月~金9:00-19:00 土9:00-14:00 日祝日休,有,486888101,
フラワ-薬局,,,,35.933811,139.663467,048-682-5291,048-682-5290,337-0015 , さいたま市見沼区蓮沼1082-4,月~水・金9:00~13:30、15:30~19:00 木・土9:00~13:00 ,有,048-682-5291,郵便番号
鈴木薬局七里店,111040,埼玉県,さいたま市見沼区,35.937183,139.668716,048-795-8183,048-795-8183,337-0017,さいたま市見沼区風渡野1-8-1,月~水・金9:00~19:00 木9:00~17:00 土9:00~18:00,有,080-3545-3237,
アイン薬局みぬま薬局,111040,埼玉県,さいたま市見沼区,35.913185,139.648224,486869355,486869366,337-0041,さいたま市見沼区南中丸108みぬま薬局,月~土9:00~18:00,有,486869355,
ファ-マライズ薬局見沼店,111040,埼玉県,さいたま市見沼区,35.912155,139.656143,486803580,486803581,337-0042,さいたま市見沼区南中野560-1,月~金9:00~18:00 土9:00~13:00,無,486803580,
あすか薬局見沼店,111040,埼玉県,さいたま市見沼区,35.911594,139.652283,048-680-2300,048-680-2301,337-0043,さいたま市見沼区中川1081-1,月、水~土 9:00~18:00,無,0486802300,
鈴木薬局東大宮西口ロ-タリ-店,111040,埼玉県,さいたま市見沼区,35.949329,139.639999,048-778-9529,048-778-9530,337-0051,さいたま市見沼区東大宮4-18-9堀尾ビル1F,月~金10:00~19:00 土10:00~17:00,有,070-451-7694,
鈴木薬局東大宮東口店,111040,埼玉県,さいたま市見沼区,35.950607,139.643051,048-683-2727,048-683-2729,337-0051,さいたま市見沼区東大宮5-53-3,月・火・水・金9:00~12:30、15:00~18:30土9:00~13:30 日・祝:休み,有,070-3518-1436,
鈴木薬局ぺんぎん薬局 東大宮店,111040,埼玉県,さいたま市見沼区,35.948608,139.645172,048-795-6355,048-795-6356,337-0051,さいたま市見沼区東大宮5-34-74 ,月~土9:00~18:00 日9:00~12:00,有,070-4530-7262,
鈴木薬局 東大宮駅前店,111040,埼玉県,さいたま市見沼区,35.94968,139.640106,048-778-7105,048-778-7106,337-0051,さいたま市見沼区東大宮4-19-7,月~金)9:00~19:00 土)9:00~17:00 日)9:00~13:00,有,070-743-4141,
リズム薬局東大宮店,111040,埼玉県,さいたま市見沼区,35.938957,139.647675,486892312,486892313,337-0051,さいたま市見沼区東大宮7-76-3-105,月~金曜日(9:00-17:30) 土曜日(9:00-15:00),無,486892312,
ぺんぎん薬局東大宮店,111040,埼玉県,さいたま市見沼区,35.948608,139.645172,	048-	795-	6355,	048-	795-	6356,337-0051,さいたま市見沼区東大宮5-34-74,月-金 : 9:00-18:00土 : 9:00-17:00祝 : 9:00-12:15,有,	048-	795-	6355,
フレンド薬局東大宮店,111040,埼玉県,さいたま市見沼区,35.949986,139.633026,048-871-8023,048-871-8024,337-0051,さいたま市見沼区東大宮2-53-12,月~金9:00~18:00土9:00~13:00,有,080-8836-0903,
なの花薬局東大宮店,111040,埼玉県,さいたま市見沼区,35.948143,139.635071,048-667-3560,048-729-4602,337-0051,さいたま市見沼区東大宮2-35-7,月・火・水・金8:30~18:00木8:30~16:30土8:30~13:00日・祝休み,有,048-667-3560,
ドラッグセイムス東大宮西口薬局,111040,埼玉県,さいたま市見沼区,35.947903,139.635696,048-666-0905,048-669-2552,337-0051,さいたま市見沼区東大宮2-30-7,月~金:9:00~20:00、土:9:00~18:00 日:10:00-17:00,有,070-4912-7121,
たんぽぽ薬局,111040,埼玉県,さいたま市見沼区,35.951298,139.646469,048-680-5391,048-680-5392,337-0051,さいたま市見沼区東大宮6-15-8-A,月9:00~18:45/火9:00~18:45/水9:00~17:00/木9:00~18:45/金9:00~18:45/土9:00~12:45,有,080-1064-9452,
クレヨン薬局東大宮駅前店,111040,埼玉県,さいたま市見沼区,35.94915,139.641144,048-797-5066,048-797-5086,337-0051,さいたま市見沼区東大宮5-39-3 英和ビル1F-A,月・火・木・金9:00~19:30 水・土9:00~18:00,無,,
かえで薬局東大宮店,111040,埼玉県,さいたま市見沼区,35.948208,139.639603,048-793-6046,048-793-6046,337-0051,さいたま市見沼区東大宮4-2-2ロマ-ナ伍番館102,月・火・木・金 8:00~19:30 水 8:00~16:00 土 8:00~14:00  日曜・祝日は休み,有,05053592609,
アイン薬局東大宮店,111040,埼玉県,さいたま市見沼区,35.94875,139.641327,048-687-0201,048-687-0203,337-0051,さいたま市見沼区東大宮5-38-3,月・火・木・金9:00~19:30 水・土9:00~18:00,無,,
アイン薬局さいたま砂町店     ,111040,埼玉県,さいたま市見沼区,35.938774,139.645859,486821701,486821702,337-0051,さいたま市見沼区東大宮7-72-37,月火水金土曜日 9-19時 木曜日 9-17時 日曜 休み,有,486821701,
大和田鈴薬局,111040,埼玉県,さいたま市見沼区,35.92601,139.647171,488127151,488127152,337-0053,さいたま市見沼区大和田町1-937-1,月~火:9:00~18:15、水:9:00~17:00、木~金:9:00~18:15、土:9:00~13:00,有,08020706078,
鈴木薬局大和田店,,,,35.92886,139.647354,048-795-4355,048-795-4356,337-0053 , さいたま市見沼区大和田町2-1284-1,月~金9:00~19:00土9:00~18:00日9:00~13:00,有,070-4530-7263,郵便番号
創健薬局 北与野店,111058,埼玉県,さいたま市中央区,35.892616,139.626785,048-856-4848,048-856-2798,338-0001,さいたま市中央区上落合4-2-3 井山ビル2F,月~金9:00~18:30 土9:00~12:30,無,,
ひのき薬局,111058,埼玉県,さいたま市中央区,35.889271,139.62709,048-840-5420,048-840-5421,338-0001,さいたま市中央区上落合2-9-30,月~水・金・土9:00~19:00土9:00~17:00,無,048-840-5420,
のぞみ薬局大宮店,111058,埼玉県,さいたま市中央区,35.900093,139.623169,048-799-3245,048-799-3246,338-0001,さいたま市中央区上落合8-3-32,月~金9:00~18:00土9:00~13:00,有,048-799-3245,
サエラ薬局北与野店,111058,埼玉県,さいたま市中央区,35.891819,139.628586,487115241,487115242,338-0001,さいたま市中央区上落合1-11-15アスク新都心ビル1F,月~金9:00-18:30  土9:00-14:00 日祝休み,有,487115241,
コスモ薬局上落合,111058,埼玉県,さいたま市中央区,35.90004,139.624802,048-829-9213,048-829-9214,338-0001,さいたま市中央区上落合9-4-16,月火木金:9時~18時、水:9時~17時、土:9時~12時,有,048-829-9213,
南山堂薬局北与野店,111058,埼玉県,さいたま市中央区,35.888306,139.627975,048-858-6700,048-858-6767,338-0002,さいたま市中央区下落合4-20-14,9:00~19:00,有,080-3728-9612,
セイムス与野たつみ薬局み薬局,111058,埼玉県,さいたま市中央区,35.880997,139.628342,488588931,488988942,338-0002,さいたま市中央区下落合7-8-8,月、火、水、金9:00-19:00 木9:00-17:00 土9:00-13:00,無,488588931,
さと薬局下落合店,111058,埼玉県,さいたま市中央区,35.884155,139.633942,048-831-6677,0488316617,338-0002,さいたま市中央区下落合2-21-13,月~水、金、土9:00~18:30 木9:00~17:00,有,08075919514,
株式会社鈴山薬局,,,,35.88422,139.634735,048-816-4520,048-816-4530,338-0002 , さいたま市中央区下落合2-22-12 ,月・火・木・金9:00~18:30水・第2・4土9:00~13:00 ,有,048-816-4520,郵便番号
南山堂薬局本町店,111058,埼玉県,さいたま市中央区,35.880856,139.624649,048-857-1120,048-857-1131,338-0003,さいたま市中央区本町東2-6-25,月・火・水・金9:00~19:00木9:00~17:00土9:00~13:00,無,,
志宝薬局与野本町店,111058,埼玉県,さいたま市中央区,35.882938,139.624756,048-859-8077,048-859-8078,338-0003,さいたま市中央区本町東3-4-1,月・火・木・金9:00~18:00 土9:00~16:00,有,080-4181-1391,
たから薬局北与野店,111058,埼玉県,さいたま市中央区,35.890556,139.619232,048-857-0500,048-857-0501,338-0003,さいたま市中央区本町東6-1-3スズキビル1階,月9:00~18:30/火9:00~18:30/水9:00~18:30/木9:00~18:30/金9:00~18:30/土9:00~12:30,有,080-5975-3292,
みやこ薬局桜丘店,111058,埼玉県,さいたま市中央区,35.879765,139.613586,488596958,488596959,338-0006,さいたま市中央区八王子3-15-3,月火木金9~19 水9~17 土9~12:30,有,08035345055,
北浦和中央薬局,111058,埼玉県,さいたま市中央区,35.870586,139.637009,048-815-8055,048-815-8056,338-0011,さいたま市中央区新中里1-3-3 B号室,月8:30~19:00/火8:30~19:00/水8:30~19:00/木8:30~19:00/金8:30~19:00/土8:30~18:00/備考:祝日閉局,有,070-5554-4787,
スギ薬局新中里店,,,,35.876503,139.636536,080-796-2270,048-767-7809,338-0011 , さいたま市中央区新中里5-4-6,月~金10:00~14:00、15:00~19:00 ,無,,郵便番号
みんなの薬局,111058,埼玉県,さいたま市中央区,35.876041,139.623856,048-851-1370,048-851-1380,338-0013,さいたま市中央区鈴谷8-9-2,月~金9:00~19:00土9:00~13:00,無,,
ドラッグセイムス与野鈴谷薬局,111058,埼玉県,さいたま市中央区,35.870983,139.625931,048-859-6571,048-859-6572,338-0013,さいたま市中央区鈴谷4-5-15,月~土:10:00~20:00 日:10:00~19:00,有,048-859-6571,
オリ-ブ薬局,111058,埼玉県,さいたま市中央区,35.867764,139.631088,048-851-6326,0488516327,338-0013,さいたま市中央区鈴谷2-548-7,月~金曜 9:00~18:30 土曜 9:00~17:30,有,08035992908,
ファ-マライズ薬局さいたま店,111058,埼玉県,さいたま市中央区,35.873665,139.616257,488550567,488553252,338-0014,さいたま市中央区上峰1-22-8 ,月~土 9:00~18:00,有,488550567,
かばさん薬局栄和店,111066,埼玉県,さいたま市桜区,35.861118,139.617172,048-762-6167,048-762-6176,338-0823,さいたま市桜区栄和1-8-25,月・火・水・金9:00~18:00木10:00~18:00土8:30~13:00,無,,
トリム薬局さいたま店,111066,埼玉県,さいたま市桜区,35.873798,139.615814,488510081,488510082,338-0824,さいたま市桜区上大久保889-7,月-土 9:00-18:00 日・祝は閉局,有,488510081,
セイムスさいたま上大久保薬局,111066,埼玉県,さいたま市桜区,35.872871,139.614883,	048-	767-	4308,nan,338-0824,さいたま市桜区上大久保841-1,9時-18時,有,,
さくらそう薬局,,,,35.855877,139.609772,048-789-7415,048-789-7416,338-0831,さいたま市桜区元宿1-15-25,月・火・水・金8:30~18:00木8:30~16:30土8:30~12:30,有,048-789-7415,郵便番号
わたしの薬局,111066,埼玉県,さいたま市桜区,35.854324,139.636856,048-865-5588,048-865-5586,338-0832,さいたま市桜区西堀3-1-31,月・火・水・金9:00~19:00土9:00~15:00,無,,
そうごう薬局中浦和店,111066,埼玉県,さいたま市桜区,35.855461,139.627335,487119701,487119702,338-0832,さいたま市桜区西堀5-3-40,月~土:9:00~19:00,有,487119701,
鈴木薬局西浦和店,111066,埼玉県,さいたま市桜区,35.844284,139.628357,048-711-1551,048-711-1552,338-0837,さいたま市桜区田島5-22-26 サンシティ西浦和1階,月~金9:00~19:00 土9:00~17:00,有,080-4403-7287,
ドラッグセイムス西浦和薬局,111066,埼玉県,さいたま市桜区,35.844212,139.629425,048-839-7288,048-836-3539,338-0837,さいたま市桜区田島5-23-4,毎日:9:00-20:00,無,,
セントラル薬局 浦和店,111066,埼玉県,さいたま市桜区,35.844524,139.629471,487114068,487114069,338-0837,さいたま市桜区田島5-21-13 三光西浦和ビル2階,月から土曜日 9時から18時,有,048-711-4068,
セントラル薬局 浦和,111066,埼玉県,さいたま市桜区,35.844524,139.629471,048-711-4068,048-711-4069,338-0837,さいたま市桜区田島5-21-13 三光西浦和ビル2階,月9:00~18:00/火9:00~18:00/水9:00~18:00/木9:00~18:00/金9:00~18:00/土9:00~18:00,有,048-711-4068,
オリ-ブ薬局,111066,埼玉県,さいたま市桜区,35.844524,139.629471,048-767-4774,048-767-4773,338-0837,さいたま市桜区田島5-21-13 三光西浦和ビル1階,月9:00~18:00/火9:00~18:00/水9:00~18:00/木9:00~18:00/金9:00~18:00/土9:00~18:00,有,048-767-4774,
きらり薬局岩槻,111104,埼玉県,さいたま市岩槻区,35.948826,139.69458,048-797-8172,048-797-8174,339-0000,さいたま市岩槻区本町1-5-3 岩波榮一ビル2F,"月火水金9:30-18:30, 木9:00-17:00, 土9:00-13:00",有,070-2160-6518,
サン調剤薬局,111104,埼玉県,さいたま市岩槻区,35.964756,139.709183,487940111,487949341,339-0005,さいたま市岩槻区東岩槻2-2-11,月~金9:00~18:00 土9:00~13:30,有,080-2297-5961,
ふれあい薬局岩槻店,111104,埼玉県,さいたま市岩槻区,35.967648,139.706924,048-793-0200,048-793-0202,339-0007,さいたま市岩槻区諏訪3-2-2,月~水・金9:00~18:30木・土8:30~16:30日・祝祭日休み,有,048-793-0200,
わかば薬局浦和美園店,111104,埼玉県,さいたま市岩槻区,35.899693,139.733795,488849135,0488849136,339-0028,さいたま市岩槻区美園東1-7-15サンシャインプラザ1階,月火水金9:00~18:30 木9:00~17:00 土9:00~12:30,有,080-3599-2908,
ウエサカ薬局南平野深町店,111104,埼玉県,さいたま市岩槻区,35.959263,139.714157,	048-	795-	6290,	048-	795-	6484,339-0051,さいたま市岩槻区南平野1-20-8,月、火、木、金 9:00-18:00水 9:00-17:00土 9:00-13:00休:日、祝,有,	070-	2404-	6290,
ウエサカ薬局東岩槻店,111104,埼玉県,さいたま市岩槻区,35.955982,139.716415,048-797-9390,048-797-9580,339-0051,さいたま市岩槻区南平野3-7-17,月・火・木・金9:00~18:00土9:00~12:30,無,,
コスモ薬局岩槻,111104,埼玉県,さいたま市岩槻区,35.947151,139.701492,048-749-8282,048-749-8281,339-0054,さいたま市岩槻区仲町1-12-26,月・水9:00~18:30 火・金9:00~19:00 木9:00~17:00 土9:00~13:00,有,048-749-8282,
花・花薬局 岩槻区本町店,111104,埼玉県,さいたま市岩槻区,35.951466,139.699524,048-876-8917,048-876-8918,339-0057,さいたま市岩槻区本町6-1-5,月・水~金 9:00~18:30火・土 9:00~13:00日・祝休み,無,,
みやこ薬局 岩槻店,111104,埼玉県,さいたま市岩槻区,35.951378,139.695099,048-731-8527,048-731-8528,339-0057,さいたま市岩槻区本町3-4-17,月9:00~18:00/火9:00~18:00/水9:00~18:00/木9:00~18:00/金9:00~18:00/土9:00~18:00,無,,
ウエサカ薬局岩槻店,111104,埼玉県,さいたま市岩槻区,35.945885,139.693497,048-756-3378,048-756-8180,339-0057,さいたま市岩槻区本町1-16-7,9:00~18:00,有,080-5533-8578,
あさひ薬局岩槻駅前店,111104,埼玉県,さいたま市岩槻区,35.950104,139.693756,048-878-8796,048-878-8797,339-0057,さいたま市岩槻区本町3-2-5ワッツ東館2階,月-土8:30-17:30,有,048-878-8796,
ひまわり薬局,111104,埼玉県,さいたま市岩槻区,35.945751,139.695007,048-792-0713,048-792-0714,339-0057,さいたま市岩槻区本町2-2-12,月~土9:00~17:00日9:00~16:00第1日曜日:休,有,048-792-0713,
鈴木薬局 岩槻店,111104,埼玉県,さいたま市岩槻区,35.95113,139.691437,048-748-5106,048-748-5107,339-0067,さいたま市岩槻区西町1-3-5 オプトビル1階,月~土 9:00~18:00,有,070-4560-2171,
ドラッグセイムス岩槻薬局,111104,埼玉県,さいたま市岩槻区,35.954765,139.688553,	048-	758-	3396,	048-	758-	3397,339-0067,さいたま市岩槻区西町3-6-27,平日:9:00-19:00土曜:9:00-18:00日曜祝日:定休日,有,                           ,
鈴木薬局 東岩槻店,111104,埼玉県,さいたま市岩槻区,35.970249,139.698395,048-720-8121,048-720-8161,339-0073,さいたま市岩槻区上野1-17-3,月・火・木・金8:30~18:30水9:00~17:00 土8:30~14:00,無,080-3545-3236,
アイン薬局草加店,112216,埼玉県,草加市,35.866409,139.831696,489549193,489549263,340-0001,草加市柿木町1126-7,月~水・金9:00~18:30  木・土9:00~17:00 日9:00~12:30,有,489549193,
株式会社一正堂薬局,112216,埼玉県,草加市,35.855358,139.814209,048-936-3871,048-935-3324,340-0002,草加市青柳5-13-8,月~金09:00~18:30 土09:00~13:30,有,080-5543-2122,
一正堂薬局第二支店,112216,埼玉県,草加市,35.851963,139.826309,048-936-7715,048-936-3872,340-0002,草加市青柳6-24-28,月~金9:00~19:00土9:00~17:00,有,080-2016-0945,
雄飛堂薬局草加店,112216,埼玉県,草加市,35.855499,139.815063,048-999-5601,048-999-5602,340-0002,草加市青柳5-12-12,月~金9:00~18:30土9:00~15:00,有,090-7849-7785,
ウエルシア薬局草加稲荷町店,,,,35.829914,139.823288,048-930-1706,048-930-1705,340-0003 , 草加市 稲荷3-5-26,月~金9:00~24:00土9:00~19:00日・祝9:00~13:00、14:00~19:00,有,080-7257-2819,郵便番号
日本調剤松原団地薬局,112216,埼玉県,草加市,35.825371,139.805328,048-933-2270,048-933-2271,340-0011,草加市堺栄町3-4-5,月、火、木、金9:00-19:00 水9:00-18:00 土8:30-17:30 ,有,080-2004-0915,
のぞみ薬局,112216,埼玉県,草加市,35.831455,139.807449,489218686,489218687,340-0014,草加市住吉2-3-2-2,月・火・木・金 9:00-18:00 土 9:00-13:00,無,489218686,
まつのき薬局,112216,埼玉県,草加市,35.828159,139.807037,489549146,489549147,340-0015,草加市高砂2-20-29リブリ・ア-スビル1階,月・火・水・金:9:00~18:00 木・土:9:00~17:00,有,080-3589-9146,
かばさん薬局草加駅前店,112216,埼玉県,草加市,35.827496,139.803986,048-960-0015,048-960-0211,340-0015,草加市高砂2-6-14山口ビル1階,月~金9:00~19:00土9:00~17:00日・祝休み,無,,
かばさん薬局谷塚店,112216,埼玉県,草加市,35.814224,139.802292,048-920-5847,048-921-0062,340-0022,草加市瀬崎1-9-1 1F,月~金9:00~19:00土9:00~17:00日祝:休,無,,
わかば薬局谷塚店,112216,埼玉県,草加市,35.813126,139.797974,048-954-5106,048-954-5107,340-0023,草加市谷塚町527-7,月~金9:00~18:30土9:00~13:00,無,080-3599-2908,
雄飛堂薬局谷塚店,112216,埼玉県,草加市,35.814041,139.801315,048-934-5118,048-934-5119,340-0028,草加市谷塚1-1-23エキア谷塚,月~水・金9:00~18:30 土9:00~13:00,有,070-1189-7691,
サンリツ薬局谷塚店,112216,埼玉県,草加市,35.80957,139.798141,048-920-1787,.048-920-1785,340-0028,草加市谷塚2-13-1,月~金9:00~18:00 土9:00~17:00,有,090-8035-2363,
日本調剤草加薬局,112216,埼玉県,草加市,35.829926,139.802811,048-920-3317,048-920-3318,340-0032,草加市氷川町2149-4,月~金9:00~19:00土9:00~13:00,有,080-2004-5975,
薬局タカサ柳島店,112216,埼玉県,草加市,35.820625,139.785019,048-954-6341,048-954-6382,340-0033,草加市柳島町650-1,月火水金土9:00~18:00木日祝:休,有,048-954-6341,
有限会社ささき薬局,112216,埼玉県,草加市,35.828232,139.801727,489253781,489245396,340-0034,草加市氷川町2124-21オリビア1階,月-金9:00-19:00 土9:00-17:00,有,08037248697,
フラワ-薬局草加氷川町店,112216,埼玉県,草加市,35.829926,139.802811,489599631,489599632,340-0034,草加市氷川町2149-1小菅ビル 1F,月・火・水・金 9:00~19:00 木 9:00~18:30 土 9:00~16:00,無,07012176591,
セイムス氷川薬局,112216,埼玉県,草加市,35.824203,139.800659,048-922-7328,048-920-5085,340-0034,草加市氷川町171-5,月-火:9:00-18:30、水:10:00-18:00、木-土:9:00-18:30,無,,
くりの木薬局,112216,埼玉県,草加市,35.846073,139.790024,489440123,489448808,340-0041,草加市松原4-5-5,"月-水9:00-18:30, 木9:00-17:00, 金9:00-18:30, 土9:00-13:00",有,08012340322,
薬局マツモトキヨシ草加三丁目店,112216,埼玉県,草加市,35.836567,139.796707,048-944-7610,048-946-6733,340-0043,草加市草加3-5-34,月~金 9:00~18:00 土 9:00~14:00,無,,
調剤薬局ツルハドラッグ草加5丁目店,112216,埼玉県,草加市,35.837212,139.803375,048-946-2268,048-946-2268,340-0043,草加市草加5-1-9,月~金9:00~19:00土9:00~17:30,無,,
マミ-薬局,112216,埼玉県,草加市,35.833759,139.801224,048-943-2827,048-943-2828,340-0043,草加市草加1-4-2,月・火・木・金 9:00~19:00水 9:00~17:00土 9:00~17:30,有,070-3820-0916,
アイン薬局草加センタ-店,112216,埼玉県,草加市,35.836449,139.796753,489449900,489449910,340-0043,草加市草加3-5-35,月曜-金曜9:00-18:00 土曜9:00-13:00,有,489449900,
ウエルシア薬局草加花栗店,112216,埼玉県,草加市,35.836121,139.792084,489460213,489460214,340-0044,草加市花栗4-9-5,月-土 9:00-14:00                   15:00-19:00,有,489460213,
薬局アポック草加新田店,112216,埼玉県,草加市,35.853531,139.796692,048-930-1177,048-930-1178,340-0052,草加市金明町357-25,月~金9:00~13:00土・日・祝休み,有,070-1006-2092,
ドレミ薬局,112216,埼玉県,草加市,35.855606,139.795242,048-931-5534,048-931-7879,340-0052,草加市金明町188-5-103 ライフピア金明,月~金7:30~20:00土7:30~19:00日7:30~12:00祝日休み,有,090-6484-7401,
コイケ薬局,112216,埼玉県,草加市,35.850811,139.794937,048-943-4022,048-943-4039,340-0053,草加市旭町6-2-1,月~金9:00~18:00土9:00~13:00,有,070-1318-5151,
かばさん薬局,112216,埼玉県,草加市,35.852562,139.780014,048-942-3053,048-949-6014,340-0055,草加市清門3-25-2,月・火・水・金9:00~19:00木9:00~18:00土9:00~17:00,無,,
コイケ薬局プラスワン,112216,埼玉県,草加市,35.854046,139.774826,048-944-3838,048-944-3839,340-0056,草加市新栄1-48-10,月・火・水・金9:00~18:30木9:00~17:00土9:00~13:00,有,080-3756-1350,
ブレ-メン薬局 幸手店,112402,埼玉県,幸手市,36.081623,139.724945,480406505,480406506,340-0113,幸手市幸手2800-1,月-水・金 9:00~18:00 木・土 9:00~13:00,有,09080351261,
さくらんぼ薬局,112402,埼玉県,幸手市,36.062969,139.721359,480406030,480406031,340-0113,幸手市幸手5262-4,月・火・木・金9:00~12:45 14:00~18:15 水9:00~17:00 土9:00~12:30 14:00~16:30 日9:00~11:00 14:30~16:15,有,480406030,
クオ-ル薬局幸手中央店,112402,埼玉県,幸手市,36.076317,139.730042,0480-40-5343,0480-40-5340,340-0113,幸手市幸手2060-5,月・火・水・金8:30~18:30木9:00~17:00土8:30~13:00,有,080-6616-6410,
関薬局,112402,埼玉県,幸手市,36.074463,139.722855,0480-43-8865,0480-43-6510,340-0114,幸手市東3-1-1,月-金 9:00-18:30 土 9:00-15:00,有,070-5268-9781,
ウエルシア薬局幸手東店,112402,埼玉県,幸手市,36.076912,139.724609,0480-40-3674,0480-40-3675,340-0114,幸手市東4丁目8-2,月9:00~14:00   15:00~19:00/火9:00~14:00   15:00~19:00/水9:00~14:00   15:00~19:00/木9:00~14:00   15:00~19:00/金9:00~14:00   15:00~19:00/土9:00~14:00   15:00~19:00,無,,
クオ-ル薬局幸手南店,112402,埼玉県,幸手市,36.070053,139.714172,0480-40-3133,0480-40-3144,340-0156,幸手市南2-2-16,月~土9:00~17:15,有,080-8754-5586,
クオ-ル薬局幸手西口店,112402,埼玉県,幸手市,36.074165,139.711502,0480-40-3180,0480-40-3181,340-0156,幸手市南3-16-15,月・火・木・金9:00~18:15土・日9:00~13:00水9:00~17:00,有,080-8754-5588,
エムハ-ト薬局 幸手南店,112402,埼玉県,幸手市,36.068481,139.710419,0480-40-1133,0480-40-1144,340-0156,幸手市南2-6-11,月~水・金 8:30~17:45 木・土 8:30~12:00,無,0480-40-1133,
エンド-薬局東鷲宮店,112321,埼玉県,久喜市,36.088737,139.681198,480583838,480593711,340-0203,久喜市桜田3-1-9,月-金9時-18時30分、土9時-18時,無,08025538331,
アイン薬局東鷲宮店,112321,埼玉県,久喜市,36.096066,139.683044,480319874,480319875,340-0203,久喜市桜田2-6-6,月曜-土曜9:00-18:00,有,480319874,
ハロ-薬局久喜店,112321,埼玉県,久喜市,36.094135,139.672531,0480-31-8762,0480-31-8762,340-0206,久喜市西大輪1924-5,【月・火・水・金】9:00~18:00 /【木】8:00~16:00 /【土】9:00~12:00,有,0480-31-8762,
第一薬局,112348,埼玉県,八潮市,35.845654,139.834076,489973769,489549047,340-0801,八潮市八條1567八潮団地22号棟,月火木金9:00~18:00 水9:00~17:00 土9:00~13:00 日祝休み,有,08067163056,
日本調剤八潮薬局,112348,埼玉県,八潮市,35.825676,139.829559,048-999-8600,048-999-8760,340-0808,八潮市緑町3-23-2,月-金9:00-19:00  土9:00-14:00,無,,
グリ-ン薬局,112348,埼玉県,八潮市,35.813675,139.851959,048-999-4811,048-999-4812,340-0814,八潮市南川崎835-3,月-金 : 9:00-18:00土 : 9:00-15:00日祝 : 休み,有,080-8863-0173,
そうごう薬局八潮2号店,112348,埼玉県,八潮市,35.819481,139.827026,489982377,489982376,340-0816,八潮市中央4-11-44,月・火・金9:00~18:00 水・木9:00~17:00 土9:00~12:30,有,489982377,
アイン薬局八潮店,112348,埼玉県,八潮市,35.820816,139.83815,048-999-7716,048-999-7763,340-0816,八潮市中央1-8-4,月・火・水・金9:00~19:00木9:00~17:00土9:00~15:00日休み,無,,
南山堂薬局八潮駅前店,112348,埼玉県,八潮市,35.808826,139.842911,048-999-1280,048-999-1281,340-0822,八潮市大瀬1-7-1 八潮メディカルセンタ-1F,月・火・木・金8:30~20:00水9:00~17:00土・日9:00~18:00祝日休み,無,,
薬局くすりの福太郎八潮駅前店,112348,埼玉県,八潮市,35.80061,139.853165,048-951-0929,048-951-0929,340-0822,八潮市大瀬6-1-3,月~金9:15~14:00、15:00~19:00    土9:15~14:00、15:00~19:00,無,,
パルト薬局,112348,埼玉県,八潮市,35.80061,139.853165,489987980,489987838,340-0822,八潮市大瀬6-5-1 TXアベニュ-八潮,月・火・木・金9:00~19:00 水・土9:0013:00,無,,
有限会社やしお薬局,112348,埼玉県,八潮市,35.826527,139.819717,489991193,489991188,340-0831,八潮市南後谷754-12,月、火、木、金 9:00-19:00 水 9:00-17:00 土 9:00-15:00,有,489991193,
株式会社遠藤薬局みさと団地店,112372,埼玉県,三郷市,35.851128,139.856079,489576068,489578223,341-0003,三郷市彦成3-7-13-106,月火木金9:15-18:00 水9:15-19:00 土9:15-16:00,有,489576068,
遠藤薬局みさと彦成店,112372,埼玉県,三郷市,35.85244,139.851913,489539877,489539876,341-0003,三郷市彦成2-377-1,月-金9:00-18:00、土9:00-16:00,無,489539877,
まごころ薬局,112372,埼玉県,三郷市,35.851357,139.858902,489507788,489507787,341-0004,三郷市上彦名467,月~金8:30~18:00土8:30~12:30,無,489507788,
みさき薬局,112372,埼玉県,三郷市,35.860771,139.861038,048-950-7650,048-950-7651,341-0011,三郷市采女1-155-3,月・火・木・金9:30~18:30水9:00~17:00土9:00~14:30,有,048-950-7650,
プラザ薬局新三郷,112372,埼玉県,三郷市,35.857941,139.865616,048-959-3501,048-959-3502,341-0012,三郷市半田1259-1,月・火・水・金8:30~17:30土8:30~17:00日8:30~13:00,有,048-959-3501,
三郷しいの木薬局,112372,埼玉県,三郷市,35.863628,139.89476,048-950-6670,048-950-6680,341-0016,三郷市田中新田146-23,月~金9:00~5:30 土9:00~3:00,有,048-957-6630,
丹後薬局,112372,埼玉県,三郷市,35.853043,139.889587,489503222,489503221,341-0018,三郷市早稲田3-28-22,月-金 9:00-17:30 土 9:00-12:30,無,489503222,
セガミ薬局三郷店,112372,埼玉県,三郷市,35.849693,139.883987,048-957-1507,048-957-1508,341-0018,三郷市早稲田2-19-2  栄光ビル1F,月・火・水・金 9:00~19:00木 9:00~18:00土 9:00~13:00,有,070-3140-7127,
そうごう薬局 新三郷店,112372,埼玉県,三郷市,35.851109,139.871521,048-959-8171,048-959-8172,341-0023,三郷市仁蔵523-3,月~金 9:00-18-30 土   9:00-13:00  定休日:日曜日 祝日,有,048-959-8171,
遠藤薬局みさと駅前店,112372,埼玉県,三郷市,35.844677,139.885025,048-953-7760,048-953-3501,341-0024,三郷市三郷2-1-5,月~金9:00~19:00土9:00~16:00,有,080-2595-9295,
ファ-マライズ薬局三郷店,112372,埼玉県,三郷市,35.845531,139.864609,489491171,489491172,341-0028,三郷市南蓮沼312-1,月-木9:00-18:00  土9:00-13:00,有,489491171,
ひかり薬局,112372,埼玉県,三郷市,35.800415,139.879654,489553110,489554111,341-0035,三郷市鷹野4-516-1,月~金9:00~18:00 土9:00~13:00,有,489553110,
たかの薬局,112372,埼玉県,三郷市,35.799355,139.879578,048-956-5781,048-956-5783,341-0035,三郷市鷹野4-491-2,月~金 9:00~18:00 土 9:00~14:00,有,090-4609-2855,
かりん薬局,112372,埼玉県,三郷市,35.799355,139.879578,048-948-2106,048-948-2107,341-0035,三郷市鷹野4-501-2,月~金9:00~17:30、土9:00~13:30,有,090-4912-3738,
かまくら薬局,112372,埼玉県,三郷市,35.800415,139.879654,0489481751,0489481752,341-0035,三郷市鷹野4-514-2,月~金9:00~17:15、日9:00~12:45,有,09049123024,
アイセイ薬局三郷高州店,112372,埼玉県,三郷市,35.789291,139.883087,048-948-3310,048-956-4588,341-0037,三郷市高州1-181-2,月、火、水、金9:00-19:00   木9:00-18:00  土9:00-13:30,有,048-948-3310,
におどり薬局,112372,埼玉県,三郷市,35.822933,139.876038,048-954-9014,048-954-9015,341-0038,三郷市中央みさと中央医療福祉ビル1階,月~土9:00~17:15,有,070-5542-3526,
アイセイ薬局三郷中央店,112372,埼玉県,三郷市,35.822933,139.876038,048-949-1011,048-949-1013,341-0038,三郷市中央1-2-1-105,月~金:9:00~18:30土:9:00~14:00,有,048-949-1011,
メディスンショップはまなす薬局,,,,35.823788,139.879013,048-967-5383,048-967-5384,341-0038 , 三郷市中央2-3-1,月~金9:00~18:30土9:00~14:00,有,080-1210-6498,郵便番号
かもめ薬局三郷店,112372,埼玉県,三郷市,35.828129,139.870773,048-954-8202,048-954-8203,341-0042,三郷市谷口567-1,月・火・木9:00~19:00水・金・土9:00~18:00第4日曜10:00~14:0(祝祭日を除く),有,048-954-8202,
アルファ薬局三郷店,112372,埼玉県,三郷市,35.802528,139.860901,489560610,489566552,341-0044,三郷市戸ケ崎2-286-1,月曜-金曜9時-19時 土曜9時-17時,有,09031567561,
サンリツ薬局吉川店,112437,埼玉県,吉川市,35.902992,139.865845,	048-	984-	6400,nan,342-0017,吉川市上笹塚3-231-2,月曜-金曜 9:00-18:00   土曜 9:00-17:00,有,	070-	7403-	2766,
そうごう薬局 吉川けやき通り店,112437,埼玉県,吉川市,35.865887,139.845352,489824861,489824862,342-0033,吉川市中曽根2-6-6,月・火・金 8:30-18:30 水 8:30-17:30 木 9:00-17:00 土 8:30-12:30,有,08027809614,
吉川みなみ薬局,112437,埼玉県,吉川市,35.86758,139.84967,048-940-7152,048-940-7153,342-0038,吉川市美南5-6-4,月・火・水・金9:00~18:15 木9:00~17:00土9:00~14:30日・祝祭日休み,無,,
イオン薬局吉川美南店,112437,埼玉県,吉川市,35.866451,139.857834,048-984-0704,048-984-0705,342-0038,吉川市美南3-23-1,10:00~19:00,無,,
そうごう薬局吉川美南店,112437,埼玉県,吉川市,35.877342,139.856506,489817281,489817282,342-0044,吉川市木売新田40-3,月~水9:00~18:00 木9:00~17:00 金9:00~18:00 土9:00~17:00,有,489817281,
そうごう薬局吉川店,112437,埼玉県,吉川市,35.876568,139.844788,489844133,489844134,342-0045,吉川市木売375-2,月、火、木、金曜 9:00-18:00 水曜 9:00-17:00 土曜 9:00-13:00,有,489844133,
ドラッグセイムス吉川さくら通り薬局,112437,埼玉県,吉川市,35.888222,139.848969,	048-	930-	7312,	048-	930-	7313,342-0061,吉川市中央1-2-4 ,月-日 10:00-19:00定休日:祝日,有,	048-	930-	7312,
たから薬局越谷店,112224,埼玉県,越谷市,35.945602,139.780472,048-970-8477,048-970-8488,343-0002,越谷市平方1705-5,月~水・金9:00-19:00 木9:00-17:00 土9:00~13:00,有,048-970-8477,
アイセイ薬局 越谷船渡店,112224,埼玉県,越谷市,35.937244,139.790939,048-970-3101,048-970-3102,343-0003,越谷市船渡165-5,月9:00~18:00/火9:00~18:00/水9:00~17:00/木9:00~18:00/金9:00~17:00/土9:00~18:00/日9:00~12:00,有,048-970-3101,
サン薬局,112224,埼玉県,越谷市,35.895569,139.816635,489693577,489693578,343-0012,越谷市増森247-3,月~土 09:00~17:00,有,07042135303,
薬樹薬局越谷2号店,112224,埼玉県,越谷市,35.900177,139.803787,048-960-1230,048-960-1231,343-0023,越谷市東越谷10-33-1,月~金9:00~18:00 土9:00~13:00,無,,
薬樹薬局越谷,112224,埼玉県,越谷市,35.899818,139.804062,048-964-9994,048-964-9995,343-0023,越谷市東越谷10-36-8,月~金9:00~18:00 土9:00~13:00,無,,
訪問薬樹薬局越谷,112224,埼玉県,越谷市,35.899818,139.804062,048-962-0010,048-962-0020,343-0023,越谷市東越谷10-36-7,月9:00-18:00/火9:00-17:00/水9:00-17:00/木9:00-17:00/金9:00-17:00/土9:00-13:00,有,048-962-0010,
ふれあい薬局,112224,埼玉県,越谷市,35.897038,139.806168,489628911,489628909,343-0023,越谷市東越谷9-1-1,月-金9:00-17:00 土9:00-14:00,無,489628911,
パ-ル薬局,112224,埼玉県,越谷市,35.89661,139.799911,489401289,489401389,343-0023,越谷市東越谷6-31-7,月-木:9:00-18:00 土:9:00-14:00,有,07030723958,
ミント薬局北越谷店,112224,埼玉県,越谷市,35.903656,139.783096,048-951-3702,048-951-3703,343-0025,越谷市大沢3-21-27,月9:00~13:00 15:00~19:30/火9:00~13:00 15:00~19:30/水9:00~13:00 15:00~19:30/木9:00~13:00 15:00~19:30/金9:00~13:00 15:00~19:30/土9:00~13:00/備考:祝日は閉局,有,090-6700-3702,
鈴薬局北越谷店,112224,埼玉県,越谷市,35.902428,139.778336,489406010,489406011,343-0026,越谷市北越谷4-21-10,月~土9:00~19:30,無,489406010,
そうごう薬局北越谷店,112224,埼玉県,越谷市,35.898724,139.778717,489718491,489718492,343-0026,越谷市北越谷2-4-25,月・火・木・金:9:00~18:00 水:9:00~17:00 日・祝:休み,有,489718491,
クレヨン薬局北越谷店,112224,埼玉県,越谷市,35.901657,139.77771,048-979-7093,048-979-7093,343-0026,越谷市北越谷4-3-12 ブリリアンレジデンス202,月・火・木・金9:00~18:45 土9:00~13:15,無,,
きたこし薬局,112224,埼玉県,越谷市,35.898777,139.773621,048-971-0263,048-971-0263,343-0026,越谷市北越谷2-32-1線とロ-ズ1FB号,月~水・金8:00~12:00、14:30~18:30木8:00~16:00土8:00~13:00,有,,
ドラッグセイムス越谷大里2号薬局,112224,埼玉県,越谷市,35.918987,139.786224,	048-	972-	6628,nan,343-0031,越谷市大里146-3,月曜-土曜 10:00-14:00 15:00-19:00日、祝日 閉局,有,,
おひさま薬局,112224,埼玉県,越谷市,35.923058,139.783264,048-967-5685,048-967-5686,343-0031,越谷市大里10-1,月~水・金9:00~18:30 木9:00~17:00 土9:00~12:30 第2.4.5日9:00~12:00,有,080-3470-5669,
鈴薬局大袋店,112224,埼玉県,越谷市,35.923866,139.778961,489408273,489408276,343-0032,越谷市袋山1199山崎ビル1階,月、火、木、金 9:00~19:00 水 9:00~17:00 土、日、祝 9:00~13:00,有,08081800071,
阪神調剤薬局せんげん台店,112224,埼玉県,越谷市,35.933693,139.770844,048-978-7386,048-976-8536,343-0041,越谷市千間台西2-12-14,月9:00~18:00/火9:00~18:00/水9:00~18:00/木9:00~18:00/金9:00~18:00/土9:00~14:00,有,080-6117-7406,
みよの台薬局千間台店,112224,埼玉県,越谷市,35.935089,139.770187,048-973-3711,048-978-8060,343-0041,越谷市千間台西1-9-13,月~土9:00~17:30,有,080-4180-8903,
東口薬局,112224,埼玉県,越谷市,35.935825,139.776108,489785352,489784976,343-0042,越谷市千間台東1-9-12池澤第2ビル 1F,月・火・木 10:00-21:00 水 13:00-21:00 金 10:00-19:00 土 10:00-18:00,有,09027514586,
レモン薬局せんげん台店,112224,埼玉県,越谷市,35.932018,139.773453,048-978-6002,048-978-6007,343-0043,越谷市上間久里1028-1,月9:00~18:00/火9:00~18:00/水9:00~18:00/木9:00~18:00/金9:00~18:00/土9:00~15:00/備考:第2土曜のみ閉局,有,048-978-6002,
abc薬局せんげん台店,112224,埼玉県,越谷市,35.93211,139.774002,048-973-3201,048-973-3202,343-0043,越谷市上間久里1041-1,月~土 9:00~18:00(第2土曜除く),有,048-973-3201,
アイン薬局ゆめみ野店,114650,埼玉県,北葛飾郡松伏町,35.918854,139.811417,489911193,489911191,343-0111,北葛飾郡松伏町松伏深町809,月~水、金、土:09:00~18:30 木:09:00~17:00,有,489911193,
なのはなさくら調剤薬局,114650,埼玉県,北葛飾郡松伏町,35.91193,139.82283,048-991-0100,048-991-0114,343-0115,北葛飾郡松伏町上赤岩841-4,月火水金:9:00~18:00 木:8:00~16:00 土:9:00~13:30,有,090-5782-4970,
有限会社フォレスト調剤さつき薬局,112224,埼玉県,越谷市,35.878216,139.780975,489675541,489675542,343-0807,越谷市赤山町4-9-69シトラスジュノス102号,月、火、木、金 9:00-18:00 土 9:00-14:00,無,489675541,
あおぞら調剤薬局赤山店,112224,埼玉県,越谷市,35.885582,139.778214,489724733,489724733,343-0807,越谷市赤山町2-236-10,月、火、木、金 9:00~14:00 15:00~18:00 水 9:00~17:00 土 9:00~14:00 第1、第3日曜日 9:00~12:00,有,08032162704,
調剤薬局マツモトキヨシ越谷駅西口店,112224,埼玉県,越谷市,35.888493,139.784943,048-964-1118,048-964-1118,343-0808,越谷市赤山本町2-11,月~金 9:00~19:00 土 9:00~17:00,有,080-2287-6099,
のぞみ薬局,112224,埼玉県,越谷市,35.886223,139.785538,048-964-0980,048-964-0981,343-0808,越谷市赤山本町9-11,月火水金:9:30~18:30、木土:9:30~14:30,無,,
みんなの薬局越谷駅前店,112224,埼玉県,越谷市,35.888924,139.788315,489671193,489671196,343-0813,越谷市越ケ谷1-3-8,日	10:00-18:00	営業 月	09:00-19:00	営業 火	09:00-19:00	営業 水	10:00-19:00	営業 木	09:00-19:00	営業 金	09:00-19:00	営業 土	09:00-18:00	営業 祝	10:00-18:00	営業,有,09068745839,
弥生薬局,112224,埼玉県,越谷市,35.887619,139.787247,048-965-3386,048-966-1329,343-0816,越谷市弥生町1-9,月9:00~21:00火~金9:00~19:00土9:00~18:00日11:00~18:00,有,,
メ-プル薬局越谷店,112224,埼玉県,越谷市,35.887733,139.794205,0489400966,0489640321,343-0821,越谷市瓦曽根1-6-14,月-金 8:00-17:30 土 8:00-12:30,有,08054076314,
そね薬局,112224,埼玉県,越谷市,35.884331,139.787964,048-951-4191,048-951-4192,343-0821,越谷市瓦曽根1-20-35,月~金 9:00~18:00 土 9:00~12:00,有,048-951-4191,
コスモ薬局越谷東,112224,埼玉県,越谷市,35.885021,139.790756,048-960-3810,048-960-3820,343-0821,越谷市瓦曽根2-1-27,月~金 9:00~18:00、土 9:00~17:00,有,080-6518-9657,
コスモ薬局 在宅療養支援センタ-,112224,埼玉県,越谷市,35.88002,139.79274,048-971-5550,048-971-5878,343-0821,越谷市瓦曽根2-9-20,月火木金:9:00~17:30 水:9:00~17:00 土:9:00~12:00,有,090-3438-0084,
共創未来レイクタウン薬局,112224,埼玉県,越谷市,35.874401,139.822586,048-972-5121,048-972-5162,343-0828,越谷市レイクタウン6-1-8,月8:15~18:30/火08:15~18:30/水08:15~18:30/木08:15~18:30/金08:15~18:30/土9:30~14:00/日09:30~13:30,無,,
レイクサイド薬局,112224,埼玉県,越谷市,35.872494,139.826828,048-986-3045,048-986-3046,343-0828,越谷市レイクタウン6-25-10,月・火・水・金9:00~19:00土9:00~14:00,無,,
レイクサイド南薬局,112224,埼玉県,越谷市,35.873051,139.823349,048-999-6145,048-999-6146,343-0828,越谷市レイクタウン6-6-3,月9:00~17:00火・水・木・金9:00~19:00土9:00~13:00日・祝祭日休み,無,,
そうごう薬局越谷レイクタウン店,112224,埼玉県,越谷市,35.877178,139.827667,489675661,489675662,343-0828,越谷市レイクタウン5-13-7,月~金9:00~18:00 土9:00~13:00 日祝休み,有,489675661,
コスモ薬局 レイクタウンDMビル,112224,埼玉県,越谷市,35.875504,139.821686,048-973-7490,048-973-7491,343-0828,越谷市レイクタウン8丁目10-6,月~金 9:00~19:00 木 9:00~17:00 日・祝 10:00~18:30,有,090-3438-0064,
藤助薬局,112224,埼玉県,越谷市,35.859859,139.798111,048-986-3023,048-986-3052,343-0838,越谷市蒲生1-5-45,月~土9:00~19:00,有,090-6146-3173,
なの花薬局蒲生駅前店,112224,埼玉県,越谷市,35.860428,139.790939,048-984-7572,048-984-7573,343-0843,越谷市蒲生市茜町19-5 ソライエアイル越谷蒲生202,月・火・木・金10:00~19:00土・日・祝10:00~18:30,有,048-984-7572,
薬局アポック南越谷店,112224,埼玉県,越谷市,35.876678,139.790588,048-963-8751,048-963-8752,343-0845,越谷市南越谷2-2-12コア-ズビル1F,月~土曜9時-18時,有,090-7194-5840,
調剤薬局マツモトキヨシ新越谷店,112224,埼玉県,越谷市,35.877518,139.789551,048-969-2551,048-962-0914,343-0845,越谷市南越谷2-1-39,月9:00~18:00/火9:00~18:00/水9:00~18:00/木9:00~18:00/金9:00~18:00/土9:00~18:00/備考:第三土曜のみ閉局、日祝定休,無,,
ひかり薬局,112224,埼玉県,越谷市,35.844841,139.646515,489896555,489896599,343-0845,埼玉県南越谷1-6-62コ-ポ南越谷,月火木金8:45-18:00     水8:45-15:00    土8:45-13:00,有,09083120844,
I&H埼玉医療センタ-薬局,112224,埼玉県,越谷市,35.878487,139.789307,048-967-5897,048-967-5898,343-0845,越谷市南越谷2-1-50,9:00~18:00,無,,
越谷クロ-バ薬局,112224,埼玉県,越谷市,35.869385,139.782135,489907313,489907314,343-0851,越谷市七左町1-307-3,月~金9:00~18:00 土9:00~13:00 第1・3・5日9:00~13:00 第2・4日祝日休み,無,,
コスモ薬局 七左,112224,埼玉県,越谷市,35.872585,139.78418,048-940-3241,048-940-3251,343-0857,越谷市新越谷1-26-2,月・火・水・金9:00~18:00 木9:00~17:00 土9:00~13:00,有,048-940-3241,
稲垣薬局春日部店,112143,埼玉県,春日部市,35.992664,139.753387,048-812-7038,048-812-7110,344-0007,春日部市小渕450-2,9:00~18:30,無,,
クラフト株式会社さくら薬局春日部藤塚店,112143,埼玉県,春日部市,35.973755,139.777786,048-812-4340,048-812-4341,344-0011,春日部市藤塚1223,9:00~19:00,有,048-812-4340,
ウエルシア薬局春日部藤塚店,112143,埼玉県,春日部市,35.969074,139.780319,048-731-7946,048-731-7943,344-0011,春日部市藤塚2371-1,月~金 9時~22時 土 9時~20時 日祝 9時~14時、15時~18時,無,048-731-7946,
そうごう薬局春日部店,112143,埼玉県,春日部市,35.944916,139.761612,487392351,487385602,344-0021,春日部市大場80-5,月~金9:00~17:30 土9:00~13:00,有,487392351,
こはる薬局,112143,埼玉県,春日部市,35.94434,139.766281,048-872-6081,048-872-6091,344-0022,春日部市大畑652-7,月~金9:00~18:0土9:00~13:00日祝休み,有,048-872-6081,
クオ-ル薬局武里店,112143,埼玉県,春日部市,35.94598,139.772476,048-731-0139,048-731-0140,344-0022,春日部市大畑237,月・火・水・金・土9:00~18:00木9:00~17:00日・祝休み,有,080-8754-5567,
ウエルシア薬局春日部武里店,112143,埼玉県,春日部市,35.942909,139.770554,048-739-3077,048-739-3078,344-0022,春日部市大畑524-7,9:00~19:00,無,,
シマズ薬局 武里店,112143,埼玉県,春日部市,35.94796,139.752838,048-689-3651,048-738-2610,344-0025,春日部市増田新田391番地24,月~土 9:00~17:30,有,090-7908-8833,
飛鳥薬局春日部店,112143,埼玉県,春日部市,35.952805,139.766571,0488127641,0488127643,344-0033,春日部市備後西3-8-58,月-金8:30-18:00 土8:30-17:30,有,08042984193,
春日部クロ-バ薬局,112143,埼玉県,春日部市,35.964802,139.74205,487313100,487313101,344-0035,春日部市谷原新田2124-1,月-土 9:00-18:30,有,09026608624,
ウエルシア薬局春日部豊春店,112143,埼玉県,春日部市,35.96431,139.725143,048-753-0099,048-752-9990,344-0046,春日部市上蛭田649,月から土9:00-20:00 日、祝9:00-18:00,有,090-6181-4805,
ファ-マシ-いまい,,,,35.968452,139.724472,048-754-2675,048-755-0921,344-0046 , 春日部市 上蛭田147-1 ,月~土9:00~20:00,有,,郵便番号
わかば薬局春日部店,112143,埼玉県,春日部市,35.993946,139.7173,048-797-8620,048-797-8621,344-0051,春日部市内牧3144-8,月~水・金9:00~18:00木9:00~17:00土9:00~13:00,無,,
アイン薬局春日部東口店,112143,埼玉県,春日部市,35.981777,139.753326,488125862,488125863,344-0061,春日部市粕壁1丁目6-5ア-バンハイツ春日部1F,月~金9:00~19:30 土~日9:00~13:30,有,488125862,
株式会社カネコ薬局,112143,埼玉県,春日部市,35.982132,139.755585,048-752-2331,048-752-0203,344-0062,春日部市粕壁東2-1-40,月9:00~18:00/火9:00~18:00/水9:00~18:00/木9:00~18:00/金9:00~18:00/土9:00~14:00,有,080-4196-6455,
日本調剤春日部薬局,112143,埼玉県,春日部市,35.966583,139.765564,048-731-1193,048-731-1195,344-0063,春日部市緑町6-11-50,月~金9:00~18:00土9:00~14:00,有,080-1070-0568,
セイムス谷原薬局,112143,埼玉県,春日部市,35.970558,139.743713,048-753-3507,048-753-3508,344-0065,春日部市谷原1-16-18,月-水•金:9:00-19:30木9:00-17:00土:9:00-15:00,有,048-753-3507,
ウエルシア薬局春日部谷原店,112143,埼玉県,春日部市,35.969547,139.752457,048-739-7106,048-739-7106,344-0065,春日部市谷原3-18,月9:00~0:00/火9:00~0:00/水9:00~0:00/木9:00~0:00/金9:00~0:00/土9:00~0:00/日9:00~0:00,有,070-6579-5561,
鈴木薬局春日部中央店,112143,埼玉県,春日部市,35.977074,139.751709,048-812-8696,048-796-0088,344-0067,春日部市中央1-52-1セントラルビル1F,月~金 9:00~18:00 土 9:00~14:00,無,080-9345-5421,
鈴木薬局 春日部中央店,112143,埼玉県,春日部市,35.977074,139.751709,488128696,487960088,344-0067,春日部市中央1-52-1セントラルビル1F,月-金9:00-18:00 土9:00-14:00,有,08093455421,
共創未来春日部薬局,112143,埼玉県,春日部市,35.975742,139.751038,048-737-9395,048-736-9221,344-0067,春日部市中央6-1-16 第一KNビル1階,月8:45~17:30/火8:45~17:30/水8:45~17:30/木8:45~17:30/金8:45~17:30/土8:45~10:45,有,048-737-9395,
むすぶ薬局,112143,埼玉県,春日部市,35.979027,139.750732,487208206,487208298,344-0067,春日部市中央1-8-9,月、火、木、金 9:00-19:00 水 9:30-18:30 土 9:00-17:00,有,487208206,
ヘルスドラッグ薬局,112143,埼玉県,春日部市,35.979027,139.750732,487544988,487544984,344-0067,春日部市中央1-8-7プレジデントビル1階,月-金:9:00-19:00、土:9:00-14:00,有,08021401985,
パル薬局春日部中央店,112143,埼玉県,春日部市,35.975742,139.751038,048-812-5766,048-812-5766,344-0067,春日部市中央6-1-9,月~金9:00~18:00 土9:00~13:00,有,090-2458-3107,
日本調剤春日部中央薬局,112143,埼玉県,春日部市,35.974785,139.750565,048-797-5023,048-797-5024,344-0067,春日部市中央6-8-4,月~金8:30~17:30土8:30~12:30,有,090-2524-3058,
さいたま中央薬局,112143,埼玉県,春日部市,35.976006,139.750366,048-761-0123,048-761-0124,344-0067,春日部市中央2-17-10 昭和ビル第3  102,月9:00~19:00/火9:00~19:00/水9:00~19:00/木9:00~19:00/金9:00~19:00/土9:00~13:00,有,070-5024-5606,
クオ-ル薬局春日部,112143,埼玉県,春日部市,35.973053,139.756622,048-739-1890,048-733-1091,344-0067,春日部市中央7-3-3-B,月・火・木・金9:30~18:30土9:00~14:30,無,,
ウエルシア薬局春日部市立医療センタ-前店,112143,埼玉県,春日部市,35.975742,139.751038,048-745-7511,048-745-7512,344-0067,春日部市中央6-1-15,月~金9:00~18:00土9:00~13:30、14:30~17:00,有,048-745-7511,
アイン薬局春日部店,112143,埼玉県,春日部市,35.974785,139.750565,486893695,486893696,344-0067,春日部市中央6丁目8-3住地ビル101,月-金 8:45-17:30 土 8:45-12:00,有,486893695,
フロンティア薬局 ,112143,埼玉県,春日部市,35.997631,139.796204,487181001,487181002,344-0111,春日部市上金崎29-1,月・火・金:9~18時 水・木:9~17時 土:9~14時,有,09074898187,
あいあい薬局米島店,112143,埼玉県,春日部市,35.976677,139.805054,048-718-3666,048-718-3667,344-0115,春日部市米島146-1,月~金8:45~18:00土8:45~13:00木・日・祝,有,080-1037-5592,
中川薬局 南桜井店,112143,埼玉県,春日部市,35.981686,139.811142,048-878-9282,048-878-9283,344-0116,春日部市大衾610-15,月9:00~17:00 火~金9:00~19:00 土9:00~18:00 祝9:00~12:00(月曜日を除く祝日),有,048-878-9282,
薬樹薬局庄和,112143,埼玉県,春日部市,35.987087,139.798843,487469772,487469783,344-0117,春日部市金崎1015-6,月~土 9~18時,有,487469772,
パル薬局東浦和店,114642,埼玉県,北葛飾郡杉戸町,36.035583,139.763809,488743611,488743611,345-0015,北葛飾郡杉戸町並塚1074,"月,火,木,金9:00~19:00 土9:00~13:00 水定休日",有,08059659554,
あおい薬局駅前東店,,,,36.065681,139.678711,0480-25-5650,0480-25-5651,345-0016,久喜市久喜東1-2-5東山ビル1階,月火木金:9:30-20:00 水:12:00-20:00 土:9:30-14:00,有,080-2390-5696,郵便番号
鈴木薬局 杉戸店,114642,埼玉県,北葛飾郡杉戸町,36.006763,139.758484,0480-37-2125,0480-37-2126,345-0023,北葛飾郡杉戸町本郷273-1 ,月~金9:00~18:00、土9:00~13:00,有,070-3763-0052,
サンリツ薬局杉戸清地店,114642,埼玉県,北葛飾郡杉戸町,36.028236,139.737152,480311250,480311253,345-0025,北葛飾郡杉戸町清地5-1-6,月~金9:00~18:00 土9:00~12:00,有,09022067340,
ウエルシア薬局杉戸倉松店,114642,埼玉県,北葛飾郡杉戸町,36.031132,139.73317,0480-37-0527,0480-37-0528,345-0034,北葛飾郡杉戸町倉松1-3-1,月~土:9:00~19:00,有,0480-37-0527,
ぽらりす薬局,114642,埼玉県,北葛飾郡杉戸町,36.040676,139.711914,0480-53-9035,0480-53-9036,345-0043,北葛飾郡杉戸町下高野1762-3,月~水・金9:00~18:50木9:00~17:00土9:00~15:20,有,090-9143-5996,
みやしろ薬局,114421,埼玉県,南埼玉郡宮代町,36.020458,139.72084,0480-31-3846,0480-31-3847,345-0801,南埼玉郡宮代町百間1040-4,月-土 9:00-18:00,有,080-3555-3846,
みるい薬局,114421,埼玉県,南埼玉郡宮代町,36.013039,139.72348,480346656,480346656,345-0824,南埼玉郡宮代町山崎478-11,月、火、木、金、土 8:30~18:30 水 8:00~1700 日 9:00~14:00,有,08012277850,
アイン薬局宮代店,114421,埼玉県,南埼玉郡宮代町,36.053154,139.68782,480311193,480311194,345-0836,南埼玉郡宮代町和戸1509-6,月~水・金・土 9:00~19:00、木 9:00~17:00,有,480311193,
コスモ薬局久喜,112321,埼玉県,久喜市,36.065292,139.676132,0480-25-4801,0480-25-4802,346-0003,久喜市久喜中央2-10-6,8:30~17:00,有,080-5402-5269,
アイン薬局久喜店,112321,埼玉県,久喜市,36.067589,139.672638,480218193,480218088,346-0003,久喜市久喜中央4-1-14,月・火・木・金9:00-19:00 水9:00-17:00 土9:00-18:00,有,480218193,
アイン薬局久喜駅前店,112321,埼玉県,久喜市,36.065006,139.676498,0480-24-5593,080-24-5592,346-0003,久喜市久喜中央2-2-7,月~土8:30~17:30祝日休み,有,0480-24-5593,
ドラッグセイムス久喜本町薬局,112321,埼玉県,久喜市,36.068577,139.67041,	0480-	29-	1865,	0480-	29-	1866,346-0005,久喜市本町1-1-16,月-土10:00-13:00、14:00-19:00、日祝は休み,有,	0480-	29-	1865,
かちどき薬品株式式会社 かちどき薬局 久喜本町店,112321,埼玉県,久喜市,36.06897,139.669693,0480-25-5425,0480-25-5425(切替),346-0005,久喜市本町1-7-5,/火9:00~18:00/水9:00~18:00/木9:00~18:00/土9:00~18:00/日9:00~18:00,有,070-6445-1548,
オリ-ブ薬局,112321,埼玉県,久喜市,36.067398,139.670822,0480-24-3510,0480-24-3520,346-0005,久喜市本町2-2-36,月・火・木・金 9:00~13:00、14:00~18:30水 9:00~13:00、14:00~18:00土 9:00~12:30,無,,
アイン薬局久喜本町店,112321,埼玉県,久喜市,36.069393,139.668869,0480-25-1193,0480-25-1195,346-0005,久喜市本町2-16-39,月~金8:30~18:30土8:30~17:30日・祝休み,有,0480-25--1193,
飛鳥薬局アリオ前店,112321,埼玉県,久喜市,36.074562,139.672058,0480570303,0480570304,346-0007,久喜市久喜北2-22-36,9-18,有,07032438496,
あおい薬局北店,112321,埼玉県,久喜市,36.077728,139.673828,480255537,480255653,346-0007,久喜市久喜北2-2-35,月火水金 9:00-19:00 木    9:00-17:00 土    9:00-17:30,有,8045694317,
なのはな薬局,112321,埼玉県,久喜市,36.074574,139.696304,480254050,480233706,346-0011,久喜市青毛1100-4,月・火・水・金・土 8:30~18:00 土 9:00~17:00,有,480254050,
コスモファ-マ薬局吉羽店,112321,埼玉県,久喜市,36.06776,139.685989,480260021,480260022,346-0014,久喜市吉羽1-28-8, 月火水金 9:00から18:00  木    9:00から17:00  土    9:00から13:00,有,09067862968,
クラ-ジュ薬局,112321,埼玉県,久喜市,36.054169,139.680252,0480-25-5565,0480-24-1141,346-0022,久喜市下早見1185-5,9:00~18:00,有,0480-25-5565,
飛鳥薬局江面店,112321,埼玉県,久喜市,36.059761,139.663437,0480261212,0480261213,346-0029,久喜市江面9-11,月水木土9:00-18:30 火9:00-17:00 金10:30-18:30 日9:00-12:00,有,08044046609,
かちどき薬局 久喜店,112321,埼玉県,久喜市,36.074295,139.648758,0480-24-2212,0480-24-2647,346-0033,久喜市下清久276-4,月9:00~19:00/火9:00~19:00/水9:00~19:00/金9:00~19:00/土9:00~17:00/日9:00~14:00,無,,
ウエルシア薬局菖蒲店,112321,埼玉県,久喜市,36.058979,139.613052,0480-87-2012,0480-87-2013,346-0104,久喜市菖蒲町三箇529,月9:00~13:30、14:30~19:00/火9:00~13:30、14:30~19:00/水9:00~13:30、14:30~19:00/木9:00~13:30、14:30~19:00/金9:00~13:30、14:30~19:00/土9:00~13:30、14:30~19:00/日10:00~13:30、14:30~19:00,無,,
あおば薬局菖蒲店,112321,埼玉県,久喜市,36.071056,139.61116,480386683,480386684,346-0106,久喜市菖蒲町菖蒲4031-3,月-金9:00-18:30 土:9:00-16:30,有,08035992908,
明倫堂薬局,112321,埼玉県,久喜市,36.040756,139.573288,0480-87-0505,0480-87-0506,346-0114,久喜市菖蒲町上栢間3189-5,月9:00~17:45/水9:00~17:45/木9:00~17:45/金9:00~17:45/土9:00~17:45,無,,
加茂薬局,112100,埼玉県,加須市,36.137608,139.643097,0480-68-5971,0480-68-4451,347-0013,加須市北篠崎1493,月~土 8:00~19:00,有,090-6937-1073,
まごころ薬局加須店,112100,埼玉県,加須市,36.107502,139.653244,0480533118,0480533119,347-0015,加須市南大桑1623-1,月8:30~18:30/火8:30~18:30/水8:30~18:30/木8:30~18:30/金8:30~18:30/土8:30~16:00,無,,
ファ-コス薬局みのり,,,,36.1063,139.651855,048-065-0417,048-065-0481,347-0015 , 加須市 南大桑 1495-4,月~金9:00~18:00土9:00~13:00,有,048-065-0417,郵便番号
飛鳥薬局浜町店,112100,埼玉県,加須市,36.126526,139.608963,0480-63-1717,0480-63-1718,347-0018,加須市浜町1-4,月~土 9:00~18:00 (休:日・祝・水),無,080-1194-0588,
いきいき薬局加須店,112100,埼玉県,加須市,36.10519,139.608063,048-048-7931,0480483932,347-0028,加須市南小浜631-11,月-水、金 9:00-19:00 木    8:30-17:15 土    9:00-14:00,有,09043981268,
あすなろ薬局南町店,112100,埼玉県,加須市,36.120262,139.599884,048-053-5608,0480535609,347-0031,加須市南町5-18,月~金:9:00~18:30 土:9:00~18:00,有,0480535608,
飛鳥薬局 志多見店,112100,埼玉県,加須市,36.134754,139.54599,0480-641-005,0480641006,347-0042,加須市志多見436-5,月-金 9:00-18:00 土   9:00-13:00,有,08094551241,
飛鳥薬局 済生会通り店,112100,埼玉県,加須市,36.118851,139.594177,0480-53-4160,0480-53-4828,347-0044,加須市礼羽5-4,月9:00-20:00 火-金9:00-18:00,無,0480-53-4160,
飛鳥薬局富士見町店,112100,埼玉県,加須市,36.119011,139.597122,0480-63-3050,0480-63-3051,347-0045,加須市富士見町14-21,月9-18 :30 火9-18:30水9-18:00 木9-18:30 金9-18:30土 9-14:00,有,090-6795-6337,
加須薬局,112100,埼玉県,加須市,36.119518,139.595032,480319340,480319341,347-0045,加須市富士見町15-3,月~金9:00~18:00,有,08010053409,
飛鳥薬局愛宕店,112100,埼玉県,加須市,36.131931,139.588882,0480-62-7522,0480-62-7512,347-0057,加須市愛宕1-9-5,月-土9:00-18:00,有,090-6797-0598,
飛鳥薬局不動ヶ丘店,112100,埼玉県,加須市,36.13802,139.57579,0480-63-0002,0480-63-0100,347-0058,加須市岡古井70-2,月から土→9時から18時,有,080-9458-3087,
飛鳥薬局久下店,112100,埼玉県,加須市,36.119289,139.612839,0480-53-3075,0480-53-3076,347-0063,加須市久下2-41-5,月-金9:00-18:00 第1、3、5土曜日9:00-13:00 第2、4土曜日14:00-18:00,有,080-4138-8391,
飛鳥薬局元町薬局,112100,埼玉県,加須市,36.12328,139.599091,0480-63-2181,0480-63-2182,347-0065,加須市元町6-12,月-土9:00-19:00,有,090-5431-1163,
薬樹薬局 加須,112100,埼玉県,加須市,36.124344,139.601242,480611857,480611875,347-0066,加須市本町2-11,月~金 9~18時半 土 9~18時,有,480611857,
飛鳥薬局,112100,埼玉県,加須市,36.12376,139.601303,0480-62-1102,0480-62-1103,347-0066,加須市本町2-30,月~土曜 9時~18時 日は休み,有,090-5802-3296,
ウエルシア薬局イオンモ-ル羽生店,112160,埼玉県,羽生市,36.142914,139.541718,048-560-2191,048-560-2192,348-0039,羽生市川崎2-281-3 イオンモ-ル羽生1F,月10:00~21:00/火10:00~21:00/水10:00~21:00/木10:00~21:00/金10:00~21:00/土10:00~21:00/日10:00~21:00,有,048-560-2191,
飛鳥薬局上新郷店,112160,埼玉県,羽生市,36.177944,139.504196,048-560-0606,0485600607,348-0041,羽生市上新郷5938-2,月-金9:00-13:00.14:00-18:00 土9:00-14:00,有,07012873116,
日本調剤羽生薬局,112160,埼玉県,羽生市,36.160404,139.528915,048-598-3660,048-598-3662,348-0045,羽生市大字下岩瀬508-3,月・水・木8:30~19:00火・金9:00~19:00第1・3・5土9:00~17:00第2・4土8:30~17:00第2・4日9:00~13:00第1・3・5日祝休み,有,080-1305-5926,
ひかり薬局,112160,埼玉県,羽生市,36.147625,139.519043,485603309,485623511,348-0047,羽生市下新郷1054-2,月~金8:30~18:00 土8:30~12:30,有,485603309,
飛鳥薬局羽生店,112160,埼玉県,羽生市,36.175568,139.552246,048-560-4025,048-560-4026,348-0052,羽生市東5-17-27ASUKAビル1F,月、水、金9:00-18:30     木9:00-17:00   土9:00-18:00,有,090-5794-9071,
ファ-コス薬局つばめ,112160,埼玉県,羽生市,36.16925,139.547607,048-562-7070,048-562-7071,348-0052,羽生市東7-7-9,月~水・金9:00~18:00木・土9:00~13:00,有,048-562-7070,
飛鳥薬局羽生南店,112160,埼玉県,羽生市,36.16967,139.539108,048-594-8571,0485948572,348-0053,羽生市南3-3-14,月-土曜日9:00-18:00,無,09017488140,
飛鳥薬局羽生西口店,112160,埼玉県,羽生市,36.166771,139.535019,048-598-6475,048-598-6476,348-0053,羽生市南2-20-6-101,月~金曜日9:00~18:00 土曜日9:00~13:00,有,080-9452-7410,
クオ-ル薬局羽生中央店,112160,埼玉県,羽生市,36.170601,139.541336,048-561-5277,048-5615279,348-0053,羽生市南5-3996-1,月・火・木・金8:30~18:30水9:00~18:00土8:30~12:30日・祝休み,無,,
アイン薬局羽生店,112160,埼玉県,羽生市,36.176212,139.527649,485017052,485017053,348-0054,羽生市西5-20-5ア・ラ・モ-ド202,月、水、木:8:00-19:00  火、金:9:00-19:00  第1.3.5土曜日:9:00-17:00  第2.4土曜日:8:00-17:00  日曜日:9:00-13:00,無,485017052,
クオ-ル薬局羽生東店,112160,埼玉県,羽生市,36.182484,139.555389,048-560-3470,048-560-3471,348-0064,羽生市藤井上組874-3,月・火・木・金8:30~18:30水8:30~18:00土8:30~12:30,有,080-8754-5587,
南羽生薬局,112160,埼玉県,羽生市,36.148235,139.556763,048-580-6722,048-580-6723,348-0071,羽生市南羽生3-7-12,月~金9:00~18:00土9:00~12:00,無,,
鈴木薬局 蓮田黒浜店,112380,埼玉県,蓮田市,35.995625,139.677994,048-765-3765,048-764-3765,349-0101,蓮田市黒浜4770,月~金 9:00~18:00土 9:00~11:00,有,070-3798-1167,
コスモ薬局 黒浜,112380,埼玉県,蓮田市,35.991352,139.669205,048-765-3900,0487653901,349-0101,蓮田市黒浜2945-4,月火金土 9:00~18:00 水木   9:00~17:00 日・祝日 休み,有,09054025282,
ウエルシア薬局蓮田黒浜店,112380,埼玉県,蓮田市,35.994816,139.663361,048-765-7037,048-765-7027,349-0101,蓮田市黒浜2811,9:00~24:00,無,,
薬局オリ-ブファ-マシ-,112380,埼玉県,蓮田市,35.981319,139.653961,048-764-0789,048-764-0792,349-0111,蓮田市東5-2-9,月~金9:00~20:00土9:00~18:00,有,080-3469-5577,
クオ-ル薬局蓮田店,112380,埼玉県,蓮田市,35.978619,139.654205,048-769-2124,048-769-4285,349-0111,蓮田市東6-3-5,月~水・金9:00~18:00木 14:00~20:00土9:00~16:00,有,080-8754-5576,
はなだ薬局,112380,埼玉県,蓮田市,35.976093,139.658615,487655086,487655087,349-0114,蓮田市馬込2-297,月火木金8:45-13:00、15:00-18:45 水8:30-16:30 土8:30-13:30,有,487655086,
コスモ薬局蓮田,112380,埼玉県,蓮田市,36.019505,139.638824,048-766-8118,048-766-8119,349-0131,蓮田市根金1665-5,9:00~18:00,有,080-5027-9657,
ウエサカ薬局,112380,埼玉県,蓮田市,36.016705,139.638321,048-766-3366,048-793-4070,349-0133,蓮田市閏戸4122-14,月・水・木・金9:00~17:30火9:00~17:00土9:00~13:00,有,070-3832-1097,
アイン薬局蓮田店,112380,埼玉県,蓮田市,36.022018,139.622833,487664193,487664191,349-0135,蓮田市井沼988-3,月~水)9:00~19:00、木)9:00~17:00、金)9:00~19:00、土)9:00~15:00,有,487664193,
サ-クル薬局新白岡西口店,112461,埼玉県,白岡市,36.039711,139.670639,0480-48-6849,0480-48-6859,349-0212,白岡市新白岡7-15-7,月・火・木 8:00~19:00 水 9:00~17:00金・土・日 8:00~17:00,有,090-9301-9618,
鈴木薬局白岡店,112461,埼玉県,白岡市,36.008801,139.668198,0480-44-8820,0480-44-8821,349-0217,白岡市小久喜202-5 ,月-金9:00-18:30土9:00-12:30,有,090-5806-5980,
明倫堂白岡,112461,埼玉県,白岡市,36.016548,139.6651,0480-91-7001,0480-91-7002,349-0217,白岡市小久喜1070-1,月9:00~18:45/火9:00~18:45/水9:00~18:45/木9:00~18:45/金9:00~18:45/土9:00~15:45,有,080-4834-5569,
あおば薬局 白岡店,112461,埼玉県,白岡市,36.019661,139.67337,0480-31-8895,0480-31-8896,349-0217,白岡市小久喜815-6,月~水9:00~18:30 木9:00~17:00 金9:00~18:30 土9:00~13:00,有,080-3599-2908,
ウエルシア薬局白岡店,112461,埼玉県,白岡市,36.016769,139.660904,048-091-6722,0480916723,349-0218,白岡市白岡1143-1,月~土9:00~19:30 祝日9:00~14:00、15:00~19:30,有,0480916722,
あき薬局栗橋店,112321,埼玉県,久喜市,36.103909,139.704514,048-048-5445,0480485927,349-1114,久喜市河原代861-3,月、火、木、金9:00-18:30 水9:00-17:00 土、日9:00-12:45,有,08033110235,
セイムス南栗橋薬局,112321,埼玉県,久喜市,36.112698,139.711685,	0480-	55-	1221,nan,349-1117,久喜市南栗橋4-14-1,月曜-水曜、金曜 9:00-19:00木曜、土曜 9:00-18:00,有,,
アイン薬局加須店,112100,埼玉県,加須市,36.141293,139.662308,480728193,480728194,349-1134,加須市北下新井2084-2,月曜-金曜 9-18 土曜 9-13,有,480728193,
みやこ薬局南古谷店,112011,埼玉県,川越市,35.901657,139.527603,492356699,492356695,350-0011,川越市久下戸48-1,月~土9:00~18:00,有,080-3692-3514,
あやめ薬局 川越店,112011,埼玉県,川越市,35.907425,139.511459,049-230-1885,049-230-1886,350-0021,川越市大中居573-1,月9:00~18:00/火9:00~18:00/水9:00~18:00/木9:00~18:00/金9:00~18:00/土9:00~13:00/備考:祝日休み,有,090-6146-7459,
ウエルシア薬局 川越仙波店,112011,埼玉県,川越市,35.909908,139.492081,	049-	227-	5293,	049-	227-	5294,350-0034,川越市仙波町3-1-2,月-日 9:00-24:00,無,,
六軒町薬局,112011,埼玉県,川越市,35.918175,139.478027,049-227-8155,049-227-8152,350-0041,川越市六軒町1-14-2 ,月~金9:00~19:00、土~日9:00~13:00,有,090-9731-7891,
茂木薬局,112011,埼玉県,川越市,35.914188,139.478027,049-222-0075,049-222-0075,350-0041,川越市六軒町1-2-1,9:00~20:30,有,049-222-0075,
アイン薬局本川越店,112011,埼玉県,川越市,35.917259,139.480286,492233480,492233481,350-0042,川越市中原町1-12-3,月~金9:00~18:00 土9:00~13:00,有,492233480,
鈴木薬局 新富町店,112011,埼玉県,川越市,35.913136,139.483154,049-299-8025,049-299-8026,350-0043,川越市新富町2丁目4-3木村屋ビル3F ,月~金9:00~18:10、土9:00~16:40,無,,
飛鳥薬局 新富町店,112011,埼玉県,川越市,35.911587,139.480835,049-227-5557,049-227-5558,350-0043,川越市新富町2-30-3 サンスプレンダ-新富103号,平日:10時~19時 土曜:10時~18時,有,090-6934-1432,
株式会社鈴木薬局 新富町店,112011,埼玉県,川越市,35.337326,137.134918,492998025,492998026,350-0043,新富町2丁目4番地3新富町2-4-3木村屋ビル3F,月~金9:00~18:10 土9:00~16:40,有,07077749973,緯度経度(不一致)
ナイス薬局新富町店,112011,埼玉県,川越市,35.913136,139.483154,049-225-8833,049-225-9797,350-0043,川越市新富町2-4-3木村屋ビル1階,月~土9:30~12:30、14:30~18:30 日・祝祭日休み,無,,
そうごう薬局本川越店,112011,埼玉県,川越市,35.913338,139.485291,049-225-4822,049-225-4833,350-0044,川越市通町5-19,月~水、金:9:00~18:00、木:9:00~17:00、土:9:00~12:30,有,049-225-4822,
アルル薬局,112011,埼玉県,川越市,35.907547,139.484924,492230555,492230605,350-0046,川越市菅原町20-19,月、火、木、金9:00-18:00 水9:00-17:00 土9:00-15:00,有,492230555,
リズム薬局 川越店,112011,埼玉県,川越市,35.926651,139.484695,492986123,492986124,350-0052,川越市宮下町1-2-17,月火水金 9時~19時 木 9時~17時 土 9時~13時半,有,492986123,
ナイス薬局,112011,埼玉県,川越市,35.921356,139.484406,049-228-3939,049-228-3399,350-0056,川越市松江町2-8-3,月・火・木~土9:00~18:30 日・水・祝日,無,,
薬局アポック川越東店,112011,埼玉県,川越市,35.91877,139.484161,049-229-4331,049-229-4332,350-0066,川越市連雀町20-3,月~金 9:00~19:00、土 9:00~17:00 ,無,090-7836-5554,
オレンジ薬局川島曲師店,113468,埼玉県,比企郡川島町,35.961666,139.508698,049-298-5658,049-298-5734,350-0146,比企郡川島町曲師121-1,月~木・土9:00~19:00 金9:00~17:00 日・祝祭日休み,無,049-298-5658,
そよ風薬局 川島店,113468,埼玉県,比企郡川島町,35.963963,139.46846,492988095,492988096,350-0158,埼玉県比企郡川島町伊草97-6,月・火・木・金曜日:9~18時 水曜日:9~17時 土曜日:9~14時,無,9090409764,
アイン薬局坂戸小沼店,112399,埼玉県,坂戸市,35.971806,139.444016,492809393,492808193,350-0202,坂戸市小沼844-3,月~金 9:00~18:00 土 9:00~13:00,有,492809393,
クオ-ル薬局東坂戸店,112399,埼玉県,坂戸市,35.953278,139.445236,049-284-3646,049-284-3644,350-0205,坂戸市東坂戸2-8-104,火~金9:00~18:00月・土9:00~17:00,有,049-284-3646(転送),
秋山薬局駅前店,112399,埼玉県,坂戸市,35.958103,139.394272,492848788,492848788,350-0225,坂戸市日の出町21-6-Aシバザキビルドワン,月火水金8:30から18:30  木8:30から18:00 土8:30から17:00 第4日曜 8:30から12:00,有,492848788,
エ-ス薬局坂戸調剤センタ-,112399,埼玉県,坂戸市,35.957275,139.391937,049-288-1600,049-288-1601,350-0225,坂戸市日の出町5-30,月~水、金9:00~18:00木9:00~17:00 土9:00~13:30,有,080-4624-1542,
ナカマチ薬局,112399,埼玉県,坂戸市,35.962952,139.395615,024-288-2100,049-288-2101,350-0227,坂戸市仲町9-1,・月、火、水、金  (9-19) ・木 (9-17) ・土 (9-13),有,080-2832-5848,
ミドリ薬局 薬師町店,112399,埼玉県,坂戸市,35.970558,139.399826,492811051,492777433,350-0229,坂戸市薬師町12-8 薬師ハイツ,月~金9:00~12:30、15:00~18:00 土9:00~13:00  木日は休み,無,492811051,
もしもし薬局坂戸店,112399,埼玉県,坂戸市,35.958664,139.390915,049-289-3440,049-289-3426,350-0232,坂戸市中富町1-11,月火木金 9時-18時 水 9時-13時 土 8時半-13時,無,,
ひまわり薬局坂戸店,112399,埼玉県,坂戸市,35.955765,139.397949,492998346,492998347,350-0233,坂戸市南町30-19,月~土9:00~18:00,有,09022133354,
ハロ-薬局坂戸店,112399,埼玉県,坂戸市,35.953873,139.393433,492887266,492887266,350-0233,坂戸市南町5-17,月火水金 9:00-19:00 木 9:30-17:30 土 9:00-13:00,有,09085918605,
サンタの健康薬局坂戸店,112399,埼玉県,坂戸市,35.954163,139.397217,049-280-4411,049-280-4410,350-0233,坂戸市南町24-5長久保ビル102,月・火・水・木・金9:00~18:00土9:00~17:00,無,,
ウエルシア薬局坂戸南町店,112399,埼玉県,坂戸市,35.953533,139.393799,049-280-8510,0492808511,350-0233,坂戸市南町5-12,"月	09:00 ~ 23:59 火	00:00 ~ 03:59 , 05:00 ~ 23:59 水	00:00 ~ 03:59 , 05:00 ~ 23:59 木	00:00 ~ 03:59 , 05:00 ~ 23:59 金	00:00 ~ 03:59 , 05:00 ~ 23:59 土	00:00 ~ 03:59 , 05:00 ~ 23:59 日	00:00 ~ 03:59 , 05:00 ~ 13:29 , 14:30 ~ 23:59 祝	00:00 ~ 03:59 , 05:00 ~ 13:29 , 14:30 ~ 23:59(月曜日が祝日の場合は月曜日の営業時間)",無,0492808500,
アイン薬局坂戸店,112399,埼玉県,坂戸市,35.955635,139.398758,492886630,492886631,350-0233,坂戸市南町31-8,日-土9時-18時,有,492886630,
ウエルシア薬局坂戸浅羽野店,112399,埼玉県,坂戸市,35.953445,139.382416,049-210-7337,049-280-5122,350-0237,坂戸市浅羽野1-2-1,月~土:9:00~20:00,無,,
アイセイ薬局 坂戸西店,112399,埼玉県,坂戸市,35.967045,139.371628,492880408,492842715,350-0262,坂戸市新堀270-10,月-水、金-土 9時-18時 木9時-17時,有,492880408,
ヴェルペン花みず木薬局,112399,埼玉県,坂戸市,35.968876,139.371674,049-280-3222,090-280-3220,350-0269,坂戸市にっさい花みず木3-12-14,月曜 火曜 水曜 金曜 9時30分-19時 木曜 15時-19時 第2 4 5土曜 9時30分-13時,無,0492803222,
ミドリ薬局溝端店,,,,35.972298,139.393341,049-281-8727,049-289-5078,350-0274 , 坂戸市溝端町7-6,月・火・水・金9:00~18:00木9:00~17:00土9:00~13:30,無,,郵便番号
ミドリ薬局鳩山店,113484,埼玉県,比企郡鳩山町,35.992603,139.353149,492962717,492776899,350-0313,比企郡鳩山町松ケ丘3-6-8,月-水、金 午前 9時から13時 午後 15時から18時15分 土曜日 午前 9時から13時 木曜日、日曜日、祝日は定休日となります,有,07075408501,
平塚薬局越生店,113271,埼玉県,入間郡越生町,35.966438,139.291992,492926411,492926401,350-0411,入間郡越生町黒岩210-1,月~土 9:00~18:00,有,09025285734,
中川薬局 越生店,113271,埼玉県,入間郡越生町,35.952881,139.291946,492771871,492771872,350-0415,入間郡越生町上野1024-3,月~火 8:45~18:15 木~金 8:45~18:15 土 8:45~17:00 水、日定休日,有,492771871,
かわかど薬局,113263,埼玉県,入間郡毛呂山町,35.946747,139.344391,492766510,492766511,350-0434,入間郡毛呂山町市場982-1,月~土 9:00~18:00,有,492766510,
日本調剤埼玉日高薬局,113263,埼玉県,入間郡毛呂山町,35.921288,139.318695,049-276-5511,049-294-7724,350-0445,入間郡毛呂山町葛貫1078-1,月~金:9:00~19:00 土:9:00~18:00,有,080-1058-2142,
ウエルシア毛呂本郷薬局,113263,埼玉県,入間郡毛呂山町,35.946728,139.305466,049-295-6375,049-295-6383,350-0445,入間郡毛呂山町毛呂本郷1458,9:00~20:00,無,,
日本調剤毛呂薬局,113263,埼玉県,入間郡毛呂山町,35.938377,139.3069,049-276-5550,049-294-8677,350-0451,入間郡毛呂山町毛呂本郷40-1,月~土8:30~22:00 日祝日9:00~22:00,有,080-1214-3580,
稲垣薬局もろハピネス館前店,113263,埼玉県,入間郡毛呂山町,35.940201,139.307617,492153328,492153329,350-0451,入間郡毛呂山町毛呂本郷1277,月~土9:00~18:00,有,07024681701,
よこて薬局,113263,埼玉県,入間郡毛呂山町,35.938377,139.3069,049-294-5552,0492945553,350-0451,入間郡毛呂山町毛呂本郷679-2,月~金9:00~18:00 土9:00~15:00,無,0492945552,
アポック医大前薬局1号店,113263,埼玉県,入間郡毛呂山町,35.940201,139.307617,492956800,492956801,350-0451,埼玉県入間郡毛呂山町毛呂本郷18-1,月~土 9時~18時,有,09071972423,
アイン薬局毛呂本郷店,113263,埼玉県,入間郡毛呂山町,35.939579,139.308014,492945203,492945204,350-0451,入間郡毛呂山町毛呂本郷981,月~土9:00~18:00,有,492945203,
アイン薬局毛呂中央店,113263,埼玉県,入間郡毛呂山町,35.94236,139.317291,049-294-4193,049-294-5661,350-0461,入間郡毛呂山町中央2-3-1,月~金9:00~19:00 土9:00~15:00,有,049-294-4193,
ファミリ-薬局長瀬店,113263,埼玉県,入間郡毛呂山町,35.945953,139.327606,049-276-6639,049-276-6640,350-0463,入間郡毛呂山町前久保南4-28-27,月・土9:00~13:00/15:00~19:00       火・水・木9:00~13:00/16:45~20:00             日9:00~13:00,有,049-276-6639,
アポック毛呂岩井薬局,113263,埼玉県,入間郡毛呂山町,35.942669,139.309052,492766600,492766601,350-0465,入間郡毛呂山町岩井西5-13-6,月曜~土曜 9:30~18:30 日曜・祝日・年末年始:休日,有,492766600,
三陽薬局,112011,埼玉県,川越市,35.937981,139.433853,492346583,492346584,350-0806,川越市天沼新田307-7,月水木土9:00~17:30 火金9:00~19:00 日9:00~12:00,有,492346583,
ぽぷら薬局,112011,埼玉県,川越市,35.928261,139.444946,049-232-3102,049-232-3103,350-0816,川越市大字上戸99,9:00~17:30,有,049-232-3102,
あおい調剤薬局石原店,112011,埼玉県,川越市,35.926891,139.477356,049-225-7065,049-225-7281,350-0824,川越市石原町1-9-1,月9:00~18:30/火9:00~18:30/木9:00~18:30/金9:00~13:00/土9:00~18:30,有,090-6306-9460,
プラザ薬局川越,112011,埼玉県,川越市,35.932781,139.52005,049-236-6750,049-227-5031,350-0844,川越市鴨田1291-5,月~金9:00~18:30土9:00~17:30,有,049-236-6750,
アポック川越センタ-前薬局2号店,112011,埼玉県,川越市,35.932861,139.517868,0496-227-8121,049-227-8122,350-0844,川越市鴨田1210-1,月~金 9:00~18:00 土 9:00~17:30,有,090-7234-7568,
アポック川越センタ-前薬局1号店,112011,埼玉県,川越市,35.932896,139.52121,049-227-5181,049-227-5182,350-0844,川越市鴨田1293-1,月~金9:00~18:00土9:00~17:30,無,,
あおい調剤薬局株式会社,112011,埼玉県,川越市,35.934769,139.518341,0492293933,0492293934,350-0844,川越市鴨田2001-1,月9:00~18:00/火9:00~18:00/水9:00~18:00/木9:00~18:00/金9:00~18:00/土9:00~18:00,無,,
オリ-ブ薬局 霞ヶ関店,112011,埼玉県,川越市,35.926498,139.441605,049-233-1843,049-234-0183,350-1101,川越市的場2244-2,月9:00~13:00、15:00~19:00/火9:00~13:00、15:00~19:00/水9:00~17:00/木9:00~13:00、15:00~19:00/金9:00~13:00、15:00~19:00/土9:00~14:00,無,,
あおい調剤薬局霞ヶ関店,112011,埼玉県,川越市,35.92535,139.440125,049-239-5888,049-239-5887,350-1102,川越市的場北1-6-32,月9:00~18:30/火9:00~18:30/水9:00~18:30/木9:00~18:30/金9:00~18:30/土9:00~18:30/備考:祝日休み,有,090-6306-9143,
共創未来霞ヶ関薬局,112011,埼玉県,川越市,35.924892,139.442551,049-239-6021,049-239-6023,350-1103,川越市霞ケ関東1-4-19-2,月9:00~18:00/火9:00~18:00/水9:00~18:00/木9:00~18:00/金9:00~18:00/土9:00~13:00,無,,
あおい薬局今成店,112011,埼玉県,川越市,35.925087,139.47345,049-229-3566,049-229-3567,350-1105,川越市今成1-13-15,月9:00~18:30/火9:00~18:30/水9:00~18:30/木9:00~18:30/金9:00~18:30/土9:00~13:30,有,090-6306-8357,
海の子薬局,112011,埼玉県,川越市,35.917889,139.428772,492391213,492317101,350-1107,川越市的場新町17-7,月~金9:00~18:45 土9:00~14:00,有,492391213,
ユニスマイル薬局川越店,112011,埼玉県,川越市,35.909061,139.475311,492491771,492491772,350-1114,川越市東田町22-14,月-金9:00-18:00 土9:00-13:00,有,08041455497,
小江戸薬局駅前店,112011,埼玉県,川越市,35.907333,139.484131,049-222-3837,049-222-3836,350-1122,川越市脇田町103川越マイン2F ,月9:00~19:00/火9:00~19:00/水9:00~19:00/木9:00~19:00/金9:00~19:00/土9:00~17:00,無,,
香雲堂庄司薬局,112011,埼玉県,川越市,37.034649,137.948715,049-229-5535,049-229-5536,350-1122,越市脇田町5-6,9:30~13:30、15:00~19:00,有,049-229-5535,緯度経度(不一致)
薬局アポック川越店,112011,埼玉県,川越市,35.909199,139.480881,049-291-3810,049-291-3811,350-1123,川越市脇田本町25-18脇田本町ビル1F,9:00~18:00,有,,
薬局アポック川越中央店,112011,埼玉県,川越市,35.909199,139.480881,049-291-2530,049-291-2372,350-1123,川越市脇田本町25-21 ユアコ-ト川越101,8:30~17:30,有,090-5313-8199,
小江戸薬局U_PLACE店,112011,埼玉県,川越市,35.905926,139.48114,049-293-8901,049-293-8902,350-1123,川越市脇田本町8-1 U_PLACE6F,月8:30~19:00/火8:30~19:00/水8:30~19:00/木9:00~19:00/金8:30~19:00/土8:30~17:00/日8:30~12:00/備考:日曜日は第2、第4(変則で第1、第3になることあり)のみ営業。祝日は休業。,有,070-1486-0333,
小江戸薬局,112011,埼玉県,川越市,35.905479,139.479279,049-249-6660,049-249-6661,350-1123,川越市脇田本町11-36 三田ビル1F,月~水・金9:00~18:00木土9:00~17:00,有,049-249-6660,
ダリヤ川越薬局,112011,埼玉県,川越市,35.909199,139.480881,492406085,492406086,350-1123,川越市脇田本町25-18脇田本町ビル2階,月~土9:00~18:00 祝日11:00~14:00,有,09040978676,
ことぶき薬局 川越店,112011,埼玉県,川越市,35.905479,139.479279,049-247-5993,049-247-5994,350-1123,川越市脇田本町11番4号 ベルメゾンシラトリ1F,月9:00~18:45/火9:00~18:45/水9:00~18:45/木9:00~18:45/金9:00~18:45/土9:00~14:00,無,,
川越駅前薬局,112011,埼玉県,川越市,35.908081,139.481064,050-1808-9599,050-3535-6551,350-1123,川越市脇田本町15-18ニュ-パレ-スビル1F,8:00~22:00,有,090-1905-3902,
あすか薬局西口,112011,埼玉県,川越市,35.906048,139.48201,492435208,492435208,350-1123,川越市脇田本町6-18,月~土:9:00~18:00,有,07047998812,
アイセイ薬局川越駅前店,112011,埼玉県,川越市,35.907391,139.482651,049-291-6170,049-247-3217,350-1123,川越市脇田本町1-5川越ウエストビル1階,月~金 9:00~19:00、土 8:00~17:00,無,049-291-6170,
薬局アポック ウニクス川越店,112011,埼玉県,川越市,35.903923,139.479935,049-293-3593,049-293-3593,350-1124,川越市新宿町1-17-1 3Fウニクス川越,月~金9:00~13:00 14:00~18:00,無,090-7185-0822,
ウエルシア薬局川越新宿店,112011,埼玉県,川越市,35.89444,139.473022,049-249-0262,049-249-0263,350-1124,川越市新宿町6-27-5,月~土:9時~19時 日・祝日:9時~13時半、14時半~18時,有,080-7436-5463,
旭町薬局,112011,埼玉県,川越市,35.9007,139.475876,049-241-7316,049-241-7316,350-1126,川越市旭町2-1-14,月・火・水・金9:00~18:00木9:00~17:00土9:00~13:00,有,049-241-7316,
なの花薬局川越あさひ店,112011,埼玉県,川越市,35.901318,139.474625,049-247-2338,049-256-7419,350-1126,川越市旭町2-8-4,月~水9:00~18:30木9:00~17:00土9:00~13:00,有,049-247-2338,
パル薬局新河岸店,112011,埼玉県,川越市,35.890163,139.492325,049-265-7533,049-265-7534,350-1137,川越市砂新田80-2,月~水9:00~18:00、金~土9:00~18:00,無,0492657533,
あおい調剤薬局川越よつや店,112011,埼玉県,川越市,35.893158,139.466843,049-293-3981,0492933982,350-1163,川越市四都野台15-6,月・火・木・金 9:00-18:30 水 9:00-17:00 土 9:00-13:30,有,090-4070-8835,
かしのき薬局,112011,埼玉県,川越市,35.890388,139.454193,492494145,492494155,350-1165,埼玉県川越市南台2-13-7 21ビル,月、火、木、金 9:00~19:00 水 9:00~18:00 土9:00~13:00,有,07050796229,
大袋新田薬局,112011,埼玉県,川越市,35.894253,139.450134,049-291-2581,049-291-2581,350-1167,川越市大袋新田815-9,月~金9:00~18:00土9:000~13:00木10:00~18:00 ,有,090-1779-6826,
みさき薬局本店,112011,埼玉県,川越市,35.903065,139.419952,492312190,492310548,350-1173,川越市安比奈新田279-18,月-金9:00-18:00土9:00-12:00,無,08023429019,
ひかり薬局,112011,埼玉県,川越市,35.905914,139.405838,492342926,492342941,350-1175,川越市笠幡3722-11,月~金 9:00~20:00 土 9:00~18:00,有,492342926,
アイン薬局川越笠幡店,112011,埼玉県,川越市,35.914745,139.405136,492370866,492370867,350-1175,川越市笠幡2080-4,日・月・水・木・金・土:9:00-18:00 火:10:00-18:00,有,492370866,
クオ-ル薬局川鶴店,112011,埼玉県,川越市,35.92292,139.411026,049-298-5355,049-298-5366,350-1176,川越市川鶴2-12-1 A棟4号室,月~水・金8:30~18:00木9:00~17:00土8:30~14:00,無,,
ドラッグセイムス日高原宿薬局,112429,埼玉県,日高市,35.901356,139.343124,	042-	978-	9571,	042-	978-	9572,350-1205,日高市原宿210-6,月-土 10時-14時、15時-19時日、祝 休み,有,	042-	978-	9571,
かばさん薬局日高店,112429,埼玉県,日高市,35.900932,139.341705,042-978-5771,042-978-5771,350-1205,日高市原宿216-29,月~金8:30~18:30土8:30~17:00日・祝休み,無,,
アイン薬局旭ヶ丘店,112429,埼玉県,日高市,35.912674,139.37294,042-986-0093,042-986-0094,350-1211,日高市大字森戸新田102-7,月~金9:00~18:00 土9:00~14:00,無,,
薬局アポック高萩店,112429,埼玉県,日高市,35.900536,139.371078,042-984-2200,042-984-2201,350-1213,日高市高萩605-1,月・水~金9:00~18:00火9:00~17:00土9:00~13:00,有,090-7019-2192,
薬局アポック高萩あさひ口店,112429,埼玉県,日高市,35.902821,139.371017,042-984-2121,042-984-2122,350-1213,日高市高萩171-4秋元ビル1F,月~金9:00~18:00 土9:00~12:30,有,090-7019-2089,
アポック日高センタ-前薬局2号店,112429,埼玉県,日高市,35.917511,139.326111,042-984-0070,042-984-0071,350-1241,日高市山根1385-1,9:00~18:00,有,090-9010-6670,
ハ-ト薬局,112429,埼玉県,日高市,35.916294,139.326721,429860013,429861313,350-1242,日高市北平沢512-1,月-土:9:00-18:00,有,429860013,
阪神調剤薬局 埼玉日高店,112429,埼玉県,日高市,35.887295,139.317368,042-984-0828,042-984-0829,350-1245,日高市栗坪106-1,月8:30~18:00/火8:30~18:00/水8:30~18:00/木8:30~18:00/金8:30~18:00/土8:30~18:00/備考:祝日は閉局,有,080-6115-4022,
こま薬局,112429,埼玉県,日高市,35.881256,139.298767,042-982-5522,042-982-5523,350-1254,日高市久保274-19,月~土 9:00~18:00,有,0429825522,
ハ-ト薬局武蔵台店,112429,埼玉県,日高市,35.879845,139.301788,429785077,429785088,350-1255,日高市武蔵台1-23-14,月-土 8:30-17:30 木、日、祝休み,無,429785077,
入間川薬局,112151,埼玉県,狭山市,35.858162,139.409149,429691954,429691955,350-1305,狭山市入間川3-2-23,月火水金9:00-18:00 木9:00-17:00 土9:00-12:00,有,429691954,
南山堂薬局狭山市駅前店,112151,埼玉県,狭山市,35.858047,139.412247,04-2946-8271,04-2946-8272,350-1305,狭山市入間川1-3-2 スカイテラス商業施設棟3F,月・水・金8:30~18:00火8:30~19:30木・土8:30~17:30第1・3・5日9:00~12:30,有,080-8033-1494,
